#RANGEA,USB1_1,0,70.5,FINESTEERING,2000,360482.000,00000000,5103,12778;9,21,0,24085536.756,0.070,-126570355.210889,0.027,-1288.932,44.2,2610.690,08009c04,23,0,22199913.942,2.452,-116661352.419171,0.104,-1508.529,31.6,1.180,08009424,9,0,22768359.666,0.124,-119648538.794863,0.095,399.395,39.9,115.120,08009c44,8,0,21918817.870,0.158,-115184162.326522,0.032,2657.097,39.1,85.380,08009c64,7,0,25003968.404,0.099,-131396742.122609,0.030,3458.956,42.3,104.750,08009c84,31,0,24224505.743,0.052,-127300596.360663,0.026,-3179.595,46.7,2610.710,18009ca4,26,0,22195405.525,0.047,-116637633.671315,0.026,-1967.116,47.7,2610.800,18009ce4,16,0,20803805.835,0.036,-109324737.889306,0.026,-1077.391,49.9,2610.730,08009d24,27,0,19964513.866,0.030,-104914244.664878,0.025,410.301,51.7,2611.010,18009d44*1034bb39
#SATXYZ2A,USB1_1,0,70.5,FINESTEERING,2000,360482.000,00000000,7513,12778;9,GPS,21,-18162520.7206,-6667580.4233,18996513.6114,-119031.718,8.892,6.180,0.0,0.0,GPS,23,1217305.7516,25704788.6947,5867238.0328,-65111.902,6.666,4.180,0.0,0.0,GPS,9,9366746.9237,18769209.0967,16252868.2047,153923.698,7.674,5.193,0.0,0.0,GPS,8,-4995197.3029,25865413.9334,2701154.3137,-30202.077,6.221,3.803,0.0,0.0,GPS,7,15361747.9320,9076119.6088,20025651.0076,58254.332,11.023,14.743,0.0,0.0,GPS,31,-25624663.9234,5998319.6584,-4945180.1416,36797.888,10.373,8.623,0.0,0.0,GPS,26,-20205171.8777,229373.4537,17295358.6944,-46308.630,6.554,3.930,0.0,0.0,GPS,16,-12875242.2463,7745942.7687,21787903.8247,7573.409,4.904,2.877,0.0,0.0,GPS,27,-12069443.1692,18719632.3506,14191009.9530,110729.371,4.340,2.488,0.0,0.0*4f58d2f1
#BESTPOSA,USB1_1,0,70.5,FINESTEERING,2000,360482.000,00000000,7145,12778;SOL_COMPUTED,SINGLE,36.76973555662,126.93478404853,74.9070,23.3000,WGS84,1.4963,1.1796,2.1689,"",0.000,0.000,9,9,9,9,0,12,00,01*70a97c30
#BESTXYZA,USB1_1,0,70.5,FINESTEERING,2000,360482.000,00000000,bde7,12778;SOL_COMPUTED,SINGLE,-3073878.1205,4088848.9864,3797013.0009,1.5142,1.5760,1.8863,SOL_COMPUTED,SINGLE,0.0000,0.0000,0.0000,0.0011,0.0011,0.0011,"",0.150,0.000,0.000,9,9,9,9,0,12,00,01*a2400e53
#RANGEA,USB1_1,0,67.5,FINESTEERING,2000,360483.000,00000000,5103,12778;9,21,0,24085782.528,0.069,-126571646.655310,0.029,-1291.575,44.4,2611.690,08009c04,23,0,22200201.630,2.828,-116662864.304831,0.174,-1511.376,30.8,2.180,08009424,9,0,22768284.133,0.115,-119648141.851086,0.068,396.696,40.6,116.120,08009c44,8,0,21918312.702,0.159,-115181507.593674,0.033,2654.330,39.0,86.380,08009c64,7,0,25003310.570,0.097,-131393285.180802,0.030,3456.923,42.4,105.750,08009c84,31,0,24225111.277,0.052,-127303778.254460,0.027,-3181.949,46.8,2611.710,18009ca4,26,0,22195780.286,0.047,-116639603.013949,0.027,-1969.138,47.8,2611.800,18009ce4,16,0,20804011.249,0.036,-109325817.399150,0.027,-1079.243,49.9,2611.730,08009d24,27,0,19964436.246,0.030,-104913836.775708,0.026,407.948,51.7,2612.010,18009d44*ce0262f1
#SATXYZ2A,USB1_1,0,67.5,FINESTEERING,2000,360483.000,00000000,7513,12778;9,GPS,21,-18160544.5760,-6668675.5542,18998087.2397,-119031.715,8.893,6.181,0.0,0.0,GPS,23,1216868.2432,25705461.3368,5864192.8210,-65111.902,6.687,4.198,0.0,0.0,GPS,9,9366296.0608,18771241.8070,16250783.0044,153923.698,7.674,5.192,0.0,0.0,GPS,8,-4995420.3939,25865046.0309,2704334.2875,-30202.078,6.220,3.802,0.0,0.0,GPS,7,15359467.9916,9077108.6488,20026920.5835,58254.331,11.022,14.734,0.0,0.0,GPS,31,-25624160.8836,5997881.7272,-4948252.5795,36797.888,10.374,8.626,0.0,0.0,GPS,26,-20206831.8421,227927.7356,17293452.8464,-46308.626,6.554,3.931,0.0,0.0,GPS,16,-12877297.4033,7744053.3384,21787405.3967,7573.408,4.904,2.877,0.0,0.0,GPS,27,-12069402.0428,18717800.2429,14193473.6375,110729.370,4.340,2.488,0.0,0.0*da5d7976
#BESTPOSA,USB1_1,0,67.5,FINESTEERING,2000,360483.000,00000000,7145,12778;SOL_COMPUTED,SINGLE,36.76973555662,126.93478404853,74.9070,23.3000,WGS84,1.4963,1.1796,2.1689,"",0.000,0.000,9,9,9,9,0,12,00,01*350ce9ce
#BESTXYZA,USB1_1,0,67.5,FINESTEERING,2000,360483.000,00000000,bde7,12778;SOL_COMPUTED,SINGLE,-3073878.1205,4088848.9864,3797013.0009,1.5142,1.5760,1.8863,SOL_COMPUTED,SINGLE,0.0000,0.0000,0.0000,0.0011,0.0011,0.0011,"",0.150,0.000,0.000,9,9,9,9,0,12,00,01*b17cc648
#RANGEA,USB1_1,0,67.5,FINESTEERING,2000,360484.000,00000000,5103,12778;9,21,0,24086028.105,0.068,-126572937.125273,0.029,-1291.276,44.5,2612.690,08009c04,23,0,22200486.408,2.213,-116664375.289405,0.106,-1512.016,30.8,3.180,08009424,9,0,22768208.440,0.116,-119647744.100940,0.081,396.759,40.4,117.120,08009c44,8,0,21917807.308,0.161,-115178851.806329,0.033,2654.394,38.8,87.380,08009c64,7,0,25002652.456,0.095,-131389826.752751,0.031,3458.035,42.6,106.750,08009c84,31,0,24225716.561,0.051,-127306958.856705,0.027,-3181.324,46.9,2612.710,18009ca4,26,0,22196154.782,0.046,-116641571.023265,0.027,-1968.636,47.9,2612.800,18009ce4,16,0,20804216.436,0.036,-109326895.683728,0.027,-1079.083,49.9,2612.730,08009d24,27,0,19964358.464,0.030,-104913428.031718,0.026,407.741,51.7,2613.010,18009d44*8a3874a4
#SATXYZ2A,USB1_1,0,67.5,FINESTEERING,2000,360484.000,00000000,7513,12778;9,GPS,21,-18158568.3247,-6669770.8755,18999660.4881,-119031.711,8.893,6.181,0.0,0.0,GPS,23,1216430.8130,25706133.6221,5861147.4821,-65111.903,6.688,4.198,0.0,0.0,GPS,9,9365845.3443,18773274.2824,16248697.4574,153923.698,7.674,5.192,0.0,0.0,GPS,8,-4995643.4580,25864677.7434,2707514.2032,-30202.078,6.219,3.802,0.0,0.0,GPS,7,15357187.9599,9078097.8821,20028189.7456,58254.330,11.021,14.725,0.0,0.0,GPS,31,-25623657.5121,5997443.6299,-4951324.9147,36797.888,10.376,8.629,0.0,0.0,GPS,26,-20208491.6968,226482.2560,17291546.6320,-46308.622,6.555,3.931,0.0,0.0,GPS,16,-12879352.6274,7742164.0826,21786906.5003,7573.408,4.904,2.877,0.0,0.0,GPS,27,-12069360.9867,18715967.8238,14195937.0147,110729.369,4.341,2.488,0.0,0.0*f532bf65
#BESTPOSA,USB1_1,0,67.5,FINESTEERING,2000,360484.000,00000000,7145,12778;SOL_COMPUTED,SINGLE,36.76973555662,126.93478404853,74.9070,23.3000,WGS84,1.4963,1.1796,2.1689,"",0.000,0.000,9,9,9,9,0,12,00,01*b52f9c21
#BESTXYZA,USB1_1,0,67.5,FINESTEERING,2000,360484.000,00000000,bde7,12778;SOL_COMPUTED,SINGLE,-3073878.1205,4088848.9864,3797013.0009,1.5142,1.5760,1.8863,SOL_COMPUTED,SINGLE,-6.3667e-10,-7.2199e-10,3.8078e-10,0.0011,0.0011,0.0011,"",0.150,0.000,0.000,9,9,9,9,0,12,00,01*4fa092ff
#RANGEA,USB1_1,0,70.5,FINESTEERING,2000,360485.000,00000000,5103,12778;9,21,0,24086273.871,0.068,-126574228.543656,0.030,-1291.088,44.5,2613.690,08009c04,23,0,22200772.978,1.979,-116665887.178983,0.123,-1512.141,31.5,4.180,08009424,9,0,22768132.968,0.115,-119647347.413253,0.056,397.473,40.5,118.120,08009c44,8,0,21917302.123,0.167,-115176196.855342,0.033,2655.391,38.5,88.380,08009c64,7,0,25001994.445,0.094,-131386368.769635,0.031,3458.452,42.6,107.750,08009c84,31,0,24226321.954,0.051,-127310140.080111,0.028,-3180.650,46.9,2613.710,18009ca4,26,0,22196529.407,0.045,-116643539.638339,0.028,-1968.223,48.0,2613.800,18009ce4,16,0,20804421.747,0.036,-109327974.611041,0.028,-1078.343,50.0,2613.730,08009d24,27,0,19964280.878,0.030,-104913020.317872,0.028,407.993,51.6,2614.010,18009d44*a2139640
#SATXYZ2A,USB1_1,0,70.5,FINESTEERING,2000,360485.000,00000000,7513,12778;9,GPS,21,-18156591.9667,-6670866.3871,19001233.3566,-119031.708,8.894,6.182,0.0,0.0,GPS,23,1215993.4609,25706805.5505,5858102.0162,-65111.903,6.688,4.198,0.0,0.0,GPS,9,9365394.7743,18775306.5230,16246611.5638,153923.698,7.674,5.192,0.0,0.0,GPS,8,-4995866.4951,25864309.0707,2710694.0608,-30202.079,6.219,3.801,0.0,0.0,GPS,7,15354907.8370,9079087.3087,20029458.4941,58254.329,11.021,14.716,0.0,0.0,GPS,31,-25623153.8087,5997005.3666,-4954397.1471,36797.888,10.377,8.632,0.0,0.0,GPS,26,-20210151.4416,225037.0148,17289640.0512,-46308.618,6.556,3.931,0.0,0.0,GPS,16,-12881407.9187,7740275.0013,21786407.1355,7573.407,4.904,2.877,0.0,0.0,GPS,27,-12069320.0009,18714135.0933,14198400.0848,110729.369,4.341,2.488,0.0,0.0*0a768ed9
#BESTPOSA,USB1_1,0,70.5,FINESTEERING,2000,360485.000,00000000,7145,12778;SOL_COMPUTED,SINGLE,36.76973556702,126.93478407006,74.9077,23.3000,WGS84,1.4889,1.1725,2.1614,"",0.000,0.000,9,9,9,9,0,12,00,01*0992457c
#BESTXYZA,USB1_1,0,70.5,FINESTEERING,2000,360485.000,00000000,bde7,12778;SOL_COMPUTED,SINGLE,-3073878.1219,4088848.9852,3797013.0022,1.5065,1.5702,1.8783,SOL_COMPUTED,SINGLE,0.0000,0.0000,0.0000,0.0011,0.0011,0.0011,"",0.150,0.000,0.000,9,9,9,9,0,12,00,01*b557b409
#RANGEA,USB1_1,0,70.5,FINESTEERING,2000,360486.000,00000000,5103,12778;9,21,0,24086519.666,0.069,-126575520.141368,0.025,-1291.566,44.3,2614.690,08009c04,23,0,22201059.699,1.797,-116667399.350234,0.097,-1512.289,31.5,5.180,08009424,9,0,22768057.559,0.117,-119646951.089129,0.041,395.521,40.3,119.120,08009c44,8,0,21916796.887,0.163,-115173542.006461,0.029,2654.821,38.6,89.380,08009c64,7,0,25001336.354,0.094,-131382910.505254,0.028,3458.433,42.6,108.750,08009c84,31,0,24226927.344,0.051,-127313321.228001,0.022,-3181.013,47.0,2614.710,18009ca4,26,0,22196904.013,0.046,-116645508.134223,0.023,-1968.333,47.8,2614.800,18009ce4,16,0,20804627.047,0.036,-109329053.528954,0.021,-1078.941,49.9,2614.730,08009d24,27,0,19964203.363,0.030,-104912612.975875,0.021,407.144,51.6,2615.010,18009d44*56223c6e
#SATXYZ2A,USB1_1,0,70.5,FINESTEERING,2000,360486.000,00000000,7513,12778;9,GPS,21,-18154615.5021,-6671962.0891,19002805.8452,-119031.704,8.894,6.182,0.0,0.0,GPS,23,1215556.1869,25707477.1222,5855056.4231,-65111.904,6.689,4.199,0.0,0.0,GPS,9,9364944.3507,18777338.5286,16244525.3235,153923.698,7.674,5.192,0.0,0.0,GPS,8,-4996089.5053,25863940.0128,2713873.8602,-30202.080,6.218,3.801,0.0,0.0,GPS,7,15352627.6229,9080076.9286,20030726.8287,58254.329,11.020,14.708,0.0,0.0,GPS,31,-25622649.7735,5996566.9372,-4957469.2766,36797.888,10.379,8.635,0.0,0.0,GPS,26,-20211811.0766,223592.0121,17287733.1042,-46308.614,6.556,3.932,0.0,0.0,GPS,16,-12883463.2771,7738386.0946,21785907.3023,7573.406,4.905,2.877,0.0,0.0,GPS,27,-12069279.0854,18712302.0513,14200862.8475,110729.368,4.341,2.488,0.0,0.0*6235da4b
#BESTPOSA,USB1_1,0,70.5,FINESTEERING,2000,360486.000,00000000,7145,12778;SOL_COMPUTED,SINGLE,36.76973556702,126.93478407006,74.9077,23.3000,WGS84,1.4889,1.1725,2.1614,"",0.000,0.000,9,9,9,9,0,12,00,01*17f8ad6c
#BESTXYZA,USB1_1,0,70.5,FINESTEERING,2000,360486.000,00000000,bde7,12778;SOL_COMPUTED,SINGLE,-3073878.1219,4088848.9852,3797013.0022,1.5066,1.5702,1.8783,SOL_COMPUTED,SINGLE,-7.3519e-10,-8.6448e-10,5.4687e-10,0.0011,0.0011,0.0011,"",0.150,0.000,0.000,9,9,9,9,0,12,00,01*9ebde089
#RANGEA,USB1_1,0,71.0,FINESTEERING,2000,360487.000,00000000,5103,12778;8,21,0,24086765.664,0.068,-126576812.811091,0.023,-1290.993,44.5,2615.690,08009c04,9,0,22767982.356,0.115,-119646555.921002,0.034,396.811,40.4,120.120,08009c44,8,0,21916291.867,0.159,-115170888.142792,0.028,2655.652,38.8,90.380,08009c64,7,0,25000678.392,0.091,-131379452.778050,0.025,3459.945,42.8,109.750,08009c84,31,0,24227532.861,0.050,-127316503.112229,0.020,-3179.996,47.1,2615.710,18009ca4,26,0,22197278.742,0.045,-116647477.328435,0.020,-1967.309,48.0,2615.800,18009ce4,16,0,20804832.502,0.036,-109330133.206002,0.020,-1077.931,50.0,2615.730,08009d24,27,0,19964126.058,0.030,-104912206.774018,0.020,407.847,51.6,2616.010,18009d44*8ff062b2
#SATXYZ2A,USB1_1,0,71.0,FINESTEERING,2000,360487.000,00000000,7513,12778;8,GPS,21,-18152638.9308,-6673057.9815,19004377.9537,-119031.701,8.895,6.183,0.0,0.0,GPS,9,9364494.0735,18779370.2993,16242438.7368,153923.698,7.674,5.192,0.0,0.0,GPS,8,-4996312.4887,25863570.5698,2717053.6013,-30202.080,6.218,3.800,0.0,0.0,GPS,7,15350347.3176,9081066.7418,20031994.7495,58254.328,11.019,14.699,0.0,0.0,GPS,31,-25622145.4066,5996128.3417,-4960541.3032,36797.888,10.380,8.638,0.0,0.0,GPS,26,-20213470.6017,222147.2479,17285825.7909,-46308.610,6.557,3.932,0.0,0.0,GPS,16,-12885518.7026,7736497.3624,21785407.0008,7573.406,4.905,2.878,0.0,0.0,GPS,27,-12069238.2403,18710468.6980,14203325.3029,110729.367,4.341,2.488,0.0,0.0*cee009f9
#BESTPOSA,USB1_1,0,71.0,FINESTEERING,2000,360487.000,00000000,7145,12778;SOL_COMPUTED,SINGLE,36.76973557837,126.93478408874,74.9088,23.3000,WGS84,1.4816,1.1659,2.1536,"",0.000,0.000,8,8,8,8,0,12,00,01*6552da23
#BESTXYZA,USB1_1,0,71.0,FINESTEERING,2000,360487.000,00000000,bde7,12778;SOL_COMPUTED,SINGLE,-3073878.1234,4088848.9843,3797013.0039,1.4989,1.5644,1.8704,SOL_COMPUTED,SINGLE,0.0000,0.0000,0.0000,0.0009,0.0009,0.0009,"",0.150,0.000,0.000,8,8,8,8,0,12,00,01*a6e0be11
#RANGEA,USB1_1,0,69.0,FINESTEERING,2000,360488.000,00000000,5103,12778;8,21,0,24087011.604,0.070,-126578105.184476,0.024,-1291.703,44.3,2616.690,08009c04,9,0,22767907.157,0.122,-119646160.650563,0.079,396.109,39.9,121.120,08009c44,8,0,21915786.818,0.167,-115168233.893266,0.075,2655.133,38.3,91.380,08009c64,7,0,25000020.258,0.091,-131375994.288785,0.026,3459.418,42.8,110.750,08009c84,31,0,24228138.267,0.052,-127319684.415608,0.022,-3180.674,46.8,2616.710,18009ca4,26,0,22197653.358,0.046,-116649445.913714,0.023,-1967.806,47.8,2616.800,18009ce4,16,0,20805037.850,0.036,-109331212.357844,0.022,-1078.392,49.9,2616.730,08009d24,27,0,19964048.730,0.031,-104911800.434274,0.022,406.879,51.4,2617.010,18009d44*e1edf047
#SATXYZ2A,USB1_1,0,69.0,FINESTEERING,2000,360488.000,00000000,7513,12778;8,GPS,21,-18150662.2530,-6674154.0642,19005949.6823,-119031.697,8.895,6.183,0.0,0.0,GPS,9,9364043.9426,18781401.8349,16240351.8035,153923.699,7.674,5.192,0.0,0.0,GPS,8,-4996535.4453,25863200.7417,2720233.2841,-30202.081,6.217,3.799,0.0,0.0,GPS,7,15348066.9213,9082056.7482,20033262.2564,58254.327,11.018,14.690,0.0,0.0,GPS,31,-25621640.7080,5995689.5799,-4963613.2267,36797.888,10.382,8.641,0.0,0.0,GPS,26,-20215130.0168,220702.7222,17283918.1113,-46308.606,6.558,3.933,0.0,0.0,GPS,16,-12887574.1951,7734608.8048,21784906.2308,7573.405,4.905,2.878,0.0,0.0,GPS,27,-12069197.4656,18708635.0334,14205787.4509,110729.366,4.341,2.488,0.0,0.0*7d88c9d0
#BESTPOSA,USB1_1,0,69.0,FINESTEERING,2000,360488.000,00000000,7145,12778;SOL_COMPUTED,SINGLE,36.76973557837,126.93478408874,74.9088,23.3000,WGS84,1.4816,1.1659,2.1536,"",0.000,0.000,8,8,8,8,0,12,00,01*cc7ae161
#BESTXYZA,USB1_1,0,69.0,FINESTEERING,2000,360488.000,00000000,bde7,12778;SOL_COMPUTED,SINGLE,-3073878.1234,4088848.9843,3797013.0039,1.4989,1.5644,1.8704,SOL_COMPUTED,SINGLE,-3.7123e-10,-4.3560e-10,3.0705e-10,0.0010,0.0010,0.0010,"",0.150,0.000,0.000,8,8,8,8,0,12,00,01*25a7c940
#RANGEA,USB1_1,0,66.0,FINESTEERING,2000,360489.000,00000000,5103,12778;8,21,0,24087257.583,0.067,-126579397.720494,0.024,-1293.409,44.6,2617.690,08009c04,9,0,22767832.006,0.117,-119645765.695449,0.055,393.355,40.2,122.120,08009c44,8,0,21915281.750,0.156,-115165579.767995,0.052,2653.044,38.9,92.380,08009c64,7,0,24999362.059,0.089,-131372535.454461,0.027,3458.213,42.9,111.750,08009c84,31,0,24228743.650,0.050,-127322865.568208,0.024,-3181.996,47.1,2617.710,18009ca4,26,0,22198027.933,0.046,-116651414.313363,0.023,-1969.234,47.8,2617.800,18009ce4,16,0,20805243.177,0.035,-109332291.389983,0.023,-1080.006,50.2,2617.730,08009d24,27,0,19963971.457,0.030,-104911394.371140,0.023,404.937,51.6,2618.010,18009d44*0b66fc6d
#SATXYZ2A,USB1_1,0,66.0,FINESTEERING,2000,360489.000,00000000,7513,12778;8,GPS,21,-18148685.4687,-6675250.3372,19007521.0308,-119031.694,8.896,6.184,0.0,0.0,GPS,9,9363593.9581,18783433.1354,16238264.5237,153923.699,7.674,5.192,0.0,0.0,GPS,8,-4996758.3752,25862830.5284,2723412.9084,-30202.082,6.216,3.799,0.0,0.0,GPS,7,15345786.4340,9083046.9480,20034529.3495,58254.326,11.017,14.681,0.0,0.0,GPS,31,-25621135.6777,5995250.6520,-4966685.0472,36797.888,10.383,8.644,0.0,0.0,GPS,26,-20216789.3218,219258.4350,17282010.0657,-46308.602,6.558,3.933,0.0,0.0,GPS,16,-12889629.7545,7732720.4219,21784404.9925,7573.404,4.906,2.878,0.0,0.0,GPS,27,-12069156.7614,18706801.0575,14208249.2915,110729.366,4.341,2.488,0.0,0.0*c6457c62
#BESTPOSA,USB1_1,0,66.0,FINESTEERING,2000,360489.000,00000000,7145,12778;SOL_COMPUTED,SINGLE,36.76973557837,126.93478408874,74.9088,23.3000,WGS84,1.4816,1.1659,2.1536,"",0.000,0.000,8,8,8,8,0,12,00,01*4736078d
#BESTXYZA,USB1_1,0,66.0,FINESTEERING,2000,360489.000,00000000,bde7,12778;SOL_COMPUTED,SINGLE,-3073878.1234,4088848.9843,3797013.0039,1.4989,1.5644,1.8704,SOL_COMPUTED,SINGLE,-1.3528e-11,-1.5873e-11,1.1189e-11,0.0008,0.0008,0.0008,"",0.150,0.000,0.000,8,8,8,8,0,12,00,01*4a0467dc
#RANGEA,USB1_1,0,64.0,FINESTEERING,2000,360490.000,00000000,5103,12778;8,21,0,24087504.000,0.068,-126580692.595822,0.025,-1294.729,44.5,2618.690,08009c04,9,0,22767757.314,0.109,-119645373.196042,0.128,392.826,40.7,123.120,08009c44,8,0,21914777.102,0.160,-115162927.868804,0.041,2652.486,38.6,93.380,08009c64,7,0,24998704.231,0.089,-131369078.472438,0.028,3457.525,42.9,112.750,08009c84,31,0,24229349.427,0.049,-127326048.758963,0.024,-3182.867,47.4,2618.710,18009ca4,26,0,22198402.896,0.047,-116653384.707883,0.024,-1970.155,47.7,2618.800,18009ce4,16,0,20805448.905,0.035,-109333372.501780,0.023,-1080.865,50.3,2618.730,08009d24,27,0,19963894.652,0.030,-104910990.762282,0.024,403.580,51.6,2619.010,18009d44*4221695d
#SATXYZ2A,USB1_1,0,64.0,FINESTEERING,2000,360490.000,00000000,7513,12778;8,GPS,21,-18146708.5780,-6676346.8006,19009091.9992,-119031.690,8.896,6.184,0.0,0.0,GPS,9,9363144.1198,18785464.2008,16236176.8975,153923.699,7.674,5.191,0.0,0.0,GPS,8,-4996981.2784,25862459.9301,2726592.4743,-30202.083,6.216,3.798,0.0,0.0,GPS,7,15343505.8557,9084037.3410,20035796.0287,58254.325,11.016,14.673,0.0,0.0,GPS,31,-25620630.3158,5994811.5578,-4969756.7646,36797.888,10.385,8.647,0.0,0.0,GPS,26,-20218448.5167,217814.3863,17280101.6538,-46308.598,6.559,3.934,0.0,0.0,GPS,16,-12891685.3807,7730832.2137,21783903.2859,7573.404,4.906,2.878,0.0,0.0,GPS,27,-12069116.1277,18704966.7704,14210710.8246,110729.365,4.341,2.487,0.0,0.0*47f12722
#BESTPOSA,USB1_1,0,64.0,FINESTEERING,2000,360490.000,00000000,7145,12778;SOL_COMPUTED,SINGLE,36.76973558470,126.93478409699,74.9095,23.3000,WGS84,1.4783,1.1629,2.1500,"",0.000,0.000,8,8,8,8,0,12,00,01*10411b59
#BESTXYZA,USB1_1,0,64.0,FINESTEERING,2000,360490.000,00000000,bde7,12778;SOL_COMPUTED,SINGLE,-3073878.1240,4088848.9840,3797013.0049,1.4954,1.5618,1.8668,SOL_COMPUTED,SINGLE,-2.7976e-10,-3.1856e-10,2.4792e-10,0.0008,0.0008,0.0008,"",0.150,0.000,0.000,8,8,8,8,0,12,00,01*ecb40337
#RANGEA,USB1_1,0,62.5,FINESTEERING,2000,360491.000,00000000,5103,12778;8,21,0,24087750.328,0.067,-126581987.013324,0.030,-1294.101,44.6,2619.690,08009c04,9,0,22767682.566,0.118,-119644980.423222,0.110,392.450,40.0,124.120,08009c44,8,0,21914272.341,0.161,-115160275.476748,0.105,2652.056,38.5,94.380,08009c64,7,0,24998046.205,0.088,-131365620.522494,0.030,3458.785,43.0,113.750,08009c84,31,0,24229955.057,0.049,-127329231.187037,0.028,-3181.575,47.4,2619.710,18009ca4,26,0,22198777.710,0.049,-116655354.313468,0.027,-1968.964,47.4,2619.800,18009ce4,16,0,20805654.497,0.035,-109334452.897404,0.026,-1079.885,50.3,2619.730,08009d24,27,0,19963817.779,0.030,-104910586.829913,0.027,404.165,51.6,2620.010,18009d44*7b59999c
#SATXYZ2A,USB1_1,0,62.5,FINESTEERING,2000,360491.000,00000000,7513,12778;8,GPS,21,-18144731.5809,-6677443.4543,19010662.5876,-119031.687,8.897,6.185,0.0,0.0,GPS,9,9362694.4279,18787495.0310,16234088.9249,153923.699,7.674,5.191,0.0,0.0,GPS,8,-4997204.1550,25862088.9465,2729771.9817,-30202.083,6.215,3.798,0.0,0.0,GPS,7,15341225.1865,9085027.9274,20037062.2940,58254.324,11.016,14.664,0.0,0.0,GPS,31,-25620124.6222,5994372.2972,-4972828.3787,36797.888,10.386,8.651,0.0,0.0,GPS,26,-20220107.6015,216370.5761,17278192.8759,-46308.594,6.560,3.934,0.0,0.0,GPS,16,-12893741.0738,7728944.1802,21783401.1110,7573.403,4.906,2.878,0.0,0.0,GPS,27,-12069075.5646,18703132.1721,14213172.0501,110729.364,4.341,2.487,0.0,0.0*574eeb4a
#BESTPOSA,USB1_1,0,62.5,FINESTEERING,2000,360491.000,00000000,7145,12778;SOL_COMPUTED,SINGLE,36.76973558470,126.93478409699,74.9095,23.3000,WGS84,1.4783,1.1629,2.1500,"",0.000,0.000,8,8,8,8,0,12,00,01*65c68423
#BESTXYZA,USB1_1,0,62.5,FINESTEERING,2000,360491.000,00000000,bde7,12778;SOL_COMPUTED,SINGLE,-3073878.1240,4088848.9840,3797013.0049,1.4954,1.5618,1.8668,SOL_COMPUTED,SINGLE,-2.6519e-11,-3.0197e-11,2.3501e-11,0.0008,0.0008,0.0008,"",0.150,0.000,0.000,8,8,8,8,0,12,00,01*877bc985
#RANGEA,USB1_1,0,62.5,FINESTEERING,2000,360492.000,00000000,5103,12778;8,21,0,24087996.570,0.069,-126583280.987437,0.029,-1296.688,44.3,2620.690,08009c04,9,0,22767607.727,0.123,-119644587.340583,0.099,389.840,39.7,125.120,08009c44,8,0,21913767.514,0.165,-115157622.519587,0.069,2649.896,38.2,95.380,08009c64,7,0,24997388.012,0.085,-131362161.656859,0.028,3456.332,43.2,114.750,08009c84,31,0,24230560.544,0.049,-127332412.909037,0.028,-3184.459,47.3,2620.710,18009ca4,26,0,22199152.374,0.050,-116657323.156552,0.027,-1971.427,47.2,2620.800,18009ce4,16,0,20805859.957,0.035,-109335532.612407,0.027,-1082.448,50.3,2620.730,08009d24,27,0,19963740.852,0.030,-104910182.584330,0.027,401.398,51.5,2621.010,18009d44*14e39675
#SATXYZ2A,USB1_1,0,62.5,FINESTEERING,2000,360492.000,00000000,7513,12778;8,GPS,21,-18142754.4775,-6678540.2984,19012232.7958,-119031.683,8.897,6.185,0.0,0.0,GPS,9,9362244.8822,18789525.6259,16232000.6061,153923.699,7.674,5.191,0.0,0.0,GPS,8,-4997427.0050,25861717.5779,2732951.4305,-30202.084,6.214,3.797,0.0,0.0,GPS,7,15338944.4266,9086018.7070,20038328.1453,58254.324,11.015,14.655,0.0,0.0,GPS,31,-25619618.5971,5993932.8704,-4975899.8896,36797.888,10.388,8.654,0.0,0.0,GPS,26,-20221766.5761,214927.0044,17276283.7320,-46308.590,6.561,3.934,0.0,0.0,GPS,16,-12895796.8337,7727056.3215,21782898.4677,7573.402,4.906,2.878,0.0,0.0,GPS,27,-12069035.0720,18701297.2626,14215632.9680,110729.363,4.341,2.487,0.0,0.0*d51d7eac
#BESTPOSA,USB1_1,0,62.5,FINESTEERING,2000,360492.000,00000000,7145,12778;SOL_COMPUTED,SINGLE,36.76973559177,126.93478410276,74.9103,23.3000,WGS84,1.4751,1.1600,2.1466,"",0.000,0.000,8,8,8,8,0,12,00,01*c6fc9a4f
#BESTXYZA,USB1_1,0,62.5,FINESTEERING,2000,360492.000,00000000,bde7,12778;SOL_COMPUTED,SINGLE,-3073878.1246,4088848.9838,3797013.0060,1.4921,1.5593,1.8633,SOL_COMPUTED,SINGLE,0.0000,0.0000,0.0000,0.0010,0.0010,0.0010,"",0.150,0.000,0.000,8,8,8,8,0,12,00,01*41c44d52
#RANGEA,USB1_1,0,66.5,FINESTEERING,2000,360493.000,00000000,5103,12778;9,21,0,24088243.046,0.072,-126584576.177417,0.032,-1294.771,44.0,2621.690,08009c04,23,0,22203083.617,2.330,-116678017.405930,0.101,-1515.465,32.7,1.160,08009424,9,0,22767533.149,0.110,-119644195.632472,0.077,391.474,40.6,126.120,08009c44,8,0,21913262.910,0.176,-115154970.749463,0.084,2651.085,37.6,96.380,08009c64,7,0,24996729.941,0.084,-131358703.476435,0.033,3459.157,43.3,115.750,08009c84,31,0,24231166.198,0.048,-127335595.501229,0.030,-3182.055,47.5,2621.710,18009ca4,26,0,22199527.196,0.051,-116659292.859801,0.031,-1969.179,47.0,2621.800,18009ce4,16,0,20806065.595,0.035,-109336613.257863,0.030,-1080.159,50.3,2621.730,08009d24,27,0,19963664.178,0.030,-104909779.675828,0.030,403.078,51.5,2622.010,18009d44*8f3b9a6a
#SATXYZ2A,USB1_1,0,66.5,FINESTEERING,2000,360493.000,00000000,7513,12778;9,GPS,21,-18140777.2678,-6679637.3329,19013802.6239,-119031.680,8.897,6.186,0.0,0.0,GPS,23,1212497.4512,25712168.1297,5833733.7210,-65111.908,6.690,4.199,0.0,0.0,GPS,9,9361795.4827,18791555.9856,16229911.9409,153923.699,7.674,5.191,0.0,0.0,GPS,8,-4997649.8286,25861345.8241,2736130.8206,-30202.085,6.214,3.797,0.0,0.0,GPS,7,15336663.5758,9087009.6799,20039593.5826,58254.323,11.014,14.647,0.0,0.0,GPS,31,-25619112.2404,5993493.2771,-4978971.2972,36797.888,10.390,8.657,0.0,0.0,GPS,26,-20223425.4403,213483.6713,17274374.2220,-46308.586,6.561,3.935,0.0,0.0,GPS,16,-12897852.6602,7725168.6376,21782395.3562,7573.402,4.907,2.878,0.0,0.0,GPS,27,-12068994.6502,18699462.0420,14218093.5783,110729.362,4.341,2.487,0.0,0.0*0bfea4fa
#BESTPOSA,USB1_1,0,66.5,FINESTEERING,2000,360493.000,00000000,7145,12778;SOL_COMPUTED,SINGLE,36.76973559177,126.93478410276,74.9103,23.3000,WGS84,1.4751,1.1600,2.1466,"",0.000,0.000,9,9,9,9,0,12,00,01*f1bdd117
#BESTXYZA,USB1_1,0,66.5,FINESTEERING,2000,360493.000,00000000,bde7,12778;SOL_COMPUTED,SINGLE,-3073878.1246,4088848.9838,3797013.0060,1.4921,1.5593,1.8633,SOL_COMPUTED,SINGLE,-2.9669e-10,-4.3498e-10,4.6770e-10,0.0011,0.0011,0.0011,"",0.150,0.000,0.000,9,9,9,9,0,12,00,01*4d4a1723
#RANGEA,USB1_1,0,66.5,FINESTEERING,2000,360494.000,00000000,5103,12778;8,21,0,24088489.583,0.074,-126585871.705081,0.029,-1296.683,43.7,2622.690,08009c04,9,0,22767458.679,0.111,-119643804.382630,0.053,389.635,40.4,127.120,08009c44,8,0,21912758.358,0.162,-115152319.206082,0.057,2650.931,38.3,97.380,08009c64,7,0,24996071.865,0.088,-131355245.203219,0.032,3457.377,42.8,116.750,08009c84,31,0,24231771.877,0.050,-127338778.177884,0.028,-3183.546,47.2,2622.710,18009ca4,26,0,22199902.022,0.050,-116661262.586058,0.029,-1970.568,47.1,2622.800,18009ce4,16,0,20806271.249,0.035,-109337694.023108,0.027,-1081.595,50.2,2622.730,08009d24,27,0,19963587.590,0.030,-104909377.249913,0.028,401.440,51.5,2623.010,18009d44*766fd85e
#SATXYZ2A,USB1_1,0,66.5,FINESTEERING,2000,360494.000,00000000,7513,12778;8,GPS,21,-18138799.9520,-6680734.5577,19015372.0718,-119031.676,8.898,6.186,0.0,0.0,GPS,9,9361346.2294,18793586.1098,16227822.9295,153923.699,7.674,5.191,0.0,0.0,GPS,8,-4997872.6256,25860973.6853,2739310.1519,-30202.085,6.213,3.796,0.0,0.0,GPS,7,15334382.6344,9088000.8460,20040858.6059,58254.322,11.013,14.638,0.0,0.0,GPS,31,-25618605.5522,5993053.5174,-4982042.6014,36797.888,10.391,8.660,0.0,0.0,GPS,26,-20225084.1942,212040.5767,17272464.3461,-46308.582,6.562,3.935,0.0,0.0,GPS,16,-12899908.5534,7723281.1286,21781891.7764,7573.401,4.907,2.878,0.0,0.0,GPS,27,-12068954.2990,18697626.5103,14220553.8808,110729.362,4.341,2.487,0.0,0.0*bf328f93
#BESTPOSA,USB1_1,0,66.5,FINESTEERING,2000,360494.000,00000000,7145,12778;SOL_COMPUTED,SINGLE,36.76973579169,126.93478438690,74.9265,23.3000,WGS84,1.4561,1.1421,2.1267,"",0.000,0.000,8,8,8,8,0,12,00,01*cdef33bc
#BESTXYZA,USB1_1,0,66.5,FINESTEERING,2000,360494.000,00000000,bde7,12778;SOL_COMPUTED,SINGLE,-3073878.1447,4088848.9683,3797013.0335,1.4710,1.5460,1.8422,SOL_COMPUTED,SINGLE,0.0000,0.0000,0.0000,0.0009,0.0009,0.0009,"",0.150,0.000,0.000,8,8,8,8,0,12,00,01*cf9e6b10
#RANGEA,USB1_1,0,65.5,FINESTEERING,2000,360495.000,00000000,5103,12778;8,21,0,24088736.209,0.075,-126587167.731477,0.030,-1297.902,43.6,2623.690,08009c04,9,0,22767384.338,0.116,-119643413.777926,0.079,388.741,40.0,128.120,08009c44,8,0,21912253.851,0.172,-115149668.088370,0.044,2649.110,37.8,98.380,08009c64,7,0,24995413.760,0.085,-131351786.868363,0.032,3456.775,43.1,117.750,08009c84,31,0,24232377.575,0.050,-127341960.994344,0.030,-3184.580,47.1,2623.710,18009ca4,26,0,22200276.876,0.051,-116663232.447251,0.030,-1971.565,47.0,2623.800,18009ce4,16,0,20806476.950,0.035,-109338774.987166,0.029,-1082.627,50.2,2623.730,08009d24,27,0,19963511.121,0.031,-104908975.407172,0.029,399.889,51.4,2624.010,18009d44*ab9dd720
#SATXYZ2A,USB1_1,0,65.5,FINESTEERING,2000,360495.000,00000000,7513,12778;8,GPS,21,-18136822.5300,-6681831.9729,19016941.1395,-119031.673,8.898,6.187,0.0,0.0,GPS,9,9360897.1222,18795615.9987,16225733.5718,153923.700,7.674,5.191,0.0,0.0,GPS,8,-4998095.3963,25860601.1613,2742489.4244,-30202.086,6.212,3.795,0.0,0.0,GPS,7,15332101.6023,9088992.2055,20042123.2152,58254.321,11.012,14.629,0.0,0.0,GPS,31,-25618098.5325,5992613.5912,-4985113.8021,36797.888,10.393,8.663,0.0,0.0,GPS,26,-20226742.8378,210597.7207,17270554.1042,-46308.578,6.563,3.936,0.0,0.0,GPS,16,-12901964.5132,7721393.7945,21781387.7283,7573.400,4.907,2.878,0.0,0.0,GPS,27,-12068914.0186,18695790.6676,14223013.8756,110729.361,4.341,2.487,0.0,0.0*a48fc3e8
#BESTPOSA,USB1_1,0,65.5,FINESTEERING,2000,360495.000,00000000,7145,12778;SOL_COMPUTED,SINGLE,36.76973580402,126.93478435544,74.9215,23.3000,WGS84,1.4701,1.1559,2.1391,"",0.000,0.000,8,8,8,8,0,12,00,01*df8a301f
#BESTXYZA,USB1_1,0,65.5,FINESTEERING,2000,360495.000,00000000,bde7,12778;SOL_COMPUTED,SINGLE,-3073878.1395,4088848.9662,3797013.0316,1.4837,1.5580,1.8559,SOL_COMPUTED,SINGLE,0.0000,0.0000,0.0000,0.0011,0.0011,0.0011,"",0.150,0.000,0.000,8,8,8,8,0,12,00,01*e3e97265
#RANGEA,USB1_1,0,65.5,FINESTEERING,2000,360496.000,00000000,5103,12778;9,21,0,24088982.969,0.074,-126588464.392497,0.033,-1294.820,43.8,2624.690,08009c04,23,0,22203948.596,2.257,-116682555.021952,0.126,-1516.968,32.3,1.160,08009424,9,0,22767310.146,0.117,-119643023.973944,0.058,391.913,39.9,129.120,08009c44,8,0,21911749.436,0.170,-115147017.559016,0.097,2652.474,37.8,99.380,08009c64,7,0,24994755.711,0.085,-131348328.753238,0.034,3459.943,43.1,118.750,08009c84,31,0,24232983.346,0.051,-127345144.195906,0.032,-3181.301,47.0,2624.710,18009ca4,26,0,22200651.796,0.051,-116665202.629224,0.033,-1968.445,47.0,2624.800,18009ce4,16,0,20806682.722,0.035,-109339856.356438,0.032,-1079.827,50.1,2624.730,08009d24,27,0,19963434.795,0.030,-104908574.348662,0.031,402.497,51.5,2625.010,18009d44*c5c795ac
#SATXYZ2A,USB1_1,0,65.5,FINESTEERING,2000,360496.000,00000000,7513,12778;9,GPS,21,-18134845.0020,-6682929.5784,19018509.8269,-119031.669,8.899,6.187,0.0,0.0,GPS,23,1211187.7311,25714173.2063,5824593.5212,-65111.909,6.694,4.202,0.0,0.0,GPS,9,9360448.1613,18797645.6521,16223643.8681,153923.700,7.674,5.190,0.0,0.0,GPS,8,-4998318.1405,25860228.2522,2745668.6381,-30202.087,6.212,3.795,0.0,0.0,GPS,7,15329820.4797,9089983.7582,20043387.4104,58254.320,11.012,14.620,0.0,0.0,GPS,31,-25617591.1814,5992173.4985,-4988184.8993,36797.888,10.394,8.666,0.0,0.0,GPS,26,-20228401.3708,209155.1032,17268643.4964,-46308.574,6.563,3.936,0.0,0.0,GPS,16,-12904020.5395,7719506.6354,21780883.2119,7573.399,4.907,2.878,0.0,0.0,GPS,27,-12068873.8090,18693954.5140,14225473.5625,110729.360,4.341,2.487,0.0,0.0*4ea3dc13
#BESTXYZA,USB1_1,0,65.5,FINESTEERING,2000,360496.000,00000000,bde7,12778;SOL_COMPUTED,SINGLE,-3073878.1418,4088848.9642,3797013.0359,1.4758,1.5510,1.8469,SOL_COMPUTED,SINGLE,0.0000,0.0000,0.0000,0.0011,0.0011,0.0011,"",0.150,0.000,0.000,9,9,9,9,0,12,00,01*4de7289a
#BESTPOSA,USB1_1,0,65.5,FINESTEERING,2000,360496.000,00000000,7145,12778;SOL_COMPUTED,SINGLE,36.76973583655,126.93478438928,74.9240,23.3000,WGS84,1.4623,1.1490,2.1297,"",0.000,0.000,9,9,9,9,0,12,00,01*36724cf5
#RANGEA,USB1_1,0,66.0,FINESTEERING,2000,360497.000,00000000,5103,12778;9,21,0,24089229.673,0.075,-126589760.769290,0.034,-1295.247,43.6,2625.690,08009c04,23,0,22204240.171,2.226,-116684072.420831,0.148,-1516.752,32.4,2.160,08009424,9,0,22767235.925,0.123,-119642634.092042,0.046,390.515,39.4,130.120,08009c44,8,0,21911244.996,0.167,-115144366.632787,0.066,2652.289,37.9,100.380,08009c64,7,0,24994097.520,0.084,-131344869.817658,0.035,3459.923,43.1,119.750,08009c84,31,0,24233589.005,0.053,-127348326.793473,0.033,-3181.525,46.6,2625.710,18009ca4,26,0,22201026.583,0.050,-116667172.174449,0.034,-1968.677,47.2,2625.800,18009ce4,16,0,20806888.393,0.035,-109340937.175866,0.033,-1080.060,50.1,2625.730,08009d24,27,0,19963358.441,0.031,-104908173.132262,0.033,401.802,51.4,2626.010,18009d44*618beab2
#SATXYZ2A,USB1_1,0,66.0,FINESTEERING,2000,360497.000,00000000,7513,12778;9,GPS,21,-18132867.3680,-6684027.3742,19020078.1341,-119031.666,8.899,6.188,0.0,0.0,GPS,23,1210751.3130,25714840.8509,5821546.5352,-65111.910,6.696,4.204,0.0,0.0,GPS,9,9359999.3464,18799675.0700,16221553.8182,153923.700,7.675,5.190,0.0,0.0,GPS,8,-4998540.8585,25859854.9579,2748847.7927,-30202.087,6.211,3.794,0.0,0.0,GPS,7,15327539.2665,9090975.5041,20044651.1915,58254.319,11.011,14.612,0.0,0.0,GPS,31,-25617083.4988,5991733.2393,-4991255.8930,36797.888,10.396,8.669,0.0,0.0,GPS,26,-20230059.7933,207712.7242,17266732.5228,-46308.570,6.564,3.936,0.0,0.0,GPS,16,-12906076.6323,7717619.6512,21780378.2273,7573.399,4.908,2.879,0.0,0.0,GPS,27,-12068833.6702,18692118.0493,14227932.9416,110729.359,4.341,2.487,0.0,0.0*c3da8de2
#BESTPOSA,USB1_1,0,66.0,FINESTEERING,2000,360497.000,00000000,7145,12778;SOL_COMPUTED,SINGLE,36.76973583655,126.93478438928,74.9240,23.3000,WGS84,1.4599,1.1471,2.1262,"",0.000,0.000,9,9,9,9,0,12,00,01*cbc3e33c
#BESTXYZA,USB1_1,0,66.0,FINESTEERING,2000,360497.000,00000000,bde7,12778;SOL_COMPUTED,SINGLE,-3073878.1418,4088848.9642,3797013.0359,1.4733,1.5484,1.8439,SOL_COMPUTED,SINGLE,0.0000,0.0000,0.0000,0.0011,0.0011,0.0011,"",0.150,0.000,0.000,9,9,9,9,0,12,00,01*3be8746d
#RANGEA,USB1_1,0,69.0,FINESTEERING,2000,360498.000,00000000,5103,12778;9,21,0,24089476.520,0.075,-126591057.898944,0.032,-1298.223,43.7,2626.690,08009c04,23,0,22204527.046,1.968,-116685580.612214,0.103,-1520.259,32.0,0.690,08009424,9,0,22767161.842,0.123,-119642245.020285,0.071,387.867,39.4,131.120,08009c44,8,0,21910740.659,0.162,-115141716.387637,0.049,2649.196,38.1,101.380,08009c64,7,0,24993439.366,0.085,-131341411.156194,0.032,3457.508,42.9,120.750,08009c84,31,0,24234194.751,0.054,-127351509.845351,0.031,-3184.023,46.4,2626.710,18009ca4,26,0,22201401.452,0.049,-116669142.120831,0.031,-1971.063,47.3,2626.800,18009ce4,16,0,20807094.153,0.036,-109342018.484444,0.030,-1082.253,50.0,2626.730,08009d24,27,0,19963282.250,0.031,-104907772.782170,0.030,399.113,51.4,2627.010,18009d44*2a529c73
#SATXYZ2A,USB1_1,0,69.0,FINESTEERING,2000,360498.000,00000000,7513,12778;9,GPS,21,-18130889.6280,-6685125.3605,19021646.0609,-119031.662,8.900,6.188,0.0,0.0,GPS,23,1210314.9723,25715508.1384,5818499.4230,-65111.910,6.697,4.204,0.0,0.0,GPS,9,9359550.6776,18801704.2523,16219463.4223,153923.700,7.675,5.190,0.0,0.0,GPS,8,-4998763.5503,25859481.2786,2752026.8884,-30202.088,6.211,3.794,0.0,0.0,GPS,7,15325257.9629,9091967.4434,20045914.5586,58254.319,11.010,14.603,0.0,0.0,GPS,31,-25616575.4848,5991292.8134,-4994326.7830,36797.888,10.397,8.672,0.0,0.0,GPS,26,-20231718.1053,206270.5838,17264821.1834,-46308.566,6.565,3.937,0.0,0.0,GPS,16,-12908132.7915,7715732.8420,21779872.7745,7573.398,4.908,2.879,0.0,0.0,GPS,27,-12068793.6023,18690281.2738,14230392.0128,110729.359,4.341,2.487,0.0,0.0*fad56d00
#BESTPOSA,USB1_1,0,69.0,FINESTEERING,2000,360498.000,00000000,7145,12778;SOL_COMPUTED,SINGLE,36.76973583655,126.93478438928,74.9240,23.3000,WGS84,1.4582,1.1458,2.1237,"",0.000,0.000,9,9,9,9,0,12,00,01*38567e13
#BESTXYZA,USB1_1,0,69.0,FINESTEERING,2000,360498.000,00000000,bde7,12778;SOL_COMPUTED,SINGLE,-3073878.1418,4088848.9642,3797013.0359,1.4716,1.5466,1.8417,SOL_COMPUTED,SINGLE,-2.5529e-10,-7.8456e-10,5.3202e-10,0.0011,0.0011,0.0011,"",0.150,0.000,0.000,9,9,9,9,0,12,00,01*8e0a163e
#RANGEA,USB1_1,0,70.5,FINESTEERING,2000,360499.000,00000000,5103,12778;9,21,0,24089723.360,0.072,-126592355.027396,0.035,-1298.733,43.9,2627.690,08009c04,23,0,22204818.909,1.768,-116687098.308200,0.170,-1519.885,32.1,1.690,18009c24,9,0,22767087.808,0.125,-119641856.126452,0.088,387.506,39.2,132.120,08009c44,8,0,21910236.316,0.168,-115139066.076705,0.043,2649.280,37.8,102.380,08009c64,7,0,24992781.120,0.082,-131337951.968823,0.036,3457.950,43.2,121.750,08009c84,31,0,24234800.429,0.055,-127354692.574828,0.035,-3184.060,46.4,2627.710,18009ca4,26,0,22201776.249,0.049,-116671111.725329,0.034,-1971.142,47.3,2627.800,18009ce4,16,0,20807299.867,0.036,-109343099.536462,0.034,-1082.635,50.0,2627.730,08009d24,27,0,19963206.087,0.030,-104907372.560267,0.034,398.582,51.6,2628.010,18009d44*2c5ce81b
#SATXYZ2A,USB1_1,0,70.5,FINESTEERING,2000,360499.000,00000000,7513,12778;9,GPS,21,-18128911.7821,-6686223.5370,19023213.6074,-119031.659,8.900,6.189,0.0,0.0,GPS,23,1209878.7092,25716175.0688,5815452.1846,-65111.911,6.697,4.204,0.0,0.0,GPS,9,9359102.1549,18803733.1989,16217372.6803,153923.700,7.675,5.190,0.0,0.0,GPS,8,-4998986.2158,25859107.2142,2755205.9250,-30202.089,6.210,3.793,0.0,0.0,GPS,7,15322976.5690,9092959.5759,20047177.5114,58254.318,11.009,14.594,0.0,0.0,GPS,31,-25616067.1395,5990852.2209,-4997397.5693,36797.888,10.399,8.675,0.0,0.0,GPS,26,-20233376.3065,204828.6820,17262909.4783,-46308.562,6.565,3.937,0.0,0.0,GPS,16,-12910189.0171,7713846.2080,21779366.8534,7573.397,4.908,2.879,0.0,0.0,GPS,27,-12068753.6053,18688444.1874,14232850.7760,110729.358,4.341,2.487,0.0,0.0*9e515a07
#BESTPOSA,USB1_1,0,70.5,FINESTEERING,2000,360499.000,00000000,7145,12778;SOL_COMPUTED,SINGLE,36.76973591983,126.93478448824,74.9293,23.3000,WGS84,1.4502,1.1384,2.1150,"",0.000,0.000,9,9,9,9,0,12,00,01*a40ae7a9
#BESTXYZA,USB1_1,0,70.5,FINESTEERING,2000,360499.000,00000000,bde7,12778;SOL_COMPUTED,SINGLE,-3073878.1481,4088848.9579,3797013.0466,1.4635,1.5399,1.8329,SOL_COMPUTED,SINGLE,0.0000,0.0000,0.0000,0.0011,0.0011,0.0011,"",0.150,0.000,0.000,9,9,9,9,0,12,00,01*c4797a3c
#RANGEA,USB1_1,0,70.5,FINESTEERING,2000,360500.000,00000000,5103,12778;9,21,0,24089970.270,0.071,-126593652.482930,0.033,-1294.866,44.1,2628.690,08009c04,23,0,22205107.604,1.737,-116688616.959485,0.127,-1516.820,31.8,2.690,18009c24,9,0,22767013.820,0.128,-119641467.682572,0.061,391.498,39.0,133.120,08009c44,8,0,21909731.996,0.171,-115136415.995869,0.100,2652.120,37.6,103.380,08009c64,7,0,24992122.836,0.082,-131334492.615779,0.034,3462.284,43.2,122.750,08009c84,31,0,24235406.118,0.055,-127357875.346940,0.031,-3179.935,46.3,2628.710,18009ca4,26,0,22202151.041,0.050,-116673081.320817,0.031,-1966.414,47.2,2628.800,18009ce4,16,0,20807505.596,0.036,-109344180.632363,0.030,-1078.067,50.1,2628.730,08009d24,27,0,19963130.009,0.030,-104906972.782668,0.031,402.554,51.6,2629.010,18009d44*9001aa91
#SATXYZ2A,USB1_1,0,70.5,FINESTEERING,2000,360500.000,00000000,7513,12778;9,GPS,21,-18126933.8303,-6687321.9040,19024780.7736,-119031.655,8.901,6.189,0.0,0.0,GPS,23,1209442.5235,25716841.6419,5812404.8201,-65111.911,6.698,4.205,0.0,0.0,GPS,9,9358653.7782,18805761.9099,16215281.5924,153923.700,7.675,5.190,0.0,0.0,GPS,8,-4999208.8552,25858732.7646,2758384.9025,-30202.090,6.209,3.792,0.0,0.0,GPS,7,15320695.0847,9093951.9016,20048440.0501,58254.317,11.008,14.586,0.0,0.0,GPS,31,-25615558.4628,5990411.4618,-5000468.2518,36797.888,10.400,8.678,0.0,0.0,GPS,26,-20235034.3971,203387.0188,17260997.4074,-46308.558,6.566,3.938,0.0,0.0,GPS,16,-12912245.3090,7711959.7490,21778860.4641,7573.397,4.908,2.879,0.0,0.0,GPS,27,-12068713.6793,18686606.7901,14235309.2312,110729.357,4.341,2.487,0.0,0.0*be69ebb5
#BESTPOSA,USB1_1,0,70.5,FINESTEERING,2000,360500.000,00000000,7145,12778;SOL_COMPUTED,SINGLE,36.76973591983,126.93478448824,74.9293,23.3000,WGS84,1.4496,1.1379,2.1140,"",0.000,0.000,9,9,9,9,0,12,00,01*2e6dba82
#BESTXYZA,USB1_1,0,70.5,FINESTEERING,2000,360500.000,00000000,bde7,12778;SOL_COMPUTED,SINGLE,-3073878.1481,4088848.9579,3797013.0466,1.4628,1.5391,1.8320,SOL_COMPUTED,SINGLE,0.0000,0.0000,0.0000,0.0011,0.0011,0.0011,"",0.150,0.000,0.000,9,9,9,9,0,12,00,01*a6cc60d4
#RANGEA,USB1_1,0,69.0,FINESTEERING,2000,360501.000,00000000,5103,12778;8,21,0,24090217.251,0.072,-126594950.326981,0.030,-1299.455,44.0,2629.690,08009c04,9,0,22766939.995,0.137,-119641079.857405,0.105,385.807,38.4,134.120,08009c44,8,0,21909227.753,0.163,-115133766.277678,0.095,2647.772,37.9,104.380,08009c64,7,0,24991464.534,0.083,-131331033.185035,0.029,3458.088,43.1,123.750,08009c84,31,0,24236011.828,0.057,-127361058.226456,0.028,-3184.448,46.0,2629.710,18009ca4,26,0,22202525.858,0.049,-116675050.998225,0.029,-1971.131,47.4,2629.800,18009ce4,16,0,20807711.351,0.036,-109345261.911843,0.028,-1082.933,50.0,2629.730,08009d24,27,0,19963054.035,0.030,-104906573.535645,0.027,397.578,51.5,2630.010,18009d44*06541d39
#SATXYZ2A,USB1_1,0,69.0,FINESTEERING,2000,360501.000,00000000,7513,12778;8,GPS,21,-18124955.7728,-6688420.4612,19026347.5594,-119031.652,8.901,6.190,0.0,0.0,GPS,9,9358205.5475,18807790.3852,16213190.1585,153923.700,7.675,5.189,0.0,0.0,GPS,8,-4999431.4685,25858357.9300,2761563.8207,-30202.090,6.209,3.792,0.0,0.0,GPS,7,15318413.5101,9094944.4207,20049702.1746,58254.316,11.007,14.577,0.0,0.0,GPS,31,-25615049.4549,5989970.5359,-5003538.8304,36797.888,10.402,8.681,0.0,0.0,GPS,26,-20236692.3769,201945.5942,17259084.9708,-46308.554,6.567,3.938,0.0,0.0,GPS,16,-12914301.6671,7710073.4652,21778353.6067,7573.396,4.909,2.879,0.0,0.0,GPS,27,-12068673.8244,18684769.0821,14237767.3782,110729.356,4.341,2.487,0.0,0.0*4864b455
#BESTPOSA,USB1_1,0,69.0,FINESTEERING,2000,360501.000,00000000,7145,12778;SOL_COMPUTED,SINGLE,36.76973593340,126.93478448396,74.9311,23.3000,WGS84,1.4446,1.1335,2.1084,"",0.000,0.000,8,8,8,8,0,12,00,01*19cb8f2c
#BESTXYZA,USB1_1,0,69.0,FINESTEERING,2000,360501.000,00000000,bde7,12778;SOL_COMPUTED,SINGLE,-3073878.1481,4088848.9585,3797013.0488,1.4577,1.5349,1.8265,SOL_COMPUTED,SINGLE,4.1384e-10,-1.9700e-10,0.0000,0.0008,0.0008,0.0008,"",0.150,0.000,0.000,8,8,8,8,0,12,00,01*e9277633
#RANGEA,USB1_1,0,66.0,FINESTEERING,2000,360502.000,00000000,5103,12778;8,21,0,24090464.417,0.070,-126596249.097527,0.029,-1298.369,44.2,2630.690,08009c04,9,0,22766866.332,0.148,-119640693.052096,0.109,386.720,37.8,135.120,08009c44,8,0,21908723.693,0.157,-115131117.322753,0.064,2649.637,38.2,105.380,08009c64,7,0,24990806.318,0.082,-131327574.160966,0.029,3459.714,43.1,124.750,08009c84,31,0,24236617.650,0.057,-127364241.696090,0.027,-3182.846,46.0,2630.710,18009ca4,26,0,22202900.784,0.049,-116677021.235852,0.028,-1969.752,47.4,2630.800,18009ce4,16,0,20807917.233,0.036,-109346343.824403,0.027,-1081.364,50.0,2630.730,08009d24,27,0,19962978.254,0.030,-104906175.335398,0.026,398.532,51.6,2631.010,18009d44*f816f89a
#SATXYZ2A,USB1_1,0,66.0,FINESTEERING,2000,360502.000,00000000,7513,12778;8,GPS,21,-18122977.6096,-6689519.2089,19027913.9647,-119031.648,8.902,6.190,0.0,0.0,GPS,9,9357757.4628,18809818.6247,16211098.3788,153923.701,7.675,5.189,0.0,0.0,GPS,8,-4999654.0558,25857982.7102,2764742.6796,-30202.091,6.208,3.791,0.0,0.0,GPS,7,15316131.8453,9095937.1329,20050963.8849,58254.315,11.007,14.568,0.0,0.0,GPS,31,-25614540.1156,5989529.4432,-5006609.3052,36797.888,10.403,8.684,0.0,0.0,GPS,26,-20238350.2459,200504.4081,17257172.1686,-46308.550,6.567,3.938,0.0,0.0,GPS,16,-12916358.0914,7708187.3566,21777846.2810,7573.395,4.909,2.879,0.0,0.0,GPS,27,-12068634.0405,18682931.0633,14240225.2172,110729.356,4.341,2.487,0.0,0.0*b7792511
#BESTPOSA,USB1_1,0,66.0,FINESTEERING,2000,360502.000,00000000,7145,12778;SOL_COMPUTED,SINGLE,36.76973593340,126.93478448396,74.9311,23.3000,WGS84,1.4445,1.1335,2.1083,"",0.000,0.000,8,8,8,8,0,12,00,01*79cb3ed0
#BESTXYZA,USB1_1,0,66.0,FINESTEERING,2000,360502.000,00000000,bde7,12778;SOL_COMPUTED,SINGLE,-3073878.1481,4088848.9585,3797013.0488,1.4576,1.5349,1.8264,SOL_COMPUTED,SINGLE,6.2977e-11,-2.9979e-11,2.7436e-10,0.0009,0.0009,0.0009,"",0.150,0.000,0.000,8,8,8,8,0,12,00,01*525a1cee
#RANGEA,USB1_1,0,66.0,FINESTEERING,2000,360503.000,00000000,5103,12778;8,21,0,24090711.605,0.071,-126597548.037629,0.030,-1299.122,44.1,2631.690,08009c04,9,0,22766792.722,0.160,-119640306.540475,0.073,386.813,37.0,136.120,08009c44,8,0,21908219.638,0.152,-115128468.511044,0.046,2648.926,38.5,106.380,08009c64,7,0,24990148.031,0.080,-131324114.803340,0.029,3459.490,43.3,125.750,08009c84,31,0,24237223.457,0.058,-127367425.040883,0.028,-3183.386,45.9,2631.710,18009ca4,26,0,22203275.676,0.049,-116678991.289727,0.028,-1970.002,47.3,2631.800,18009ce4,16,0,20808123.091,0.036,-109347425.631446,0.027,-1081.837,50.0,2631.730,08009d24,27,0,19962902.523,0.030,-104905777.402770,0.027,397.668,51.5,2632.010,18009d44*9ee73790
#SATXYZ2A,USB1_1,0,66.0,FINESTEERING,2000,360503.000,00000000,7513,12778;8,GPS,21,-18120999.3407,-6690618.1469,19029479.9897,-119031.645,8.902,6.191,0.0,0.0,GPS,9,9357309.5240,18811846.6283,16209006.2532,153923.701,7.675,5.189,0.0,0.0,GPS,8,-4999876.6171,25857607.1054,2767921.4792,-30202.092,6.207,3.791,0.0,0.0,GPS,7,15313850.0904,9096930.0385,20052225.1809,58254.314,11.006,14.560,0.0,0.0,GPS,31,-25614030.4451,5989088.1837,-5009679.6760,36797.888,10.405,8.688,0.0,0.0,GPS,26,-20240008.0040,199063.4607,17255259.0008,-46308.546,6.568,3.939,0.0,0.0,GPS,16,-12918414.5818,7706301.4232,21777338.4872,7573.395,4.909,2.879,0.0,0.0,GPS,27,-12068594.3277,18681092.7338,14242682.7479,110729.355,4.341,2.487,0.0,0.0*989cff0b
#BESTPOSA,USB1_1,0,66.0,FINESTEERING,2000,360503.000,00000000,7145,12778;SOL_COMPUTED,SINGLE,36.76973593340,126.93478448396,74.9311,23.3000,WGS84,1.4445,1.1334,2.1082,"",0.000,0.000,8,8,8,8,0,12,00,01*ab9a0839
#BESTXYZA,USB1_1,0,66.0,FINESTEERING,2000,360503.000,00000000,bde7,12778;SOL_COMPUTED,SINGLE,-3073878.1481,4088848.9585,3797013.0488,1.4575,1.5348,1.8263,SOL_COMPUTED,SINGLE,2.5879e-12,-1.2319e-12,1.1274e-11,0.0008,0.0008,0.0008,"",0.150,0.000,0.000,8,8,8,8,0,12,00,01*0d03cf8f
#RANGEA,USB1_1,0,65.0,FINESTEERING,2000,360504.000,00000000,5103,12778;8,21,0,24090958.940,0.070,-126598847.756644,0.028,-1300.231,44.2,2632.690,08009c04,9,0,22766719.289,0.154,-119639920.953061,0.111,385.563,37.3,137.120,08009c44,8,0,21907715.706,0.144,-115125820.383298,0.037,2647.997,38.9,107.380,08009c64,7,0,24989489.801,0.079,-131320655.750874,0.028,3458.825,43.4,126.750,08009c84,31,0,24237829.343,0.060,-127370608.888715,0.027,-3184.338,45.6,2632.710,18009ca4,26,0,22203650.651,0.050,-116680961.831267,0.026,-1970.949,47.2,2632.800,18009ce4,16,0,20808329.054,0.036,-109348508.004498,0.025,-1082.682,50.1,2632.730,08009d24,27,0,19962826.973,0.030,-104905380.417249,0.025,396.406,51.6,2633.010,18009d44*2ec40310
#SATXYZ2A,USB1_1,0,65.0,FINESTEERING,2000,360504.000,00000000,7513,12778;8,GPS,21,-18119020.9662,-6691717.2752,19031045.6341,-119031.641,8.903,6.191,0.0,0.0,GPS,9,9356861.7312,18813874.3960,16206913.7818,153923.701,7.675,5.189,0.0,0.0,GPS,8,-5000099.1524,25857231.1155,2771100.2193,-30202.092,6.207,3.790,0.0,0.0,GPS,7,15311568.2455,9097923.1373,20053486.0627,58254.314,11.005,14.551,0.0,0.0,GPS,31,-25613520.4435,5988646.7574,-5012749.9428,36797.888,10.406,8.691,0.0,0.0,GPS,26,-20241665.6511,197622.7518,17253345.4674,-46308.543,6.569,3.939,0.0,0.0,GPS,16,-12920471.1383,7704415.6651,21776830.2252,7573.394,4.909,2.879,0.0,0.0,GPS,27,-12068554.6861,18679254.0937,14245139.9705,110729.354,4.341,2.487,0.0,0.0*d3cab910
#BESTPOSA,USB1_1,0,65.0,FINESTEERING,2000,360504.000,00000000,7145,12778;SOL_COMPUTED,SINGLE,36.76973594553,126.93478447750,74.9325,23.3000,WGS84,1.4412,1.1305,2.1047,"",0.000,0.000,8,8,8,8,0,12,00,01*3e3e4da1
#BESTXYZA,USB1_1,0,65.0,FINESTEERING,2000,360504.000,00000000,bde7,12778;SOL_COMPUTED,SINGLE,-3073878.1478,4088848.9591,3797013.0507,1.4542,1.5322,1.8228,SOL_COMPUTED,SINGLE,2.9315e-10,9.7965e-11,4.9497e-10,0.0008,0.0008,0.0008,"",0.150,0.000,0.000,8,8,8,8,0,12,00,01*34e96fc1
#RANGEA,USB1_1,0,65.0,FINESTEERING,2000,360505.000,00000000,5103,12778;8,21,0,24091206.508,0.069,-126600148.688840,0.026,-1301.437,44.3,2633.690,08009c04,9,0,22766646.149,0.174,-119639536.789090,0.075,384.242,36.3,138.120,08009c44,8,0,21907212.033,0.140,-115123173.451552,0.033,2646.222,39.1,108.380,08009c64,7,0,24988831.710,0.081,-131317197.406985,0.027,3458.225,43.1,127.750,08009c84,31,0,24238435.409,0.064,-127373793.624856,0.026,-3184.853,45.0,2633.710,18009ca4,26,0,22204025.800,0.051,-116682933.200696,0.025,-1971.411,47.0,2633.800,18009ce4,16,0,20808535.196,0.036,-109349591.292729,0.024,-1083.522,50.0,2633.730,08009d24,27,0,19962751.670,0.030,-104904984.723265,0.024,395.341,51.6,2634.010,18009d44*fd8461b0
#SATXYZ2A,USB1_1,0,65.0,FINESTEERING,2000,360505.000,00000000,7513,12778;8,GPS,21,-18117042.4862,-6692816.5939,19032610.8980,-119031.637,8.903,6.192,0.0,0.0,GPS,9,9356414.0842,18815901.9278,16204820.9647,153923.701,7.675,5.189,0.0,0.0,GPS,8,-5000321.6619,25856854.7404,2774278.8999,-30202.093,6.206,3.790,0.0,0.0,GPS,7,15309286.3105,9098916.4293,20054746.5301,58254.313,11.004,14.543,0.0,0.0,GPS,31,-25613010.1106,5988205.1642,-5015820.1055,36797.888,10.408,8.694,0.0,0.0,GPS,26,-20243323.1872,196182.2816,17251431.5685,-46308.539,6.569,3.940,0.0,0.0,GPS,16,-12922527.7608,7702530.0823,21776321.4951,7573.393,4.910,2.879,0.0,0.0,GPS,27,-12068515.1157,18677415.1429,14247596.8847,110729.353,4.341,2.487,0.0,0.0*85532da8
#BESTPOSA,USB1_1,0,65.0,FINESTEERING,2000,360505.000,00000000,7145,12778;SOL_COMPUTED,SINGLE,36.76973594553,126.93478447750,74.9325,23.3000,WGS84,1.4412,1.1305,2.1046,"",0.000,0.000,8,8,8,8,0,12,00,01*4d56ffa6
#BESTXYZA,USB1_1,0,65.0,FINESTEERING,2000,360505.000,00000000,bde7,12778;SOL_COMPUTED,SINGLE,-3073878.1478,4088848.9591,3797013.0507,1.4542,1.5322,1.8228,SOL_COMPUTED,SINGLE,2.8142e-11,9.4046e-12,4.7517e-11,0.0009,0.0009,0.0009,"",0.150,0.000,0.000,8,8,8,8,0,12,00,01*0942866f
#RANGEA,USB1_1,0,67.0,FINESTEERING,2000,360506.000,00000000,5103,12778;8,21,0,24091454.560,0.069,-126601452.129866,0.028,-1302.763,44.3,2634.690,08009c04,9,0,22766573.511,0.181,-119639155.323874,0.087,381.883,36.0,139.120,08009c44,8,0,21906708.788,0.133,-115120528.889338,0.031,2645.689,39.5,109.380,08009c64,7,0,24988174.006,0.083,-131313741.094079,0.028,3457.203,42.9,128.750,08009c84,31,0,24239041.887,0.067,-127376980.596953,0.028,-3186.134,44.6,2634.710,18009ca4,26,0,22204401.360,0.053,-116684906.786950,0.028,-1972.747,46.7,2634.800,18009ce4,16,0,20808741.771,0.036,-109350676.869300,0.026,-1084.945,49.9,2634.730,08009d24,27,0,19962676.876,0.030,-104904591.708703,0.026,393.514,51.6,2635.010,18009d44*1b3bb0bb
#SATXYZ2A,USB1_1,0,67.0,FINESTEERING,2000,360506.000,00000000,7513,12778;8,GPS,21,-18115063.9007,-6693916.1029,19034175.7814,-119031.634,8.904,6.192,0.0,0.0,GPS,9,9355966.5832,18817929.2236,16202727.8018,153923.701,7.675,5.189,0.0,0.0,GPS,8,-5000544.1455,25856477.9803,2777457.5210,-30202.094,6.205,3.789,0.0,0.0,GPS,7,15307004.2856,9099909.9146,20056006.5832,58254.312,11.003,14.534,0.0,0.0,GPS,31,-25612499.4466,5987763.4041,-5018890.1641,36797.888,10.409,8.697,0.0,0.0,GPS,26,-20244980.6123,194742.0500,17249517.3041,-46308.535,6.570,3.940,0.0,0.0,GPS,16,-12924584.4492,7700644.6748,21775812.2969,7573.393,4.910,2.880,0.0,0.0,GPS,27,-12068475.6165,18675575.8815,14250053.4906,110729.352,4.341,2.487,0.0,0.0*3de92d5a
#BESTPOSA,USB1_1,0,67.0,FINESTEERING,2000,360506.000,00000000,7145,12778;SOL_COMPUTED,SINGLE,36.76973595556,126.93478447114,74.9336,23.3000,WGS84,1.4389,1.1284,2.1021,"",0.000,0.000,8,8,8,8,0,12,00,01*38de206c
#BESTXYZA,USB1_1,0,67.0,FINESTEERING,2000,360506.000,00000000,bde7,12778;SOL_COMPUTED,SINGLE,-3073878.1475,4088848.9596,3797013.0523,1.4518,1.5303,1.8202,SOL_COMPUTED,SINGLE,0.0000,3.9649e-10,0.0000,0.0009,0.0009,0.0009,"",0.150,0.000,0.000,8,8,8,8,0,12,00,01*b5190fef
#RANGEA,USB1_1,0,64.5,FINESTEERING,2000,360507.000,00000000,5103,12778;8,21,0,24091702.533,0.071,-126602755.208234,0.027,-1303.490,44.1,2635.690,08009c04,9,0,22766500.823,0.185,-119638773.565255,0.060,381.307,35.8,140.120,08009c44,8,0,21906205.490,0.140,-115117883.948174,0.031,2644.619,39.0,110.380,08009c64,7,0,24987516.132,0.078,-131310283.909228,0.028,3457.226,43.3,129.750,08009c84,31,0,24239648.235,0.070,-127380166.869492,0.027,-3186.314,44.3,2635.710,18009ca4,26,0,22204776.790,0.052,-116686879.659112,0.025,-1973.099,46.8,2635.800,18009ce4,16,0,20808948.225,0.036,-109351761.783696,0.025,-1085.116,49.9,2635.730,08009d24,27,0,19962602.028,0.030,-104904198.411135,0.024,392.901,51.5,2636.010,18009d44*2b01431d
#SATXYZ2A,USB1_1,0,64.5,FINESTEERING,2000,360507.000,00000000,7513,12778;8,GPS,21,-18113085.2097,-6695015.8023,19035740.2842,-119031.630,8.904,6.193,0.0,0.0,GPS,9,9355519.2279,18819956.2833,16200634.2933,153923.701,7.675,5.189,0.0,0.0,GPS,8,-5000766.6033,25856100.8351,2780636.0825,-30202.094,6.205,3.789,0.0,0.0,GPS,7,15304722.1708,9100903.5931,20057266.2220,58254.311,11.002,14.526,0.0,0.0,GPS,31,-25611988.4515,5987321.4769,-5021960.1184,36797.888,10.411,8.700,0.0,0.0,GPS,26,-20246637.9262,193302.0570,17247602.6743,-46308.531,6.571,3.941,0.0,0.0,GPS,16,-12926641.2036,7698759.4428,21775302.6305,7573.392,4.910,2.880,0.0,0.0,GPS,27,-12068436.1887,18673736.3096,14252509.7880,110729.352,4.341,2.487,0.0,0.0*bab4f41f
#BESTPOSA,USB1_1,0,64.5,FINESTEERING,2000,360507.000,00000000,7145,12778;SOL_COMPUTED,SINGLE,36.76973595556,126.93478447114,74.9336,23.3000,WGS84,1.4389,1.1284,2.1021,"",0.000,0.000,8,8,8,8,0,12,00,01*5fcf81f7
#BESTXYZA,USB1_1,0,64.5,FINESTEERING,2000,360507.000,00000000,bde7,12778;SOL_COMPUTED,SINGLE,-3073878.1475,4088848.9596,3797013.0523,1.4518,1.5303,1.8202,SOL_COMPUTED,SINGLE,8.3505e-11,3.6732e-11,1.1915e-10,0.0008,0.0008,0.0008,"",0.150,0.000,0.000,8,8,8,8,0,12,00,01*fd735e22
#RANGEA,USB1_1,0,64.5,FINESTEERING,2000,360508.000,00000000,5103,12778;8,21,0,24091950.139,0.073,-126604056.353038,0.031,-1300.064,43.9,2636.690,08009c04,9,0,22766427.760,0.208,-119638390.028912,0.106,384.040,34.8,141.120,08009c44,8,0,21905701.793,0.130,-115115236.976334,0.035,2648.117,39.7,111.380,08009c64,7,0,24986857.810,0.079,-131306824.311814,0.033,3460.945,43.3,130.750,08009c84,31,0,24240254.155,0.073,-127383350.968816,0.031,-3182.663,43.9,2636.710,18009ca4,26,0,22205151.788,0.053,-116688850.265397,0.029,-1969.160,46.7,2636.800,18009ce4,16,0,20809154.271,0.037,-109352844.553883,0.030,-1081.424,49.9,2636.730,08009d24,27,0,19962526.845,0.030,-104903803.358144,0.029,396.277,51.5,2637.010,18009d44*6182a692
#SATXYZ2A,USB1_1,0,64.5,FINESTEERING,2000,360508.000,00000000,7513,12778;8,GPS,21,-18111106.4134,-6696115.6921,19037304.4065,-119031.627,8.905,6.193,0.0,0.0,GPS,9,9355072.0185,18821983.1070,16198540.4392,153923.701,7.675,5.189,0.0,0.0,GPS,8,-5000989.0355,25855723.3049,2783814.5842,-30202.095,6.204,3.788,0.0,0.0,GPS,7,15302439.9662,9101897.4648,20058525.4463,58254.310,11.002,14.517,0.0,0.0,GPS,31,-25611477.1253,5986879.3828,-5025029.9684,36797.889,10.412,8.704,0.0,0.0,GPS,26,-20248295.1289,191862.3026,17245687.6791,-46308.527,6.571,3.941,0.0,0.0,GPS,16,-12928698.0237,7696874.3862,21774792.4960,7573.391,4.910,2.880,0.0,0.0,GPS,27,-12068396.8322,18671896.4272,14254965.7771,110729.351,4.341,2.487,0.0,0.0*3d0bd8dc
#BESTPOSA,USB1_1,0,64.5,FINESTEERING,2000,360508.000,00000000,7145,12778;SOL_COMPUTED,SINGLE,36.76973595556,126.93478447114,74.9336,23.3000,WGS84,1.4389,1.1284,2.1021,"",0.000,0.000,8,8,8,8,0,12,00,01*380ec9a7
#BESTXYZA,USB1_1,0,64.5,FINESTEERING,2000,360508.000,00000000,bde7,12778;SOL_COMPUTED,SINGLE,-3073878.1475,4088848.9596,3797013.0523,1.4518,1.5303,1.8202,SOL_COMPUTED,SINGLE,8.0126e-12,3.5245e-12,1.1433e-11,0.0009,0.0009,0.0009,"",0.150,0.000,0.000,8,8,8,8,0,12,00,01*7d4ef50e
#RANGEA,USB1_1,0,67.5,FINESTEERING,2000,360509.000,00000000,5103,12778;8,21,0,24092198.315,0.073,-126605360.524758,0.031,-1304.529,43.9,2637.690,08009c04,9,0,22766355.374,0.216,-119638009.702040,0.100,379.588,34.5,142.120,08009c44,8,0,21905198.657,0.136,-115112592.929156,0.036,2643.455,39.2,112.380,08009c64,7,0,24986199.955,0.078,-131303367.246644,0.033,3456.746,43.4,131.750,08009c84,31,0,24240860.594,0.076,-127386537.747943,0.032,-3186.816,43.5,2637.710,18009ca4,26,0,22205527.293,0.054,-116690823.554087,0.032,-1973.642,46.4,2637.800,18009ce4,16,0,20809360.841,0.037,-109353930.067681,0.031,-1086.003,49.7,2637.730,08009d24,27,0,19962452.253,0.031,-104903411.421078,0.031,391.311,51.4,2638.010,18009d44*607fe242
#SATXYZ2A,USB1_1,0,67.5,FINESTEERING,2000,360509.000,00000000,7513,12778;8,GPS,21,-18109127.5118,-6697215.7722,19038868.1481,-119031.623,8.905,6.194,0.0,0.0,GPS,9,9354624.9549,18824009.6944,16196446.2395,153923.702,7.675,5.188,0.0,0.0,GPS,8,-5001211.4419,25855345.3895,2786993.0262,-30202.096,6.204,3.787,0.0,0.0,GPS,7,15300157.6718,9102891.5298,20059784.2563,58254.309,11.001,14.509,0.0,0.0,GPS,31,-25610965.4680,5986437.1216,-5028099.7141,36797.889,10.414,8.707,0.0,0.0,GPS,26,-20249952.2203,190422.7869,17243772.3185,-46308.523,6.572,3.941,0.0,0.0,GPS,16,-12930754.9097,7694989.5050,21774281.8935,7573.390,4.911,2.880,0.0,0.0,GPS,27,-12068357.5471,18670056.2343,14257421.4576,110729.350,4.341,2.487,0.0,0.0*e7de8437
#BESTPOSA,USB1_1,0,67.5,FINESTEERING,2000,360509.000,00000000,7145,12778;SOL_COMPUTED,SINGLE,36.76973596663,126.93478446335,74.9347,23.3000,WGS84,1.4366,1.1264,2.0996,"",0.000,0.000,8,8,8,8,0,12,00,01*a5d86032
#BESTXYZA,USB1_1,0,67.5,FINESTEERING,2000,360509.000,00000000,bde7,12778;SOL_COMPUTED,SINGLE,-3073878.1471,4088848.9602,3797013.0539,1.4494,1.5284,1.8177,SOL_COMPUTED,SINGLE,5.6086e-10,2.3812e-10,7.3411e-10,0.0010,0.0010,0.0010,"",0.150,0.000,0.000,8,8,8,8,0,12,00,01*0f523b50
#RANGEA,USB1_1,0,66.5,FINESTEERING,2000,360510.000,00000000,5103,12778;8,21,0,24092446.664,0.076,-126606665.588414,0.031,-1307.287,43.5,2638.690,08009c04,9,0,22766283.142,0.204,-119637630.403518,0.123,377.471,34.9,143.120,08009c44,8,0,21904695.673,0.140,-115109949.670750,0.035,2641.680,38.9,113.380,08009c64,7,0,24985542.176,0.077,-131299910.569274,0.033,3454.822,43.4,132.750,08009c84,31,0,24241467.136,0.078,-127389725.145816,0.030,-3189.543,43.3,2638.710,18009ca4,26,0,22205902.897,0.054,-116692797.395987,0.031,-1975.834,46.5,2638.800,18009ce4,16,0,20809567.526,0.037,-109355016.216389,0.031,-1087.897,49.8,2638.730,08009d24,27,0,19962377.851,0.031,-104903020.508145,0.030,388.798,51.4,2639.010,18009d44*cb3612ec
#SATXYZ2A,USB1_1,0,66.5,FINESTEERING,2000,360510.000,00000000,7513,12778;8,GPS,21,-18107148.5049,-6698316.0426,19040431.5090,-119031.620,8.906,6.194,0.0,0.0,GPS,9,9354178.0370,18826036.0456,16194351.6943,153923.702,7.675,5.188,0.0,0.0,GPS,8,-5001433.8227,25854967.0891,2790171.4083,-30202.097,6.203,3.787,0.0,0.0,GPS,7,15297875.2877,9103885.7881,20061042.6518,58254.309,11.000,14.500,0.0,0.0,GPS,31,-25610453.4798,5985994.6933,-5031169.3554,36797.889,10.416,8.710,0.0,0.0,GPS,26,-20251609.2005,188983.5098,17241856.5926,-46308.519,6.573,3.942,0.0,0.0,GPS,16,-12932811.8614,7693104.7994,21773770.8228,7573.390,4.911,2.880,0.0,0.0,GPS,27,-12068318.3334,18668215.7310,14259876.8295,110729.349,4.341,2.486,0.0,0.0*1dc6db63
#BESTPOSA,USB1_1,0,66.5,FINESTEERING,2000,360510.000,00000000,7145,12778;SOL_COMPUTED,SINGLE,36.76973596663,126.93478446335,74.9347,23.3000,WGS84,1.4366,1.1264,2.0996,"",0.000,0.000,8,8,8,8,0,12,00,01*2b1a8bd9
#BESTXYZA,USB1_1,0,66.5,FINESTEERING,2000,360510.000,00000000,bde7,12778;SOL_COMPUTED,SINGLE,-3073878.1471,4088848.9602,3797013.0539,1.4494,1.5284,1.8177,SOL_COMPUTED,SINGLE,1.9773e-11,8.3951e-12,2.5881e-11,0.0008,0.0008,0.0008,"",0.150,0.000,0.000,8,8,8,8,0,12,00,01*db72ef6c
#RANGEA,USB1_1,0,62.5,FINESTEERING,2000,360511.000,00000000,5103,12778;8,21,0,24092695.032,0.078,-126607970.745526,0.030,-1305.623,43.3,2639.690,08009c04,9,0,22766210.971,0.200,-119637251.355017,0.144,377.931,35.1,144.120,08009c44,8,0,21904192.719,0.137,-115107306.485213,0.034,2642.548,39.0,114.380,08009c64,7,0,24984884.327,0.078,-131296453.519091,0.031,3456.913,43.3,133.750,08009c84,31,0,24242073.617,0.083,-127392912.314587,0.029,-3187.385,42.8,2639.710,18009ca4,26,0,22206278.461,0.054,-116694770.998450,0.029,-1973.936,46.5,2639.800,18009ce4,16,0,20809774.187,0.037,-109356102.204974,0.028,-1086.335,49.7,2639.730,08009d24,27,0,19962303.500,0.031,-104902629.825036,0.028,390.099,51.4,2640.010,18009d44*51bf275a
#SATXYZ2A,USB1_1,0,62.5,FINESTEERING,2000,360511.000,00000000,7513,12778;8,GPS,21,-18105169.3929,-6699416.5034,19041994.4893,-119031.616,8.906,6.195,0.0,0.0,GPS,9,9353731.2649,18828062.1606,16192256.8036,153923.702,7.675,5.188,0.0,0.0,GPS,8,-5001656.1780,25854588.4036,2793349.7306,-30202.097,6.202,3.786,0.0,0.0,GPS,7,15295592.8140,9104880.2395,20062300.6328,58254.308,10.999,14.492,0.0,0.0,GPS,31,-25609941.1605,5985552.0979,-5034238.8922,36797.889,10.417,8.713,0.0,0.0,GPS,26,-20253266.0692,187544.4714,17239940.5015,-46308.515,6.573,3.942,0.0,0.0,GPS,16,-12934868.8788,7691220.2694,21773259.2841,7573.389,4.911,2.880,0.0,0.0,GPS,27,-12068279.1912,18666374.9174,14262331.8929,110729.349,4.341,2.486,0.0,0.0*0ac1ccb3
#BESTPOSA,USB1_1,0,62.5,FINESTEERING,2000,360511.000,00000000,7145,12778;SOL_COMPUTED,SINGLE,36.76973598021,126.93478445357,74.9360,23.3000,WGS84,1.4339,1.1240,2.0967,"",0.000,0.000,8,8,8,8,0,12,00,01*8a24ba26
#BESTXYZA,USB1_1,0,62.5,FINESTEERING,2000,360511.000,00000000,bde7,12778;SOL_COMPUTED,SINGLE,-3073878.1464,4088848.9608,3797013.0559,1.4466,1.5263,1.8148,SOL_COMPUTED,SINGLE,0.0000,9.7936e-10,0.0000,0.0010,0.0010,0.0010,"",0.150,0.000,0.000,8,8,8,8,0,12,00,01*cab96e30
