#GPSEPHEMA,COM1_1,9,71.5,SATTIME,2020,376020.000,00000000,1214,12778;2,376020.0,0,62,62,2020,2020,381600.0,2.655915997e+07,5.167000941e-09,1.5254487571e-01,1.8175241887e-02,-1.827621599e+00,2.982094884e-06,6.863847375e-06,2.46562500e+02,5.49062500e+01,-2.067536116e-07,8.754432201e-08,9.5141348198e-01,3.375140588e-10,1.340078618e+00,-8.76679374e-09,62,381600.0,-2.048909664e-08,-1.36630e-05,-1.09139e-11,0.00000,TRUE,1.458689314e-04,4.00000000e+00*e05f4af3
#GPSEPHEMA,COM1_1,8,67.0,SATTIME,2000,357810.000,00000000,1214,12778;4,357810.0,63,9,9,2000,2000,360000.0,2.656060905e+07,5.260576267e-09,1.417854111e+00,9.8525658250e-03,9.2140883322e-01,-6.947666407e-07,8.555129170e-06,2.25500000e+02,-1.22812500e+01,-1.415610313e-07,1.303851604e-08,9.7900880415e-01,-2.803688213e-10,1.838585807e+00,-7.93568770e-09,9,360000.0,-1.955777407e-08,5.96531e-05,3.18323e-12,0.00000,TRUE,1.458570882e-04,4.00000000e+00*813129cd
#GPSEPHEMA,COM1_1,7,67.0,SATTIME,2020,376020.000,00000000,1214,12778;5,376020.0,0,72,72,2020,2020,381600.0,2.656149727e+07,5.091283501e-09,2.757835477e+00,5.6454004953e-03,6.9127086305e-01,-3.088265657e-06,5.664303899e-06,2.64718750e+02,-5.73125000e+01,1.862645149e-08,-4.842877388e-08,9.4851444649e-01,-4.757341019e-10,2.423494629e+00,-8.40142138e-09,72,381600.0,-1.117587090e-08,-1.53342e-06,3.41061e-13,0.00000,TRUE,1.458496030e-04,4.00000000e+00*ac5abd8b
#GPSEPHEMA,COM1_1,6,67.0,SATTIME,2020,376020.000,00000000,1214,12778;13,376020.0,0,106,106,2020,2020,381600.0,2.656041713e+07,3.944092859e-09,8.3457881110e-01,3.4268902382e-03,1.457767654e+00,1.750886440e-06,1.290813088e-05,1.33531250e+02,3.38750000e+01,-2.048909664e-08,-5.774199963e-08,9.6868601384e-01,3.357282701e-11,-2.669875238e+00,-7.83354058e-09,106,381600.0,-1.117587090e-08,-8.83196e-05,7.95808e-13,0.00000,TRUE,1.458573525e-04,4.00000000e+00*70cf4c99
#GPSEPHEMA,COM1_1,5,67.0,SATTIME,2020,376020.000,00000000,1214,12778;15,376020.0,0,52,52,2020,2020,381600.0,2.655936395e+07,4.888417908e-09,1.117089404e+00,1.0766466963e-02,7.0759225093e-01,3.557652235e-07,1.274049282e-05,1.19562500e+02,2.53125000e+00,-1.825392246e-07,1.862645149e-08,9.2865216342e-01,-2.875119760e-10,-2.877172192e+00,-8.28534512e-09,52,381600.0,-1.071020961e-08,-3.44745e-04,1.02318e-12,0.00000,TRUE,1.458669724e-04,4.00000000e+00*a3f46ede
#GPSEPHEMA,COM1_1,4,67.0,SATTIME,2020,376050.000,00000000,1214,12778;21,376050.0,0,53,53,2020,2020,381600.0,2.655980430e+07,4.939848622e-09,-1.918741495e+00,2.4352147710e-02,-1.524276042e+00,3.505498171e-06,5.891546607e-06,2.54750000e+02,6.20625000e+01,2.980232239e-07,4.116445780e-07,9.4503455059e-01,3.428714248e-10,1.346137299e+00,-8.13069582e-09,53,381600.0,-1.024454832e-08,-3.30487e-04,6.02540e-12,0.00000,TRUE,1.458633963e-04,4.00000000e+00*dbb2402e
#GPSEPHEMA,COM1_1,3,67.0,SATTIME,2020,376020.000,00000000,1214,12778;24,376020.0,0,166,166,2020,2020,381600.0,2.655986059e+07,5.261647740e-09,2.1405922335e-01,7.2913578479e-03,5.3564054975e-01,4.308298230e-06,5.222856998e-06,2.69500000e+02,8.15312500e+01,4.470348358e-08,7.450580597e-08,9.4032856841e-01,4.253748614e-10,-1.788000359e+00,-8.69000483e-09,166,381600.0,2.793967724e-09,-5.59646e-05,-5.68434e-13,0.00000,TRUE,1.458632545e-04,4.00000000e+00*4d3a8066
#GPSEPHEMA,COM1_1,2,67.0,SATTIME,2020,376020.000,00000000,1214,12778;29,376020.0,0,45,45,2020,2020,381600.0,2.655990209e+07,3.851946163e-09,2.597050148e+00,7.7061564662e-04,1.628213562e+00,-1.035630703e-06,1.202896237e-05,1.57656250e+02,-2.10625000e+01,1.862645149e-08,-9.126961231e-08,9.8492011671e-01,6.321691895e-11,4.1339754972e-01,-7.64103257e-09,45,381600.0,-1.024454832e-08,3.68367e-04,-7.50333e-12,0.00000,TRUE,1.458615029e-04,4.00000000e+00*4629fe62
#GPSEPHEMA,COM1_1,1,67.0,SATTIME,2020,376020.000,00000000,1214,12778;30,376020.0,0,63,63,2020,2020,381584.0,2.656044045e+07,5.202002399e-09,-8.2525208075e-01,3.6281789653e-03,-2.973688750e+00,4.420056939e-06,4.116445780e-06,2.86656250e+02,8.59062500e+01,1.005828381e-07,-4.842877388e-08,9.4273520909e-01,4.768055752e-10,-1.694333604e+00,-8.66643242e-09,63,381584.0,3.725290298e-09,1.83098e-05,-5.34328e-12,0.00000,TRUE,1.458584184e-04,4.00000000e+00*a2d44680
#GPSEPHEMA,COM1_1,0,67.0,SATTIME,2020,376050.000,00000000,1214,12778;20,376050.0,0,39,39,2020,2020,381600.0,2.656028875e+07,5.501300580e-09,-2.9190818365e-01,4.3110455154e-03,2.113545753e+00,-2.590939403e-06,5.003064871e-06,2.69968750e+02,-5.09062500e+01,-9.685754776e-08,-1.154839993e-07,9.2902864392e-01,-3.950164540e-10,2.333401875e+00,-8.69321925e-09,39,381600.0,-8.381903172e-09,5.16436e-04,5.68434e-13,0.00000,TRUE,1.458599672e-04,4.00000000e+00*0b00bfeb
#RANGEA,COM1_1,0,67.0,FINESTEERING,2020,376064.000,00000000,5103,12778;9,29,0,24525308.113,0.060,-128881232.117990,0.035,-2839.539,45.7,231.310,08009c04,20,0,23845576.664,0.066,-125309343.427467,0.061,3112.779,44.7,307.780,18009c24,15,0,20326870.065,0.031,-106818410.535194,0.034,380.186,51.2,314.050,08009c64,5,0,22117798.005,0.038,-116229797.397340,0.034,-2131.413,49.7,328.240,18009c84,21,0,22694186.589,0.046,-119258739.690797,0.034,1855.224,47.9,308.900,08009ca4,2,0,24593014.448,0.088,-129237028.237935,0.060,-3685.557,42.3,230.510,18009cc4,24,0,21899342.697,0.051,-115081672.977651,0.034,3177.130,46.9,232.340,08009ce4,30,0,24983842.340,0.111,-131290916.914136,0.057,-3092.658,40.2,232.210,08009d44,13,0,21065272.307,0.036,-110698739.908286,0.034,-1948.917,49.9,227.780,18009d64*91c5209f
#SATXYZ2A,COM1_1,0,67.0,FINESTEERING,2020,376064.000,00000000,7513,12778;9,GPS,29,3857629.6336,25572939.5245,-6067548.4137,110448.781,10.061,13.188,0.0,0.0,GPS,20,13586577.8419,14007143.4587,17941753.7235,154827.848,8.617,8.644,0.0,0.0,GPS,15,-6069800.0745,18190824.0226,17979727.0887,-103352.678,3.616,2.641,0.0,0.0,GPS,5,-24253523.0064,4108521.0206,10168766.3775,-460.516,4.836,3.893,0.0,0.0,GPS,21,4817545.1086,17850655.2733,19886634.3490,-99077.782,5.141,3.817,0.0,0.0,GPS,2,-19592566.6989,11874651.8639,-12669075.3628,-4064.088,9.438,18.571,0.0,0.0,GPS,24,-14780753.4069,21829129.3500,-1406898.6961,-16774.834,5.131,3.903,0.0,0.0,GPS,30,-9812315.9629,-12332307.0806,21386848.8197,5499.352,8.132,17.670,0.0,0.0,GPS,13,-13924951.8078,5859902.9910,21734336.4399,-26475.599,3.976,3.042,0.0,0.0*378feefc
#BESTPOSA,COM1_1,0,67.0,FINESTEERING,2020,376064.000,00000000,7145,12778;SOL_COMPUTED,SINGLE,36.76913158382,126.93477840169,98.1554,23.3000,WGS84,0.8516,0.8157,1.6159,"",0.000,0.000,9,9,9,9,0,12,00,01*dd7e11ce
#BESTXYZA,COM1_1,0,67.0,FINESTEERING,2020,376064.000,00000000,bde7,12778;SOL_COMPUTED,SINGLE,-3073913.0175,4088896.2452,3796973.2260,1.0630,1.2742,1.1171,SOL_COMPUTED,SINGLE,0.0000,0.0000,0.0000,0.0011,0.0011,0.0011,"",0.150,0.000,0.000,9,9,9,9,0,12,00,01*1fc6ab17
#RANGEA,COM1_1,0,66.0,FINESTEERING,2020,376065.000,00000000,5103,12778;9,29,0,24525848.824,0.059,-128884073.487295,0.090,-2842.546,45.7,232.310,08009c04,20,0,23844984.686,0.067,-125306232.544977,0.047,3109.552,44.6,308.780,18009c24,15,0,20326798.113,0.031,-106818032.413219,0.034,376.775,51.2,315.050,08009c64,5,0,22118203.978,0.037,-116231930.760389,0.091,-2134.572,49.7,329.240,18009c84,21,0,22693833.904,0.046,-119256886.356883,0.093,1852.073,47.9,309.900,08009ca4,2,0,24593716.193,0.089,-129240715.918586,0.084,-3688.998,42.1,231.510,18009cc4,24,0,21898738.473,0.051,-115078497.813363,0.035,3173.753,46.9,233.340,08009ce4,30,0,24984431.253,0.112,-131294011.679279,0.111,-3096.195,40.1,233.210,08009d44,13,0,21065643.546,0.037,-110700690.810251,0.092,-1952.145,49.9,228.780,18009d64*a9498b7c
#SATXYZ2A,COM1_1,0,66.0,FINESTEERING,2020,376065.000,00000000,7513,12778;9,GPS,29,3857211.0336,25572268.8823,-6070652.8915,110448.779,10.062,13.194,0.0,0.0,GPS,20,13584261.3172,14007244.8070,17943406.4213,154827.848,8.615,8.641,0.0,0.0,GPS,15,-6071040.7987,18188808.6421,17981365.9655,-103352.679,3.615,2.641,0.0,0.0,GPS,5,-24254778.8499,4108080.4266,10166001.7068,-460.516,4.836,3.894,0.0,0.0,GPS,21,4816063.2068,17852494.9656,19885292.1301,-99077.778,5.141,3.817,0.0,0.0,GPS,2,-19591801.8027,11873093.6099,-12671627.0748,-4064.093,9.438,18.587,0.0,0.0,GPS,24,-14781151.6701,21829042.6798,-1403756.4111,-16774.835,5.130,3.902,0.0,0.0,GPS,30,-9810475.4197,-12334309.2384,21386521.1525,5499.350,8.132,17.682,0.0,0.0,GPS,13,-13925657.1207,5857210.1364,21734610.8298,-26475.599,3.976,3.042,0.0,0.0*9586449b
#BESTPOSA,COM1_1,0,66.0,FINESTEERING,2020,376065.000,00000000,7145,12778;SOL_COMPUTED,SINGLE,36.76913158382,126.93477840169,98.1554,23.3000,WGS84,0.8516,0.8157,1.6159,"",0.000,0.000,9,9,9,9,0,12,00,01*bf39ee1e
#BESTXYZA,COM1_1,0,66.0,FINESTEERING,2020,376065.000,00000000,bde7,12778;SOL_COMPUTED,SINGLE,-3073913.0175,4088896.2452,3796973.2260,1.0630,1.2742,1.1171,SOL_COMPUTED,SINGLE,0.0000,0.0000,0.0000,0.0011,0.0011,0.0011,"",0.150,0.000,0.000,9,9,9,9,0,12,00,01*c23bf7a1
#RANGEA,COM1_1,0,66.0,FINESTEERING,2020,376066.000,00000000,5103,12778;9,29,0,24526389.409,0.059,-128886914.181457,0.060,-2838.137,45.7,233.310,08009c04,20,0,23844392.580,0.066,-125303120.964923,0.037,3113.841,44.7,309.780,18009c24,15,0,20326726.102,0.031,-106817653.978980,0.032,380.533,51.1,316.050,08009c64,5,0,22118609.867,0.037,-116234063.688966,0.061,-2130.520,49.7,330.240,18009c84,21,0,22693481.179,0.046,-119255032.777423,0.062,1855.838,47.9,310.900,08009ca4,2,0,24594417.815,0.091,-129244402.906646,0.090,-3684.323,41.9,232.510,18009cc4,24,0,21898134.189,0.052,-115075322.302156,0.032,3177.841,46.8,234.340,08009ce4,30,0,24985020.073,0.113,-131297105.987417,0.073,-3091.868,40.1,234.210,08009d44,13,0,21066014.707,0.036,-110702641.300857,0.060,-1947.978,49.9,229.780,18009d64*541ba8c6
#SATXYZ2A,COM1_1,0,66.0,FINESTEERING,2020,376066.000,00000000,7513,12778;9,GPS,29,3856792.2744,25571597.8934,-6073757.2402,110448.776,10.063,13.200,0.0,0.0,GPS,20,13581944.5888,14007346.2678,17945058.7351,154827.848,8.614,8.638,0.0,0.0,GPS,15,-6072281.7159,18186793.1401,17983004.4476,-103352.679,3.615,2.641,0.0,0.0,GPS,5,-24256034.3739,4107639.9508,10163236.8212,-460.515,4.836,3.894,0.0,0.0,GPS,21,4814581.5030,17854334.6135,19883949.5153,-99077.774,5.140,3.816,0.0,0.0,GPS,2,-19591036.8027,11871535.0438,-12674178.5053,-4064.098,9.439,18.603,0.0,0.0,GPS,24,-14781549.7044,21828955.7109,-1400614.0957,-16774.836,5.129,3.902,0.0,0.0,GPS,30,-9808635.0122,-12336311.4681,21386193.0306,5499.349,8.132,17.693,0.0,0.0,GPS,13,-13926362.6012,5854517.2900,21734884.7526,-26475.599,3.976,3.042,0.0,0.0*b5238682
#BESTPOSA,COM1_1,0,66.0,FINESTEERING,2020,376066.000,00000000,7145,12778;SOL_COMPUTED,SINGLE,36.76913162948,126.93477835482,98.1658,23.3000,WGS84,0.8481,0.8126,1.6096,"",0.000,0.000,9,9,9,9,0,12,00,01*1e979db9
#BESTXYZA,COM1_1,0,66.0,FINESTEERING,2020,376066.000,00000000,bde7,12778;SOL_COMPUTED,SINGLE,-3073913.0173,4088896.2519,3796973.2363,1.0592,1.2694,1.1124,SOL_COMPUTED,SINGLE,0.0000,0.0000,0.0000,0.0011,0.0011,0.0011,"",0.150,0.000,0.000,9,9,9,9,0,12,00,01*19d89ba2
#RANGEA,COM1_1,0,70.5,FINESTEERING,2020,376067.000,00000000,5103,12778;9,29,0,24526930.133,0.059,-128889755.592922,0.046,-2844.683,45.7,234.310,08009c04,20,0,23843800.604,0.066,-125300010.093578,0.037,3107.747,44.7,310.780,18009c24,15,0,20326654.298,0.031,-106817276.634513,0.034,373.894,51.2,317.050,08009c64,5,0,22119015.930,0.038,-116236197.550394,0.046,-2137.116,49.7,331.240,18009c84,21,0,22693128.656,0.046,-119253180.313259,0.046,1848.784,47.8,311.900,08009ca4,2,0,24595119.577,0.093,-129248090.663255,0.062,-3691.059,41.8,233.510,18009cc4,24,0,21897530.117,0.052,-115072147.850164,0.034,3171.208,46.8,235.340,08009ce4,30,0,24985609.052,0.113,-131300201.226335,0.053,-3098.430,40.0,235.210,08009d44,13,0,21066386.050,0.037,-110704592.756559,0.046,-1954.869,49.8,230.780,18009d64*bee124fe
#SATXYZ2A,COM1_1,0,70.5,FINESTEERING,2020,376067.000,00000000,7513,12778;9,GPS,29,3856373.3557,25570926.5578,-6076861.4597,110448.774,10.064,13.206,0.0,0.0,GPS,20,13579627.6569,14007447.8414,17946710.6649,154827.848,8.612,8.635,0.0,0.0,GPS,15,-6073522.8261,18184777.5168,17984642.5351,-103352.680,3.615,2.641,0.0,0.0,GPS,5,-24257289.5785,4107199.5931,10160471.7207,-460.515,4.836,3.894,0.0,0.0,GPS,21,4813099.9973,17856174.2171,19882606.5046,-99077.770,5.140,3.816,0.0,0.0,GPS,2,-19590271.6991,11869976.1654,-12676729.6541,-4064.102,9.440,18.619,0.0,0.0,GPS,24,-14781947.5097,21828868.4431,-1397471.7500,-16774.837,5.128,3.901,0.0,0.0,GPS,30,-9806794.7404,-12338313.7695,21385864.4540,5499.347,8.132,17.705,0.0,0.0,GPS,13,-13927068.2492,5851824.4517,21735158.2083,-26475.599,3.976,3.043,0.0,0.0*5371ca51
#BESTPOSA,COM1_1,0,70.5,FINESTEERING,2020,376067.000,00000000,7145,12778;SOL_COMPUTED,SINGLE,36.76913162948,126.93477835482,98.1658,23.3000,WGS84,0.8481,0.8126,1.6096,"",0.000,0.000,9,9,9,9,0,12,00,01*e6c6be6c
#BESTXYZA,COM1_1,0,70.5,FINESTEERING,2020,376067.000,00000000,bde7,12778;SOL_COMPUTED,SINGLE,-3073913.0173,4088896.2519,3796973.2363,1.0592,1.2694,1.1124,SOL_COMPUTED,SINGLE,0.0000,0.0000,0.0000,0.0011,0.0011,0.0011,"",0.150,0.000,0.000,9,9,9,9,0,12,00,01*105bf593
#RANGEA,COM1_1,0,70.5,FINESTEERING,2020,376068.000,00000000,5103,12778;9,29,0,24527470.575,0.059,-128892595.636255,0.038,-2840.168,45.7,235.310,08009c04,20,0,23843208.366,0.068,-125296897.859329,0.035,3111.886,44.6,311.780,18009c24,15,0,20326582.306,0.031,-106816898.297481,0.033,378.090,51.2,318.050,08009c64,5,0,22119421.784,0.038,-116238330.319501,0.037,-2133.058,49.6,332.240,18009c84,21,0,22692775.950,0.046,-119251326.878009,0.038,1853.012,47.8,312.900,08009ca4,2,0,24595821.088,0.093,-129251777.070609,0.047,-3686.541,41.7,234.510,18009cc4,24,0,21896925.856,0.053,-115068972.400409,0.033,3175.043,46.7,236.340,08009ce4,30,0,24986197.807,0.118,-131303295.325290,0.068,-3093.978,39.7,236.210,08009d44,13,0,21066757.184,0.037,-110706543.107128,0.038,-1950.632,49.8,231.780,18009d64*bdb1d18c
#SATXYZ2A,COM1_1,0,70.5,FINESTEERING,2020,376068.000,00000000,7513,12778;9,GPS,29,3855954.2776,25570254.8755,-6079965.5500,110448.772,10.065,13.212,0.0,0.0,GPS,20,13577310.5215,14007549.5276,17948362.2106,154827.848,8.611,8.632,0.0,0.0,GPS,15,-6074764.1294,18182761.7722,17986280.2280,-103352.681,3.615,2.641,0.0,0.0,GPS,5,-24258544.4636,4106759.3535,10157706.4054,-460.515,4.836,3.895,0.0,0.0,GPS,21,4811618.6897,17858013.7762,19881263.0980,-99077.766,5.139,3.816,0.0,0.0,GPS,2,-19589506.4917,11868416.9749,-12679280.5213,-4064.107,9.441,18.635,0.0,0.0,GPS,24,-14782345.0861,21828780.8765,-1394329.3740,-16774.838,5.127,3.900,0.0,0.0,GPS,30,-9804954.6043,-12340316.1427,21385535.4228,5499.345,8.132,17.717,0.0,0.0,GPS,13,-13927774.0647,5849131.6218,21735431.1968,-26475.599,3.976,3.043,0.0,0.0*759777b2
#BESTPOSA,COM1_1,0,70.5,FINESTEERING,2020,376068.000,00000000,7145,12778;SOL_COMPUTED,SINGLE,36.76913162948,126.93477835482,98.1658,23.3000,WGS84,0.8481,0.8126,1.6096,"",0.000,0.000,9,9,9,9,0,12,00,01*8107f63c
#BESTXYZA,COM1_1,0,70.5,FINESTEERING,2020,376068.000,00000000,bde7,12778;SOL_COMPUTED,SINGLE,-3073913.0173,4088896.2519,3796973.2363,1.0592,1.2694,1.1124,SOL_COMPUTED,SINGLE,0.0000,8.8288e-10,0.0000,0.0011,0.0011,0.0011,"",0.150,0.000,0.000,9,9,9,9,0,12,00,01*2227141b
#RANGEA,COM1_1,0,71.5,FINESTEERING,2020,376069.000,00000000,5103,12778;9,29,0,24528010.597,0.060,-128895433.403961,0.033,-2839.632,45.6,236.310,08009c04,20,0,23842615.685,0.066,-125293783.290515,0.031,3112.496,44.8,312.780,18009c24,15,0,20326509.948,0.031,-106816518.043189,0.030,378.040,51.3,319.050,08009c64,5,0,22119827.249,0.037,-116240461.024017,0.031,-2132.773,49.7,333.240,18009c84,21,0,22692422.882,0.046,-119249471.538124,0.032,1853.210,47.9,313.900,08009ca4,2,0,24596522.161,0.090,-129255461.185529,0.076,-3685.817,42.0,235.510,18009cc4,24,0,21896321.206,0.052,-115065794.967475,0.030,3175.389,46.8,237.340,08009ce4,30,0,24986786.228,0.115,-131306387.451608,0.049,-3094.403,39.9,237.210,08009d44,13,0,21067127.932,0.037,-110708491.419557,0.032,-1950.289,49.8,232.780,18009d64*c2b240d6
#SATXYZ2A,COM1_1,0,71.5,FINESTEERING,2020,376069.000,00000000,7513,12778;9,GPS,29,3855535.0401,25569582.8466,-6083069.5110,110448.770,10.066,13.218,0.0,0.0,GPS,20,13574993.1826,14007651.3266,17950013.3723,154827.848,8.609,8.629,0.0,0.0,GPS,15,-6076005.6256,18180745.9065,17987917.5261,-103352.682,3.614,2.641,0.0,0.0,GPS,5,-24259799.0292,4106319.2319,10154940.8754,-460.514,4.837,3.895,0.0,0.0,GPS,21,4810137.5802,17859853.2908,19879919.2956,-99077.762,5.138,3.815,0.0,0.0,GPS,2,-19588741.1808,11866857.4722,-12681831.1067,-4064.112,9.442,18.651,0.0,0.0,GPS,24,-14782742.4336,21828693.0110,-1391186.9677,-16774.838,5.126,3.900,0.0,0.0,GPS,30,-9803114.6040,-12342318.5875,21385205.9370,5499.344,8.132,17.728,0.0,0.0,GPS,13,-13928480.0477,5846438.8002,21735703.7182,-26475.599,3.976,3.043,0.0,0.0*3ed264e7
#BESTPOSA,COM1_1,0,71.5,FINESTEERING,2020,376069.000,00000000,7145,12778;SOL_COMPUTED,SINGLE,36.76913167639,126.93477831014,98.1758,23.3000,WGS84,0.8446,0.8096,1.6034,"",0.000,0.000,9,9,9,9,0,12,00,01*6cd1dea7
#BESTXYZA,COM1_1,0,71.5,FINESTEERING,2020,376069.000,00000000,bde7,12778;SOL_COMPUTED,SINGLE,-3073913.0171,4088896.2583,3796973.2465,1.0553,1.2645,1.1077,SOL_COMPUTED,SINGLE,0.0000,0.0000,0.0000,0.0011,0.0011,0.0011,"",0.150,0.000,0.000,9,9,9,9,0,12,00,01*3386493b
#RANGEA,COM1_1,0,70.0,FINESTEERING,2020,376070.000,00000000,5103,12778;9,29,0,24528550.827,0.059,-128898272.258012,0.034,-2835.793,45.7,237.310,08009c04,20,0,23842023.221,0.065,-125290669.811923,0.033,3116.823,44.8,313.780,18009c24,15,0,20326437.871,0.031,-106816139.262386,0.033,381.901,51.3,320.050,08009c64,5,0,22120232.965,0.037,-116242593.047878,0.034,-2128.900,49.7,334.240,18009c84,21,0,22692070.105,0.046,-119247617.710115,0.034,1856.904,47.9,314.900,08009ca4,2,0,24597223.453,0.091,-129259146.470552,0.055,-3682.239,42.0,236.510,18009cc4,24,0,21895716.830,0.052,-115062618.997827,0.033,3178.910,46.8,238.340,08009ce4,30,0,24987374.858,0.119,-131309480.814365,0.077,-3090.020,39.6,238.210,08009d44,13,0,21067498.938,0.037,-110710441.083589,0.034,-1946.667,49.9,233.780,18009d64*d0488311
#SATXYZ2A,COM1_1,0,70.0,FINESTEERING,2020,376070.000,00000000,7513,12778;9,GPS,29,3855115.6430,25568910.4710,-6086173.3426,110448.767,10.067,13.225,0.0,0.0,GPS,20,13572675.6403,14007753.2384,17951664.1498,154827.848,8.608,8.626,0.0,0.0,GPS,15,-6077247.3148,18178729.9196,17989554.4295,-103352.682,3.614,2.641,0.0,0.0,GPS,5,-24261053.2752,4105879.2283,10152175.1307,-460.514,4.837,3.896,0.0,0.0,GPS,21,4808656.6688,17861692.7609,19878575.0975,-99077.758,5.138,3.815,0.0,0.0,GPS,2,-19587975.7664,11865297.6574,-12684381.4104,-4064.117,9.443,18.667,0.0,0.0,GPS,24,-14783139.5523,21828604.8466,-1388044.5313,-16774.839,5.125,3.899,0.0,0.0,GPS,30,-9801274.7395,-12344321.1040,21384875.9965,5499.342,8.132,17.740,0.0,0.0,GPS,13,-13929186.1982,5843745.9871,21735975.7724,-26475.599,3.977,3.043,0.0,0.0*c7a540a0
#BESTPOSA,COM1_1,0,70.0,FINESTEERING,2020,376070.000,00000000,7145,12778;SOL_COMPUTED,SINGLE,36.76913167639,126.93477831014,98.1758,23.3000,WGS84,0.8446,0.8096,1.6034,"",0.000,0.000,9,9,9,9,0,12,00,01*8156d978
#BESTXYZA,COM1_1,0,70.0,FINESTEERING,2020,376070.000,00000000,bde7,12778;SOL_COMPUTED,SINGLE,-3073913.0171,4088896.2583,3796973.2465,1.0553,1.2645,1.1077,SOL_COMPUTED,SINGLE,0.0000,0.0000,0.0000,0.0011,0.0011,0.0011,"",0.150,0.000,0.000,9,9,9,9,0,12,00,01*50a5a378
#RANGEA,COM1_1,0,69.5,FINESTEERING,2020,376071.000,00000000,5103,12778;9,29,0,24529091.292,0.060,-128901112.446100,0.035,-2838.908,45.6,238.310,08009c04,20,0,23841431.005,0.065,-125287557.656492,0.079,3113.235,44.8,314.780,18009c24,15,0,20326366.111,0.031,-106815762.190717,0.034,378.008,51.3,321.050,08009c64,5,0,22120638.980,0.037,-116244726.666044,0.035,-2132.787,49.7,335.240,18009c84,21,0,22691717.661,0.046,-119245765.634809,0.035,1852.971,47.9,315.900,08009ca4,2,0,24597924.997,0.092,-129262833.112922,0.079,-3685.946,41.8,237.510,18009cc4,24,0,21895112.786,0.052,-115059444.712680,0.035,3174.946,46.9,239.340,08009ce4,30,0,24987963.820,0.119,-131312575.802686,0.056,-3094.088,39.7,239.210,08009d44,13,0,21067870.244,0.037,-110712392.337940,0.035,-1950.156,49.8,234.780,18009d64*5bb8bac8
#SATXYZ2A,COM1_1,0,69.5,FINESTEERING,2020,376071.000,00000000,7513,12778;9,GPS,29,3854696.0864,25568237.7489,-6089277.0447,110448.765,10.068,13.231,0.0,0.0,GPS,20,13570357.8946,14007855.2629,17953314.5431,154827.848,8.606,8.623,0.0,0.0,GPS,15,-6078489.1970,18176713.8116,17991190.9382,-103352.683,3.614,2.641,0.0,0.0,GPS,5,-24262307.2016,4105439.3427,10149409.1714,-460.514,4.837,3.896,0.0,0.0,GPS,21,4807175.9555,17863532.1864,19877230.5035,-99077.754,5.137,3.815,0.0,0.0,GPS,2,-19587210.2485,11863737.5305,-12686931.4323,-4064.121,9.443,18.683,0.0,0.0,GPS,24,-14783536.4422,21828516.3832,-1384902.0649,-16774.840,5.124,3.898,0.0,0.0,GPS,30,-9799435.0108,-12346323.6921,21384545.6014,5499.341,8.132,17.752,0.0,0.0,GPS,13,-13929892.5162,5841053.1824,21736247.3594,-26475.599,3.977,3.044,0.0,0.0*16ad829d
#BESTPOSA,COM1_1,0,69.5,FINESTEERING,2020,376071.000,00000000,7145,12778;SOL_COMPUTED,SINGLE,36.76913172306,126.93477826654,98.1859,23.3000,WGS84,0.8412,0.8066,1.5973,"",0.000,0.000,9,9,9,9,0,12,00,01*3148b0c8
#BESTXYZA,COM1_1,0,69.5,FINESTEERING,2020,376071.000,00000000,bde7,12778;SOL_COMPUTED,SINGLE,-3073913.0170,4088896.2646,3796973.2567,1.0516,1.2598,1.1031,SOL_COMPUTED,SINGLE,0.0000,0.0000,0.0000,0.0011,0.0011,0.0011,"",0.150,0.000,0.000,9,9,9,9,0,12,00,01*e9370d64
#RANGEA,COM1_1,0,69.5,FINESTEERING,2020,376072.000,00000000,5103,12778;9,29,0,24529631.586,0.062,-128903951.666103,0.030,-2838.973,45.3,239.310,08009c04,20,0,23840838.615,0.066,-125284444.509056,0.052,3113.383,44.7,315.780,18009c24,15,0,20326294.245,0.031,-106815384.513605,0.029,377.796,51.2,322.050,08009c64,5,0,22121044.852,0.038,-116246859.533437,0.029,-2132.761,49.5,336.240,18009c84,21,0,22691365.096,0.047,-119243912.955299,0.029,1852.764,47.8,316.900,08009ca4,2,0,24598626.363,0.094,-129266518.748121,0.054,-3685.342,41.6,238.510,18009cc4,24,0,21894508.605,0.053,-115056269.757011,0.030,3174.817,46.7,240.340,08009ce4,30,0,24988552.622,0.120,-131315670.030912,0.043,-3094.356,39.6,240.210,08009d44,13,0,21068241.416,0.037,-110714342.877239,0.030,-1950.519,49.7,235.780,18009d64*fa0dbd03
#SATXYZ2A,COM1_1,0,69.5,FINESTEERING,2020,376072.000,00000000,7513,12778;9,GPS,29,3854276.3701,25567564.6803,-6092380.6173,110448.763,10.069,13.237,0.0,0.0,GPS,20,13568039.9457,14007957.4003,17954964.5522,154827.847,8.605,8.620,0.0,0.0,GPS,15,-6079731.2723,18174697.5826,17992827.0520,-103352.684,3.614,2.641,0.0,0.0,GPS,5,-24263560.8083,4104999.5749,10146642.9975,-460.513,4.837,3.897,0.0,0.0,GPS,21,4805695.4403,17865371.5672,19875885.5138,-99077.750,5.137,3.814,0.0,0.0,GPS,2,-19586444.6271,11862177.0914,-12689481.1722,-4064.126,9.444,18.699,0.0,0.0,GPS,24,-14783933.1034,21828427.6208,-1381759.5684,-16774.841,5.123,3.898,0.0,0.0,GPS,30,-9797595.4181,-12348326.3518,21384214.7517,5499.339,8.132,17.764,0.0,0.0,GPS,13,-13930599.0016,5838360.3863,21736518.4792,-26475.600,3.977,3.044,0.0,0.0*18f9841b
#BESTPOSA,COM1_1,0,69.5,FINESTEERING,2020,376072.000,00000000,7145,12778;SOL_COMPUTED,SINGLE,36.76913172306,126.93477826654,98.1859,23.3000,WGS84,0.8412,0.8066,1.5973,"",0.000,0.000,9,9,9,9,0,12,00,01*2f2258d8
#BESTXYZA,COM1_1,0,69.5,FINESTEERING,2020,376072.000,00000000,bde7,12778;SOL_COMPUTED,SINGLE,-3073913.0170,4088896.2646,3796973.2567,1.0516,1.2598,1.1031,SOL_COMPUTED,SINGLE,0.0000,0.0000,0.0000,0.0011,0.0011,0.0011,"",0.150,0.000,0.000,9,9,9,9,0,12,00,01*514b6ab5
#RANGEA,COM1_1,0,73.5,FINESTEERING,2020,376073.000,00000000,5103,12778;9,29,0,24530171.944,0.062,-128906791.261205,0.100,-2836.513,45.3,240.310,08009c04,20,0,23840246.264,0.066,-125281331.685621,0.040,3115.549,44.8,316.780,18009c24,15,0,20326222.519,0.031,-106815007.583833,0.030,379.575,51.3,323.050,08009c64,5,0,22121450.832,0.038,-116248992.999563,0.030,-2130.594,49.6,337.240,18009c84,21,0,22691012.683,0.046,-119242061.048177,0.030,1854.580,47.9,317.900,08009ca4,2,0,24599327.822,0.092,-129270204.805496,0.041,-3683.079,41.8,239.510,18009cc4,24,0,21893904.561,0.053,-115053095.530095,0.030,3176.946,46.7,241.340,08009ce4,30,0,24989141.571,0.118,-131318764.932760,0.118,-3091.904,39.7,241.210,08009d44,13,0,21068612.698,0.037,-110716294.036342,0.029,-1948.157,49.8,236.780,18009d64*773ae89b
#SATXYZ2A,COM1_1,0,73.5,FINESTEERING,2020,376073.000,00000000,7513,12778;9,GPS,29,3853856.4942,25566891.2651,-6095484.0604,110448.761,10.069,13.243,0.0,0.0,GPS,20,13565721.7935,14008059.6505,17956614.1771,154827.847,8.603,8.617,0.0,0.0,GPS,15,-6080973.5405,18172681.2327,17994462.7710,-103352.685,3.614,2.641,0.0,0.0,GPS,5,-24264814.0954,4104559.9250,10143876.6092,-460.513,4.837,3.897,0.0,0.0,GPS,21,4804215.1233,17867210.9032,19874540.1283,-99077.746,5.136,3.814,0.0,0.0,GPS,2,-19585678.9024,11860616.3403,-12692030.6302,-4064.131,9.445,18.716,0.0,0.0,GPS,24,-14784329.5358,21828338.5595,-1378617.0420,-16774.841,5.122,3.897,0.0,0.0,GPS,30,-9795755.9612,-12350329.0829,21383883.4474,5499.337,8.132,17.775,0.0,0.0,GPS,13,-13931305.6544,5835667.5989,21736789.1319,-26475.600,3.977,3.044,0.0,0.0*9b1a3f2d
#BESTPOSA,COM1_1,0,73.5,FINESTEERING,2020,376073.000,00000000,7145,12778;SOL_COMPUTED,SINGLE,36.76913172306,126.93477826654,98.1859,23.3000,WGS84,0.8412,0.8066,1.5973,"",0.000,0.000,9,9,9,9,0,12,00,01*3b2e3c7a
#BESTXYZA,COM1_1,0,73.5,FINESTEERING,2020,376073.000,00000000,bde7,12778;SOL_COMPUTED,SINGLE,-3073913.0170,4088896.2646,3796973.2567,1.0516,1.2598,1.1031,SOL_COMPUTED,SINGLE,0.0000,7.5003e-10,0.0000,0.0011,0.0011,0.0011,"",0.150,0.000,0.000,9,9,9,9,0,12,00,01*280b92aa
#RANGEA,COM1_1,0,72.5,FINESTEERING,2020,376074.000,00000000,5103,12778;9,29,0,24530712.150,0.062,-128909630.039279,0.064,-2839.407,45.3,241.310,08009c04,20,0,23839653.763,0.065,-125278218.069011,0.031,3113.197,44.9,317.780,18009c24,15,0,20326150.713,0.031,-106814630.234556,0.025,376.635,51.3,324.050,08009c64,5,0,22121856.718,0.037,-116251125.932710,0.026,-2133.606,49.7,338.240,18009c84,21,0,22690660.196,0.045,-119240208.757965,0.026,1851.519,48.1,318.900,08009ca4,2,0,24600029.138,0.089,-129273890.113874,0.036,-3686.023,42.1,240.510,18009cc4,24,0,21893300.436,0.052,-115049920.830509,0.025,3173.913,46.8,242.340,08009ce4,30,0,24989730.363,0.120,-131321859.151254,0.075,-3095.239,39.6,242.210,08009d44,13,0,21068983.883,0.037,-110718244.657318,0.025,-1951.454,49.9,237.780,18009d64*b32dad31
#SATXYZ2A,COM1_1,0,72.5,FINESTEERING,2020,376074.000,00000000,7513,12778;9,GPS,29,3853436.4586,25566217.5035,-6098587.3738,110448.758,10.070,13.249,0.0,0.0,GPS,20,13563403.4380,14008162.0136,17958263.4177,154827.847,8.602,8.615,0.0,0.0,GPS,15,-6082216.0017,18170664.7619,17996098.0950,-103352.685,3.613,2.641,0.0,0.0,GPS,5,-24266067.0627,4104120.3930,10141110.0064,-460.513,4.837,3.897,0.0,0.0,GPS,21,4802735.0044,17869050.1945,19873194.3472,-99077.742,5.135,3.814,0.0,0.0,GPS,2,-19584913.0744,11859055.2770,-12694579.8062,-4064.136,9.446,18.732,0.0,0.0,GPS,24,-14784725.7395,21828249.1990,-1375474.4857,-16774.842,5.121,3.896,0.0,0.0,GPS,30,-9793916.6404,-12352331.8854,21383551.6885,5499.336,8.132,17.787,0.0,0.0,GPS,13,-13932012.4747,5832974.8201,21737059.3174,-26475.600,3.977,3.045,0.0,0.0*bf71d0e4
#BESTXYZA,COM1_1,0,72.5,FINESTEERING,2020,376074.000,00000000,bde7,12778;SOL_COMPUTED,SINGLE,-3073913.0170,4088896.2709,3796973.2669,1.0478,1.2551,1.0986,SOL_COMPUTED,SINGLE,0.0000,0.0000,0.0000,0.0011,0.0011,0.0011,"",0.150,0.000,0.000,9,9,9,9,0,12,00,01*91772e26
#BESTPOSA,COM1_1,0,72.5,FINESTEERING,2020,376074.000,00000000,7145,12778;SOL_COMPUTED,SINGLE,36.76913176939,126.93477822430,98.1961,23.3000,WGS84,0.8379,0.8036,1.5913,"",0.000,0.000,9,9,9,9,0,12,00,01*44f808c0
#RANGEA,COM1_1,0,71.0,FINESTEERING,2020,376075.000,00000000,5103,12778;9,29,0,24531252.550,0.063,-128912469.820995,0.046,-2840.457,45.1,242.310,08009c04,20,0,23839061.449,0.065,-125275105.456703,0.031,3111.481,44.9,318.780,18009c24,15,0,20326079.169,0.031,-106814254.260559,0.028,374.540,51.3,325.050,08009c64,5,0,22122262.831,0.037,-116253260.088754,0.029,-2135.175,49.7,339.240,18009c84,21,0,22690307.979,0.045,-119238357.855630,0.029,1849.500,48.1,319.900,08009ca4,2,0,24600730.628,0.088,-129277576.424381,0.032,-3687.061,42.3,241.510,18009cc4,24,0,21892696.565,0.051,-115046747.499406,0.029,3171.943,46.9,243.340,08009ce4,30,0,24990319.413,0.123,-131324954.618709,0.056,-3095.624,39.4,243.210,08009d44,13,0,21069355.312,0.037,-110720196.527772,0.029,-1953.160,49.9,238.780,18009d64*5a72947d
#SATXYZ2A,COM1_1,0,71.0,FINESTEERING,2020,376075.000,00000000,7513,12778;9,GPS,29,3853016.2633,25565543.3954,-6101690.5575,110448.756,10.071,13.255,0.0,0.0,GPS,20,13561084.8795,14008264.4896,17959912.2739,154827.847,8.600,8.612,0.0,0.0,GPS,15,-6083458.6559,18168648.1702,17997733.0242,-103352.686,3.613,2.641,0.0,0.0,GPS,5,-24267319.7103,4103680.9787,10138343.1892,-460.512,4.838,3.898,0.0,0.0,GPS,21,4801255.0837,17870889.4410,19871848.1704,-99077.738,5.135,3.813,0.0,0.0,GPS,2,-19584147.1432,11857493.9017,-12697128.7001,-4064.140,9.447,18.748,0.0,0.0,GPS,24,-14785121.7146,21828159.5395,-1372331.8996,-16774.843,5.120,3.896,0.0,0.0,GPS,30,-9792077.4555,-12354334.7593,21383219.4750,5499.334,8.132,17.799,0.0,0.0,GPS,13,-13932719.4624,5830282.0502,21737329.0357,-26475.600,3.977,3.045,0.0,0.0*7839f555
#BESTPOSA,COM1_1,0,71.0,FINESTEERING,2020,376075.000,00000000,7145,12778;SOL_COMPUTED,SINGLE,36.76913176939,126.93477822430,98.1961,23.3000,WGS84,0.8379,0.8036,1.5913,"",0.000,0.000,9,9,9,9,0,12,00,01*23e9a95b
#BESTXYZA,COM1_1,0,71.0,FINESTEERING,2020,376075.000,00000000,bde7,12778;SOL_COMPUTED,SINGLE,-3073913.0170,4088896.2709,3796973.2669,1.0478,1.2551,1.0986,SOL_COMPUTED,SINGLE,0.0000,0.0000,0.0000,0.0011,0.0011,0.0011,"",0.150,0.000,0.000,9,9,9,9,0,12,00,01*533f50f0
#RANGEA,COM1_1,0,71.0,FINESTEERING,2020,376076.000,00000000,5103,12778;9,29,0,24531793.277,0.064,-128915311.328544,0.036,-2843.235,45.0,243.310,08009c04,20,0,23838469.470,0.065,-125271994.528755,0.028,3109.162,44.8,319.780,18009c24,15,0,20326008.022,0.031,-106813880.371898,0.028,372.085,51.3,326.050,08009c64,5,0,22122669.324,0.037,-116255396.208831,0.028,-2138.016,49.7,340.240,18009c84,21,0,22689956.163,0.044,-119236509.083616,0.028,1846.785,48.2,320.900,08009ca4,2,0,24601432.466,0.089,-129281264.489934,0.072,-3690.016,42.2,242.510,18009cc4,24,0,21892093.084,0.052,-115043576.208595,0.028,3169.389,46.8,244.340,08009ce4,30,0,24990908.826,0.113,-131328052.084289,0.100,-3099.494,40.0,244.210,08009d44,13,0,21069727.116,0.037,-110722150.366773,0.028,-1955.795,49.9,239.780,18009d64*81780104
#SATXYZ2A,COM1_1,0,71.0,FINESTEERING,2020,376076.000,00000000,7513,12778;9,GPS,29,3852595.9082,25564868.9410,-6104793.6114,110448.754,10.072,13.261,0.0,0.0,GPS,20,13558766.1178,14008367.0785,17961560.7459,154827.847,8.599,8.609,0.0,0.0,GPS,15,-6084701.5031,18166631.4578,17999367.5584,-103352.687,3.613,2.641,0.0,0.0,GPS,5,-24268572.0382,4103241.6822,10135576.1577,-460.512,4.838,3.898,0.0,0.0,GPS,21,4799775.3612,17872728.6425,19870501.5979,-99077.734,5.134,3.813,0.0,0.0,GPS,2,-19583381.1087,11855932.2143,-12699677.3119,-4064.145,9.447,18.764,0.0,0.0,GPS,24,-14785517.4610,21828069.5808,-1369189.2838,-16774.844,5.119,3.895,0.0,0.0,GPS,30,-9790238.4067,-12356337.7046,21382886.8069,5499.333,8.132,17.811,0.0,0.0,GPS,13,-13933426.6176,5827589.2890,21737598.2867,-26475.600,3.977,3.045,0.0,0.0*4ac457cc
#BESTPOSA,COM1_1,0,71.0,FINESTEERING,2020,376076.000,00000000,7145,12778;SOL_COMPUTED,SINGLE,36.76913181616,126.93477818305,98.2062,23.3000,WGS84,0.8345,0.8007,1.5853,"",0.000,0.000,9,9,9,9,0,12,00,01*35a3555a
#BESTXYZA,COM1_1,0,71.0,FINESTEERING,2020,376076.000,00000000,bde7,12778;SOL_COMPUTED,SINGLE,-3073913.0171,4088896.2771,3796973.2771,1.0441,1.2504,1.0941,SOL_COMPUTED,SINGLE,0.0000,0.0000,0.0000,0.0011,0.0011,0.0011,"",0.150,0.000,0.000,9,9,9,9,0,12,00,01*e3614102
#RANGEA,COM1_1,0,71.0,FINESTEERING,2020,376077.000,00000000,5103,12778;9,29,0,24532333.705,0.065,-128918151.289176,0.102,-2841.413,44.9,244.310,08009c04,20,0,23837877.180,0.065,-125268882.011257,0.096,3110.813,44.9,320.780,18009c24,15,0,20325936.645,0.031,-106813505.310722,0.040,373.095,51.3,327.050,08009c64,5,0,22123075.558,0.037,-116257531.006584,0.041,-2136.649,49.7,341.240,18009c84,21,0,22689604.128,0.044,-119234659.129251,0.096,1848.296,48.2,321.900,08009ca4,2,0,24602134.006,0.089,-129284951.016397,0.057,-3687.685,42.1,243.510,18009cc4,24,0,21891489.381,0.052,-115040403.734603,0.041,3170.805,46.8,245.340,08009ce4,30,0,24991498.010,0.121,-131331148.224595,0.104,-3097.364,39.6,245.210,08009d44,13,0,21070098.666,0.037,-110724102.908540,0.041,-1953.944,49.8,240.780,18009d64*14536a1b
#SATXYZ2A,COM1_1,0,71.0,FINESTEERING,2020,376077.000,00000000,7513,12778;9,GPS,29,3852175.3932,25564194.1401,-6107896.5355,110448.752,10.073,13.267,0.0,0.0,GPS,20,13556447.1531,14008469.7803,17963208.8334,154827.847,8.597,8.606,0.0,0.0,GPS,15,-6085944.5433,18164614.6247,18001001.6977,-103352.687,3.613,2.640,0.0,0.0,GPS,5,-24269824.0462,4102802.5034,10132808.9120,-460.512,4.838,3.899,0.0,0.0,GPS,21,4798295.8370,17874567.7991,19869154.6298,-99077.730,5.134,3.812,0.0,0.0,GPS,2,-19582614.9711,11854370.2148,-12702225.6415,-4064.150,9.448,18.780,0.0,0.0,GPS,24,-14785912.9789,21827979.3230,-1366046.6383,-16774.845,5.118,3.894,0.0,0.0,GPS,30,-9788399.4940,-12358340.7211,21382553.6843,5499.331,8.132,17.823,0.0,0.0,GPS,13,-13934133.9401,5824896.5368,21737867.0706,-26475.600,3.977,3.045,0.0,0.0*77f14fde
#BESTPOSA,COM1_1,0,71.0,FINESTEERING,2020,376077.000,00000000,7145,12778;SOL_COMPUTED,SINGLE,36.76913181616,126.93477818305,98.2062,23.3000,WGS84,0.8345,0.8007,1.5853,"",0.000,0.000,9,9,9,9,0,12,00,01*8955f095
#BESTXYZA,COM1_1,0,71.0,FINESTEERING,2020,376077.000,00000000,bde7,12778;SOL_COMPUTED,SINGLE,-3073913.0171,4088896.2771,3796973.2771,1.0441,1.2504,1.0941,SOL_COMPUTED,SINGLE,0.0000,0.0000,0.0000,0.0011,0.0011,0.0011,"",0.150,0.000,0.000,9,9,9,9,0,12,00,01*8b4a9c4d
#RANGEA,COM1_1,0,71.0,FINESTEERING,2020,376078.000,00000000,5103,12778;9,29,0,24532874.065,0.065,-128920990.914821,0.067,-2837.281,44.8,245.310,08009c04,20,0,23837284.831,0.065,-125265769.174516,0.064,3115.450,44.8,321.780,18009c24,15,0,20325865.280,0.031,-106813130.297666,0.035,377.410,51.3,328.050,08009c64,5,0,22123481.781,0.037,-116259665.707033,0.035,-2132.346,49.7,342.240,18009c84,21,0,22689252.114,0.044,-119232809.276151,0.063,1852.137,48.1,322.900,08009ca4,2,0,24602835.467,0.091,-129288637.234535,0.044,-3683.553,41.9,244.510,18009cc4,24,0,21890885.674,0.052,-115037231.273134,0.036,3174.747,46.8,246.340,08009ce4,30,0,24992087.172,0.116,-131334244.272519,0.102,-3093.480,39.8,246.210,08009d44,13,0,21070470.207,0.037,-110726055.396455,0.035,-1950.313,49.9,241.780,18009d64*ba757eea
#SATXYZ2A,COM1_1,0,71.0,FINESTEERING,2020,376078.000,00000000,7513,12778;9,GPS,29,3851754.7184,25563518.9930,-6110999.3297,110448.750,10.074,13.273,0.0,0.0,GPS,20,13554127.9855,14008572.5951,17964856.5366,154827.847,8.595,8.603,0.0,0.0,GPS,15,-6087187.7765,18162597.6710,18002635.4419,-103352.688,3.612,2.640,0.0,0.0,GPS,5,-24271075.7343,4102363.4423,10130041.4520,-460.512,4.838,3.899,0.0,0.0,GPS,21,4796816.5109,17876406.9107,19867807.2661,-99077.726,5.133,3.812,0.0,0.0,GPS,2,-19581848.7304,11852807.9032,-12704773.6888,-4064.154,9.449,18.797,0.0,0.0,GPS,24,-14786308.2682,21827888.7661,-1362903.9632,-16774.845,5.117,3.894,0.0,0.0,GPS,30,-9786560.7174,-12360343.8089,21382220.1070,5499.330,8.132,17.835,0.0,0.0,GPS,13,-13934841.4300,5822203.7935,21738135.3873,-26475.600,3.978,3.046,0.0,0.0*06d5338c
#BESTPOSA,COM1_1,0,71.0,FINESTEERING,2020,376078.000,00000000,7145,12778;SOL_COMPUTED,SINGLE,36.76913181616,126.93477818305,98.2062,23.3000,WGS84,0.8345,0.8007,1.5853,"",0.000,0.000,9,9,9,9,0,12,00,01*ee94b8c5
#BESTXYZA,COM1_1,0,71.0,FINESTEERING,2020,376078.000,00000000,bde7,12778;SOL_COMPUTED,SINGLE,-3073913.0171,4088896.2771,3796973.2771,1.0441,1.2504,1.0941,SOL_COMPUTED,SINGLE,0.0000,6.8740e-10,0.0000,0.0011,0.0011,0.0011,"",0.150,0.000,0.000,9,9,9,9,0,12,00,01*632c23de
#RANGEA,COM1_1,0,71.5,FINESTEERING,2020,376079.000,00000000,5103,12778;9,29,0,24533414.449,0.066,-128923830.653463,0.051,-2840.221,44.8,246.310,08009c04,20,0,23836692.493,0.065,-125262656.413299,0.049,3112.380,44.9,322.780,18009c24,15,0,20325794.008,0.031,-106812755.756381,0.037,373.971,51.3,329.050,08009c64,5,0,22123888.067,0.037,-116261800.750150,0.037,-2135.388,49.8,343.240,18009c84,21,0,22688900.192,0.044,-119230959.924146,0.049,1848.764,48.2,323.900,08009ca4,2,0,24603536.953,0.091,-129292323.607341,0.078,-3687.043,42.0,245.510,18009cc4,24,0,21890282.050,0.052,-115034059.267101,0.037,3171.449,46.9,247.340,08009ce4,30,0,24992676.407,0.113,-131337340.675981,0.089,-3096.579,40.0,247.210,08009d44,13,0,21070841.820,0.037,-110728008.223533,0.037,-1953.144,49.9,242.780,18009d64*8ea44210
#SATXYZ2A,COM1_1,0,71.5,FINESTEERING,2020,376079.000,00000000,7513,12778;9,GPS,29,3851333.8837,25562843.4995,-6114101.9939,110448.747,10.075,13.279,0.0,0.0,GPS,20,13551808.6149,14008675.5230,17966503.8552,154827.847,8.594,8.600,0.0,0.0,GPS,15,-6088431.2026,18160580.5967,18004268.7911,-103352.689,3.612,2.640,0.0,0.0,GPS,5,-24272327.1026,4101924.4988,10127273.7779,-460.511,4.838,3.900,0.0,0.0,GPS,21,4795337.3831,17878245.9772,19866459.5068,-99077.722,5.133,3.812,0.0,0.0,GPS,2,-19581082.3867,11851245.2796,-12707321.4539,-4064.159,9.450,18.813,0.0,0.0,GPS,24,-14786703.3290,21827797.9099,-1359761.2586,-16774.846,5.116,3.893,0.0,0.0,GPS,30,-9784722.0770,-12362346.9678,21381886.0752,5499.328,8.132,17.846,0.0,0.0,GPS,13,-13935549.0872,5819511.0593,21738403.2367,-26475.600,3.978,3.046,0.0,0.0*005e2cc0
#BESTPOSA,COM1_1,0,71.5,FINESTEERING,2020,376079.000,00000000,7145,12778;SOL_COMPUTED,SINGLE,36.76913186158,126.93477814261,98.2163,23.3000,WGS84,0.8312,0.7978,1.5794,"",0.000,0.000,9,9,9,9,0,12,00,01*0e202f34
#BESTXYZA,COM1_1,0,71.5,FINESTEERING,2020,376079.000,00000000,bde7,12778;SOL_COMPUTED,SINGLE,-3073913.0173,4088896.2834,3796973.2872,1.0404,1.2458,1.0896,SOL_COMPUTED,SINGLE,0.0000,0.0000,0.0000,0.0011,0.0011,0.0011,"",0.150,0.000,0.000,9,9,9,9,0,12,00,01*bd0596d0
#RANGEA,COM1_1,0,70.5,FINESTEERING,2020,376080.000,00000000,5103,12778;9,29,0,24533955.113,0.065,-128926671.887273,0.103,-2839.200,44.9,247.310,08009c04,20,0,23836100.438,0.066,-125259545.167339,0.041,3113.112,44.7,323.780,18009c24,15,0,20325723.095,0.031,-106812383.117181,0.036,374.281,51.4,330.050,08009c64,5,0,22124294.688,0.037,-116263937.544801,0.035,-2134.844,49.8,344.240,18009c84,21,0,22688548.628,0.044,-119229112.466041,0.041,1849.022,48.2,324.900,08009ca4,2,0,24604238.743,0.088,-129296011.478910,0.111,-3685.765,42.2,246.510,18009cc4,24,0,21889678.780,0.052,-115030889.098977,0.036,3172.040,46.9,248.340,08009ce4,30,0,24993265.947,0.113,-131340438.784881,0.086,-3095.908,40.0,248.210,08009d44,13,0,21071213.771,0.036,-110729962.823162,0.035,-1952.564,49.9,243.780,18009d64*ba6c07ae
#SATXYZ2A,COM1_1,0,70.5,FINESTEERING,2020,376080.000,00000000,7513,12778;9,GPS,29,3850912.8890,25562167.6598,-6117204.5280,110448.745,10.076,13.285,0.0,0.0,GPS,20,13549489.0414,14008778.5639,17968150.7894,154827.847,8.592,8.597,0.0,0.0,GPS,15,-6089674.8217,18158563.4019,18005901.7451,-103352.690,3.612,2.640,0.0,0.0,GPS,5,-24273578.1509,4101485.6730,10124505.8898,-460.511,4.839,3.900,0.0,0.0,GPS,21,4793858.4535,17880084.9986,19865111.3519,-99077.718,5.132,3.811,0.0,0.0,GPS,2,-19580315.9400,11849682.3440,-12709868.9366,-4064.164,9.451,18.829,0.0,0.0,GPS,24,-14787098.1613,21827706.7544,-1356618.5245,-16774.847,5.116,3.892,0.0,0.0,GPS,30,-9782883.5728,-12364350.1978,21381551.5888,5499.326,8.133,17.858,0.0,0.0,GPS,13,-13936256.9119,5816818.3342,21738670.6190,-26475.600,3.978,3.046,0.0,0.0*d29d4932
#BESTPOSA,COM1_1,0,70.5,FINESTEERING,2020,376080.000,00000000,7145,12778;SOL_COMPUTED,SINGLE,36.76913186158,126.93477814261,98.2163,23.3000,WGS84,0.8312,0.7978,1.5794,"",0.000,0.000,9,9,9,9,0,12,00,01*e0897de7
#BESTXYZA,COM1_1,0,70.5,FINESTEERING,2020,376080.000,00000000,bde7,12778;SOL_COMPUTED,SINGLE,-3073913.0173,4088896.2834,3796973.2872,1.0405,1.2458,1.0897,SOL_COMPUTED,SINGLE,0.0000,0.0000,0.0000,0.0011,0.0011,0.0011,"",0.150,0.000,0.000,9,9,9,9,0,12,00,01*b373e148
#RANGEA,COM1_1,0,68.5,FINESTEERING,2020,376081.000,00000000,5103,12778;9,29,0,24534495.579,0.066,-128929512.071603,0.067,-2835.798,44.8,248.310,08009c04,20,0,23835508.178,0.065,-125256432.808839,0.036,3116.533,44.9,324.780,18009c24,15,0,20325652.046,0.031,-106812009.777215,0.033,377.116,51.4,331.050,08009c64,5,0,22124701.153,0.037,-116266073.506032,0.033,-2131.882,49.8,345.240,18009c84,21,0,22688196.944,0.044,-119227264.368259,0.036,1852.017,48.3,325.900,08009ca4,2,0,24604940.332,0.086,-129299698.327604,0.069,-3682.585,42.5,247.510,18009cc4,24,0,21889075.375,0.051,-115027718.228584,0.034,3174.853,46.9,249.340,08009ce4,30,0,24993855.345,0.115,-131343536.107374,0.093,-3093.032,40.0,249.210,08009d44,13,0,21071585.565,0.036,-110731916.621503,0.033,-1949.679,49.9,244.780,18009d64*3d913694
#SATXYZ2A,COM1_1,0,68.5,FINESTEERING,2020,376081.000,00000000,7513,12778;9,GPS,29,3850491.7343,25561491.4738,-6120306.9321,110448.743,10.077,13.291,0.0,0.0,GPS,20,13547169.2651,14008881.7178,17969797.3391,154827.847,8.591,8.594,0.0,0.0,GPS,15,-6090918.6338,18156546.0866,18007534.3041,-103352.690,3.612,2.640,0.0,0.0,GPS,5,-24274828.8793,4101046.9646,10121737.7876,-460.511,4.839,3.901,0.0,0.0,GPS,21,4792379.7222,17881923.9748,19863762.8016,-99077.714,5.131,3.811,0.0,0.0,GPS,2,-19579549.3905,11848119.0963,-12712416.1368,-4064.169,9.452,18.845,0.0,0.0,GPS,24,-14787492.7652,21827615.2997,-1353475.7610,-16774.848,5.115,3.892,0.0,0.0,GPS,30,-9781045.2048,-12366353.4989,21381216.6479,5499.325,8.133,17.870,0.0,0.0,GPS,13,-13936964.9038,5814125.6183,21738937.5340,-26475.600,3.978,3.046,0.0,0.0*2dc0a192
#BESTPOSA,COM1_1,0,68.5,FINESTEERING,2020,376081.000,00000000,7145,12778;SOL_COMPUTED,SINGLE,36.76913190644,126.93477810235,98.2263,23.3000,WGS84,0.8280,0.7949,1.5735,"",0.000,0.000,9,9,9,9,0,12,00,01*390c1447
#BESTXYZA,COM1_1,0,68.5,FINESTEERING,2020,376081.000,00000000,bde7,12778;SOL_COMPUTED,SINGLE,-3073913.0174,4088896.2895,3796973.2971,1.0368,1.2412,1.0853,SOL_COMPUTED,SINGLE,0.0000,0.0000,0.0000,0.0011,0.0011,0.0011,"",0.150,0.000,0.000,9,9,9,9,0,12,00,01*b2418d1a
#RANGEA,COM1_1,0,68.5,FINESTEERING,2020,376082.000,00000000,5103,12778;9,29,0,24535036.181,0.067,-128932352.977905,0.050,-2842.466,44.6,249.310,08009c04,20,0,23834916.053,0.066,-125253321.192100,0.091,3110.038,44.7,325.780,18009c24,15,0,20325581.212,0.031,-106811637.541519,0.036,370.247,51.3,332.050,08009c64,5,0,22125107.802,0.037,-116268210.447345,0.036,-2138.899,49.7,346.240,18009c84,21,0,22687845.480,0.045,-119225417.394878,0.036,1844.952,48.1,326.900,08009ca4,2,0,24605642.076,0.087,-129303385.927879,0.053,-3689.339,42.4,248.510,18009cc4,24,0,21888472.183,0.052,-115024548.463987,0.036,3167.629,46.8,250.340,08009ce4,30,0,24994444.929,0.118,-131346634.427562,0.074,-3100.625,39.7,250.210,08009d44,13,0,21071957.549,0.037,-110733871.408811,0.036,-1956.770,49.8,245.780,18009d64*355bae28
#SATXYZ2A,COM1_1,0,68.5,FINESTEERING,2020,376082.000,00000000,7513,12778;9,GPS,29,3850070.4196,25560814.9417,-6123409.2060,110448.741,10.078,13.298,0.0,0.0,GPS,20,13544849.2860,14008984.9849,17971443.5041,154827.847,8.589,8.592,0.0,0.0,GPS,15,-6092162.6389,18154528.6509,18009166.4679,-103352.691,3.612,2.640,0.0,0.0,GPS,5,-24276079.2876,4100608.3738,10118969.4714,-460.510,4.839,3.901,0.0,0.0,GPS,21,4790901.1892,17883762.9058,19862413.8557,-99077.710,5.131,3.811,0.0,0.0,GPS,2,-19578782.7380,11846555.5366,-12714963.0546,-4064.173,9.452,18.862,0.0,0.0,GPS,24,-14787887.1407,21827523.5456,-1350332.9681,-16774.848,5.114,3.891,0.0,0.0,GPS,30,-9779206.9731,-12368356.8710,21380881.2524,5499.323,8.133,17.882,0.0,0.0,GPS,13,-13937673.0631,5811432.9116,21739203.9817,-26475.601,3.978,3.047,0.0,0.0*cbcbbc05
#BESTPOSA,COM1_1,0,68.5,FINESTEERING,2020,376082.000,00000000,7145,12778;SOL_COMPUTED,SINGLE,36.76913211348,126.93477793342,98.2692,23.3000,WGS84,0.8501,0.8204,1.6028,"",0.000,0.000,9,9,9,9,0,02,00,01*8ce90785
#BESTXYZA,COM1_1,0,68.5,FINESTEERING,2020,376082.000,00000000,bde7,12778;SOL_COMPUTED,SINGLE,-3073913.0177,4088896.3151,3796973.3413,1.0666,1.2662,1.1063,SOL_COMPUTED,SINGLE,0.0005,0.0039,0.0101,0.2178,0.2164,0.2092,"",0.150,0.000,0.000,9,9,9,9,0,02,00,01*0586f67e
#RANGEA,COM1_1,0,70.5,FINESTEERING,2020,376083.000,00000000,5103,12778;9,29,0,24535577.145,0.065,-128935195.841501,0.041,-2844.151,44.9,250.310,08009c04,20,0,23834324.292,0.065,-125250211.512050,0.061,3108.546,44.9,326.780,18009c24,15,0,20325510.823,0.031,-106811267.634696,0.034,368.518,51.4,333.050,08009c64,5,0,22125514.858,0.037,-116270349.562889,0.034,-2140.572,49.8,347.240,18009c84,21,0,22687494.461,0.044,-119223572.784074,0.035,1843.302,48.3,327.900,08009ca4,2,0,24606344.191,0.086,-129307075.511245,0.043,-3691.109,42.4,249.510,18009cc4,24,0,21887869.424,0.051,-115021380.957237,0.035,3166.081,46.9,251.340,08009ce4,30,0,24995034.918,0.118,-131349734.851163,0.056,-3101.916,39.7,251.210,08009d44,13,0,21072329.954,0.036,-110735828.397254,0.034,-1958.474,49.9,246.780,18009d64*fa088713
#SATXYZ2A,COM1_1,0,70.5,FINESTEERING,2020,376083.000,00000000,7513,12778;9,GPS,29,3849648.9448,25560138.0633,-6126511.3496,110448.738,10.079,13.304,0.0,0.0,GPS,20,13542529.1042,14009088.3650,17973089.2846,154827.847,8.588,8.589,0.0,0.0,GPS,15,-6093406.8369,18152511.0949,18010798.2364,-103352.692,3.611,2.640,0.0,0.0,GPS,5,-24277329.3759,4100169.9005,10116200.9414,-460.510,4.839,3.901,0.0,0.0,GPS,21,4789422.8544,17885601.7915,19861064.5143,-99077.706,5.130,3.810,0.0,0.0,GPS,2,-19578015.9828,11844991.6649,-12717509.6899,-4064.178,9.453,18.878,0.0,0.0,GPS,24,-14788281.2878,21827431.4922,-1347190.1461,-16774.849,5.113,3.890,0.0,0.0,GPS,30,-9777368.8778,-12370360.3141,21380545.4023,5499.322,8.133,17.894,0.0,0.0,GPS,13,-13938381.3897,5808740.2142,21739469.9623,-26475.601,3.978,3.047,0.0,0.0*8020f4f2
#BESTPOSA,COM1_1,0,70.5,FINESTEERING,2020,376083.000,00000000,7145,12778;SOL_COMPUTED,SINGLE,36.76913211272,126.93477793395,98.2682,23.3000,WGS84,0.8407,0.8110,1.5820,"",0.000,0.000,9,9,9,9,0,12,00,01*0656b598
#BESTXYZA,COM1_1,0,70.5,FINESTEERING,2020,376083.000,00000000,bde7,12778;SOL_COMPUTED,SINGLE,-3073913.0173,4088896.3144,3796973.3406,1.0524,1.2506,1.0934,SOL_COMPUTED,SINGLE,0.0000,0.0000,0.0000,0.0011,0.0011,0.0011,"",0.150,0.000,0.000,9,9,9,9,0,12,00,01*0d4798d9
#RANGEA,COM1_1,0,70.5,FINESTEERING,2020,376084.000,00000000,5103,12778;9,29,0,24536118.585,0.065,-128938041.135757,0.036,-2843.066,44.9,251.310,08009c04,20,0,23833732.994,0.064,-125247104.235328,0.045,3109.832,44.9,327.780,18009c24,15,0,20325440.962,0.031,-106810900.533456,0.032,369.222,51.4,334.050,08009c64,5,0,22125922.425,0.037,-116272491.347745,0.032,-2139.581,49.9,348.240,18009c84,21,0,22687143.984,0.043,-119221730.999210,0.033,1843.814,48.4,328.900,08009ca4,2,0,24607046.776,0.084,-129310767.518144,0.037,-3689.694,42.6,250.510,18009cc4,24,0,21887267.189,0.051,-115018216.209070,0.032,3166.738,46.9,252.340,08009ce4,30,0,24995625.415,0.118,-131352837.954378,0.091,-3101.490,39.7,252.210,08009d44,13,0,21072702.864,0.036,-110737788.057287,0.032,-1957.623,50.0,247.780,18009d64*ecff2987
#SATXYZ2A,COM1_1,0,70.5,FINESTEERING,2020,376084.000,00000000,7513,12778;9,GPS,29,3849227.3099,25559460.8389,-6129613.3629,110448.736,10.080,13.310,0.0,0.0,GPS,20,13540208.7198,14009191.8583,17974734.6805,154827.847,8.586,8.586,0.0,0.0,GPS,15,-6094651.2278,18150493.4187,18012429.6098,-103352.693,3.611,2.640,0.0,0.0,GPS,5,-24278579.1442,4099731.5446,10113432.1975,-460.510,4.839,3.902,0.0,0.0,GPS,21,4787944.7180,17887440.6318,19859714.7775,-99077.702,5.130,3.810,0.0,0.0,GPS,2,-19577249.1248,11843427.4812,-12720056.0425,-4064.183,9.454,18.895,0.0,0.0,GPS,24,-14788675.2066,21827339.1395,-1344047.2948,-16774.850,5.112,3.890,0.0,0.0,GPS,30,-9775530.9188,-12372363.8281,21380209.0978,5499.320,8.133,17.906,0.0,0.0,GPS,13,-13939089.8837,5806047.5262,21739735.4756,-26475.601,3.978,3.047,0.0,0.0*8cec30c8
#BESTPOSA,COM1_1,0,70.5,FINESTEERING,2020,376084.000,00000000,7145,12778;SOL_COMPUTED,SINGLE,36.76913211272,126.93477793395,98.2682,23.3000,WGS84,0.8367,0.8072,1.5745,"",0.000,0.000,9,9,9,9,0,12,00,01*af79387a
#BESTXYZA,COM1_1,0,70.5,FINESTEERING,2020,376084.000,00000000,bde7,12778;SOL_COMPUTED,SINGLE,-3073913.0173,4088896.3144,3796973.3406,1.0474,1.2448,1.0882,SOL_COMPUTED,SINGLE,0.0000,0.0000,0.0000,0.0011,0.0011,0.0011,"",0.150,0.000,0.000,9,9,9,9,0,12,00,01*7b65a863
#RANGEA,COM1_1,0,71.0,FINESTEERING,2020,376085.000,00000000,5103,12778;9,29,0,24536659.268,0.064,-128940882.530776,0.096,-2841.578,45.0,252.310,08009c04,20,0,23833140.961,0.064,-125243993.049032,0.042,3110.692,45.0,328.780,18009c24,15,0,20325370.434,0.031,-106810529.895927,0.036,369.922,51.4,335.050,08009c64,5,0,22126329.298,0.037,-116274629.477624,0.036,-2138.534,49.9,349.240,18009c84,21,0,22686792.831,0.043,-119219885.723085,0.037,1844.487,48.4,329.900,08009ca4,2,0,24607748.621,0.086,-129314455.669658,0.040,-3688.170,42.4,251.510,18009cc4,24,0,21886664.268,0.051,-115015047.897092,0.099,3167.738,46.9,253.340,08009ce4,30,0,24996215.227,0.114,-131355937.420938,0.102,-3099.886,40.0,253.210,08009d44,13,0,21073075.081,0.036,-110739744.089651,0.036,-1956.405,50.0,248.780,18009d64*1acf419a
#SATXYZ2A,COM1_1,0,71.0,FINESTEERING,2020,376085.000,00000000,7513,12778;9,GPS,29,3848805.5147,25558783.2684,-6132715.2459,110448.734,10.081,13.316,0.0,0.0,GPS,20,13537888.1327,14009295.4648,17976379.6916,154827.847,8.585,8.583,0.0,0.0,GPS,15,-6095895.8118,18148475.6222,18014060.5879,-103352.693,3.611,2.640,0.0,0.0,GPS,5,-24279828.5923,4099293.3060,10110663.2398,-460.509,4.840,3.902,0.0,0.0,GPS,21,4786466.7799,17889279.4267,19858364.6453,-99077.698,5.129,3.810,0.0,0.0,GPS,2,-19576482.1641,11841862.9855,-12722602.1125,-4064.188,9.455,18.911,0.0,0.0,GPS,24,-14789068.8971,21827246.4873,-1340904.4144,-16774.851,5.111,3.889,0.0,0.0,GPS,30,-9773693.0962,-12374367.4129,21379872.3387,5499.319,8.133,17.918,0.0,0.0,GPS,13,-13939798.5449,5803354.8477,21740000.5216,-26475.601,3.978,3.047,0.0,0.0*75cb992b
#BESTPOSA,COM1_1,0,71.0,FINESTEERING,2020,376085.000,00000000,7145,12778;SOL_COMPUTED,SINGLE,36.76913215635,126.93477789494,98.2775,23.3000,WGS84,0.8317,0.8026,1.5655,"",0.000,0.000,9,9,9,9,0,12,00,01*0ef0ac38
#BESTXYZA,COM1_1,0,71.0,FINESTEERING,2020,376085.000,00000000,bde7,12778;SOL_COMPUTED,SINGLE,-3073913.0173,4088896.3201,3796973.3500,1.0415,1.2376,1.0816,SOL_COMPUTED,SINGLE,0.0000,0.0000,0.0000,0.0011,0.0011,0.0011,"",0.150,0.000,0.000,9,9,9,9,0,12,00,01*9ea3fc66
#RANGEA,COM1_1,0,71.0,FINESTEERING,2020,376086.000,00000000,5103,12778;9,29,0,24537199.532,0.064,-128943721.639741,0.065,-2837.373,45.0,253.310,08009c04,20,0,23832548.483,0.064,-125240879.549520,0.039,3115.461,44.9,329.780,18009c24,15,0,20325299.545,0.031,-106810157.368902,0.037,374.020,51.4,336.050,08009c64,5,0,22126735.785,0.037,-116276765.568765,0.037,-2134.730,49.9,350.240,18009c84,21,0,22686441.324,0.044,-119218038.560884,0.038,1848.534,48.4,330.900,08009ca4,2,0,24608450.032,0.085,-129318141.572345,0.039,-3684.252,42.6,252.510,18009cc4,24,0,21886060.988,0.051,-115011877.638305,0.067,3171.567,47.0,254.340,08009ce4,30,0,24996804.644,0.118,-131359034.787866,0.068,-3095.731,39.7,254.210,08009d44,13,0,21073446.912,0.036,-110741698.092578,0.037,-1952.795,50.0,249.780,18009d64*452edb19
#SATXYZ2A,COM1_1,0,71.0,FINESTEERING,2020,376086.000,00000000,7513,12778;9,GPS,29,3848383.5594,25558105.3518,-6135816.9985,110448.732,10.082,13.322,0.0,0.0,GPS,20,13535567.3431,14009399.1844,17978024.3181,154827.847,8.583,8.580,0.0,0.0,GPS,15,-6097140.5887,18146457.7056,18015691.1706,-103352.694,3.611,2.640,0.0,0.0,GPS,5,-24281077.7204,4098855.1849,10107894.0683,-460.509,4.840,3.903,0.0,0.0,GPS,21,4784989.0402,17891118.1761,19857014.1177,-99077.694,5.128,3.809,0.0,0.0,GPS,2,-19575715.1007,11840298.1779,-12725147.8999,-4064.192,9.456,18.928,0.0,0.0,GPS,24,-14789462.3594,21827153.5356,-1337761.5049,-16774.852,5.110,3.888,0.0,0.0,GPS,30,-9771855.4100,-12376371.0686,21379535.1250,5499.317,8.133,17.930,0.0,0.0,GPS,13,-13940507.3734,5800662.1786,21740265.1004,-26475.601,3.979,3.048,0.0,0.0*102ed14e
#BESTPOSA,COM1_1,0,71.0,FINESTEERING,2020,376086.000,00000000,7145,12778;SOL_COMPUTED,SINGLE,36.76913215635,126.93477789494,98.2775,23.3000,WGS84,0.8309,0.8018,1.5640,"",0.000,0.000,9,9,9,9,0,12,00,01*c2d2778c
#BESTXYZA,COM1_1,0,71.0,FINESTEERING,2020,376086.000,00000000,bde7,12778;SOL_COMPUTED,SINGLE,-3073913.0173,4088896.3201,3796973.3500,1.0406,1.2365,1.0806,SOL_COMPUTED,SINGLE,0.0000,0.0000,0.0000,0.0011,0.0011,0.0011,"",0.150,0.000,0.000,9,9,9,9,0,12,00,01*a450414f
#RANGEA,COM1_1,0,71.0,FINESTEERING,2020,376087.000,00000000,5103,12778;9,29,0,24537739.189,0.063,-128946557.562913,0.104,-2839.610,45.1,254.310,08009c04,20,0,23831955.391,0.064,-125237762.833869,0.096,3113.571,45.0,330.780,18009c24,15,0,20325228.122,0.031,-106809782.016872,0.043,371.941,51.4,337.050,08009c64,5,0,22127141.704,0.037,-116278898.691114,0.043,-2136.686,49.9,351.240,18009c84,21,0,22686089.282,0.044,-119216188.598672,0.043,1846.380,48.3,331.900,08009ca4,2,0,24609150.847,0.086,-129321824.317697,0.043,-3686.303,42.4,253.510,18009cc4,24,0,21885457.173,0.052,-115008704.548845,0.094,3169.309,46.9,255.340,08009ce4,30,0,24997393.513,0.111,-131362129.272182,0.100,-3098.737,40.3,255.210,08009d44,13,0,21073818.180,0.036,-110743649.144277,0.099,-1954.693,50.0,250.780,18009d64*62f2e822
#SATXYZ2A,COM1_1,0,71.0,FINESTEERING,2020,376087.000,00000000,7513,12778;9,GPS,29,3847961.4438,25557427.0892,-6138918.6205,110448.729,10.082,13.328,0.0,0.0,GPS,20,13533246.3509,14009503.0174,17979668.5598,154827.847,8.582,8.577,0.0,0.0,GPS,15,-6098385.5586,18144439.6689,18017321.3581,-103352.695,3.610,2.640,0.0,0.0,GPS,5,-24282326.5282,4098417.1810,10105124.6832,-460.509,4.840,3.903,0.0,0.0,GPS,21,4783511.4987,17892956.8800,19855663.1946,-99077.690,5.128,3.809,0.0,0.0,GPS,2,-19574947.9349,11838733.0582,-12727693.4044,-4064.197,9.456,18.944,0.0,0.0,GPS,24,-14789855.5935,21827060.2845,-1334618.5665,-16774.852,5.109,3.888,0.0,0.0,GPS,30,-9770017.8603,-12378374.7950,21379197.4569,5499.315,8.133,17.942,0.0,0.0,GPS,13,-13941216.3692,5797969.5192,21740529.2119,-26475.601,3.979,3.048,0.0,0.0*dcca57d7
#BESTPOSA,COM1_1,0,71.0,FINESTEERING,2020,376087.000,00000000,7145,12778;SOL_COMPUTED,SINGLE,36.76913219927,126.93477785579,98.2868,23.3000,WGS84,0.8273,0.7986,1.5576,"",0.000,0.000,9,9,9,9,0,12,00,01*56b6c110
#BESTXYZA,COM1_1,0,71.0,FINESTEERING,2020,376087.000,00000000,bde7,12778;SOL_COMPUTED,SINGLE,-3073913.0172,4088896.3259,3796973.3594,1.0365,1.2315,1.0759,SOL_COMPUTED,SINGLE,0.0000,0.0000,0.0000,0.0011,0.0011,0.0011,"",0.150,0.000,0.000,9,9,9,9,0,12,00,01*64f7c112
#RANGEA,COM1_1,0,71.0,FINESTEERING,2020,376088.000,00000000,5103,12778;9,29,0,24538279.267,0.063,-128949395.688173,0.074,-2845.205,45.1,255.310,08009c04,20,0,23831362.731,0.064,-125234648.385118,0.070,3107.366,45.0,331.780,18009c24,15,0,20325157.196,0.031,-106809409.270143,0.047,365.479,51.4,338.050,08009c64,5,0,22127548.103,0.037,-116281034.295883,0.047,-2143.042,49.8,352.240,18009c84,21,0,22685737.746,0.044,-119214341.282592,0.047,1840.054,48.3,332.900,08009ca4,2,0,24609852.082,0.083,-129325509.311098,0.089,-3692.170,42.8,254.510,18009cc4,24,0,21884853.838,0.052,-115005534.012460,0.069,3163.357,46.8,256.340,08009ce4,30,0,24997982.830,0.116,-131365226.190605,0.101,-3104.224,39.9,256.210,08009d44,13,0,21074189.926,0.036,-110745602.705654,0.071,-1961.015,50.0,251.780,18009d64*bb6e3cad
#SATXYZ2A,COM1_1,0,71.0,FINESTEERING,2020,376088.000,00000000,7513,12778;9,GPS,29,3847539.1679,25556748.4805,-6142020.1120,110448.727,10.083,13.334,0.0,0.0,GPS,20,13530925.1563,14009606.9635,17981312.4168,154827.847,8.580,8.574,0.0,0.0,GPS,15,-6099630.7214,18142421.5122,18018951.1502,-103352.695,3.610,2.640,0.0,0.0,GPS,5,-24283575.0158,4097979.2945,10102355.0845,-460.508,4.840,3.904,0.0,0.0,GPS,21,4782034.1557,17894795.5383,19854311.8763,-99077.686,5.127,3.809,0.0,0.0,GPS,2,-19574180.6664,11837167.6266,-12730238.6261,-4064.202,9.457,18.961,0.0,0.0,GPS,24,-14790248.5993,21826966.7339,-1331475.5991,-16774.853,5.108,3.887,0.0,0.0,GPS,30,-9768180.4472,-12380378.5921,21378859.3342,5499.314,8.133,17.954,0.0,0.0,GPS,13,-13941925.5322,5795276.8694,21740792.8561,-26475.601,3.979,3.048,0.0,0.0*fb19a87d
#BESTPOSA,COM1_1,0,71.0,FINESTEERING,2020,376088.000,00000000,7145,12778;SOL_COMPUTED,SINGLE,36.76913219927,126.93477785579,98.2868,23.3000,WGS84,0.8272,0.7984,1.5574,"",0.000,0.000,9,9,9,9,0,12,00,01*6360801f
#BESTXYZA,COM1_1,0,71.0,FINESTEERING,2020,376088.000,00000000,bde7,12778;SOL_COMPUTED,SINGLE,-3073913.0172,4088896.3259,3796973.3594,1.0363,1.2313,1.0757,SOL_COMPUTED,SINGLE,0.0000,0.0000,0.0000,0.0011,0.0011,0.0011,"",0.150,0.000,0.000,9,9,9,9,0,12,00,01*711d8cf2
#RANGEA,COM1_1,0,71.0,FINESTEERING,2020,376089.000,00000000,5103,12778;9,29,0,24538819.539,0.062,-128952234.793340,0.079,-2841.244,45.4,256.310,08009c04,20,0,23830770.241,0.064,-125231534.806245,0.071,3111.570,45.0,332.780,18009c24,15,0,20325086.514,0.030,-106809037.832370,0.045,369.409,51.5,339.050,08009c64,5,0,22127954.723,0.037,-116283171.077306,0.071,-2138.950,49.8,353.240,18009c84,21,0,22685386.469,0.043,-119212495.293994,0.046,1844.010,48.4,333.900,08009ca4,2,0,24610553.488,0.084,-129329195.246042,0.100,-3688.031,42.7,255.510,18009cc4,24,0,21884250.741,0.052,-115002364.759929,0.082,3167.072,46.9,257.340,08009ce4,30,0,24998572.366,0.111,-131368324.222421,0.087,-3100.457,40.3,257.210,08009d44,13,0,21074561.899,0.036,-110747557.439510,0.055,-1956.963,50.1,252.780,18009d64*8602f444
#SATXYZ2A,COM1_1,0,71.0,FINESTEERING,2020,376089.000,00000000,7513,12778;9,GPS,29,3847116.7316,25556069.5260,-6145121.4728,110448.725,10.084,13.341,0.0,0.0,GPS,20,13528603.7593,14009711.0230,17982955.8889,154827.847,8.579,8.572,0.0,0.0,GPS,15,-6100876.0771,18140403.2356,18020580.5468,-103352.696,3.610,2.640,0.0,0.0,GPS,5,-24284823.1832,4097541.5252,10099585.2722,-460.508,4.840,3.904,0.0,0.0,GPS,21,4780557.0110,17896634.1510,19852960.1626,-99077.682,5.127,3.808,0.0,0.0,GPS,2,-19573413.2956,11835601.8831,-12732783.5650,-4064.206,9.458,18.977,0.0,0.0,GPS,24,-14790641.3771,21826872.8837,-1328332.6029,-16774.854,5.107,3.886,0.0,0.0,GPS,30,-9766343.1706,-12382382.4598,21378520.7570,5499.312,8.133,17.966,0.0,0.0,GPS,13,-13942634.8624,5792584.2293,21741056.0331,-26475.601,3.979,3.049,0.0,0.0*177c6ce3
#BESTPOSA,COM1_1,0,71.0,FINESTEERING,2020,376089.000,00000000,7145,12778;SOL_COMPUTED,SINGLE,36.76913219927,126.93477785579,98.2868,23.3000,WGS84,0.8271,0.7984,1.5572,"",0.000,0.000,9,9,9,9,0,12,00,01*59d828d7
#BESTXYZA,COM1_1,0,71.0,FINESTEERING,2020,376089.000,00000000,bde7,12778;SOL_COMPUTED,SINGLE,-3073913.0172,4088896.3259,3796973.3594,1.0362,1.2312,1.0756,SOL_COMPUTED,SINGLE,0.0000,6.9897e-10,0.0000,0.0011,0.0011,0.0011,"",0.150,0.000,0.000,9,9,9,9,0,12,00,01*302d388a
#RANGEA,COM1_1,0,71.0,FINESTEERING,2020,376090.000,00000000,5103,12778;9,29,0,24539360.909,0.061,-128955079.698551,0.057,-2847.584,45.4,257.310,08009c04,20,0,23830178.856,0.065,-125228427.045043,0.053,3105.055,44.9,333.780,18009c24,15,0,20325017.014,0.031,-106808672.589530,0.068,362.377,51.4,340.050,08009c64,5,0,22128362.486,0.037,-116285313.910272,0.053,-2145.663,49.8,354.240,18009c84,21,0,22685036.382,0.043,-119210655.537509,0.087,1836.939,48.4,334.900,08009ca4,2,0,24611256.009,0.083,-129332887.041732,0.075,-3694.562,42.8,256.510,18009cc4,24,0,21883648.816,0.052,-114999201.650360,0.069,3160.366,46.9,258.340,08009ce4,30,0,24999163.063,0.114,-131371428.380412,0.094,-3107.017,40.0,258.210,08009d44,13,0,21074935.026,0.036,-110749518.256523,0.071,-1963.511,50.1,253.780,18009d64*9b88ab60
