#RANGEA,USB2_1,0,64.0,FINESTEERING,1996,45606.000,00000000,5103,12778;7,3,0,21224099.076,0.035,-111533319.876590,0.025,-1400.586,50.2,204.240,18009c44,19,0,21731712.231,1.271,-114200887.354707,0.055,2291.097,34.4,5.280,08009464,6,0,22239178.526,0.555,-116867667.537243,0.026,2066.921,44.0,9.180,18009c84,22,0,23070619.904,0.080,-121236934.111648,0.025,-2601.042,48.1,41.400,08009ca4,1,0,23112484.402,0.097,-121456919.691757,0.025,-2816.864,46.7,39.952,18009cc4,23,0,24563328.569,0.148,-129081158.540950,0.027,2197.350,44.2,29.830,08009ce4,11,0,23479519.117,0.135,-123385705.072935,0.026,-2854.163,43.6,42.058,18009d44*bf774422
#SATXYZ2A,USB2_1,0,64.0,FINESTEERING,1996,45606.000,00000000,7513,12778;6,GPS,3,-18349380.7700,4892247.2138,18530119.7066,13867.141,1.838,3.096,0.0,0.0,GPS,19,3050308.8260,14917056.9282,21452827.6784,-133453.814,2.114,3.615,0.0,0.0,GPS,6,4733161.2121,23968148.1170,10424511.5700,122837.171,2.393,4.212,0.0,0.0,GPS,22,-16098334.9292,-3656323.5281,21053502.5803,-105172.924,2.620,4.779,0.0,0.0,GPS,1,-17572565.5695,-5211004.0911,19189915.1465,-11797.623,2.849,5.455,0.0,0.0,GPS,11,-22548714.6874,-5388258.4253,12274541.5143,-221103.586,3.178,6.686,0.0,0.0*f34813a0
#BESTPOSA,USB2_1,0,64.0,FINESTEERING,1996,45606.000,00000000,7145,12778;SOL_COMPUTED,SINGLE,36.76930796382,126.93476949142,81.6290,23.3000,WGS84,4.7858,2.0589,5.7033,"",0.000,0.000,7,6,6,6,0,02,00,01*149e5506
#RANGEA,USB2_1,0,61.5,FINESTEERING,1996,45607.000,00000000,5103,12778;8,17,0,21218766.460,12.247,-111505368.652217,0.095,1556.471,35.7,0.380,08009424,3,0,21224366.027,0.035,-111534722.682876,0.026,-1405.016,50.3,205.240,18009c44,19,0,21731275.132,1.570,-114198597.947073,0.125,2286.412,32.0,6.280,18009c64,6,0,22238785.745,0.514,-116865603.162122,0.027,2061.391,43.5,10.180,18009c84,22,0,23071115.274,0.075,-121239537.226669,0.026,-2605.237,48.6,42.400,08009ca4,1,0,23113020.905,0.088,-121459738.622566,0.026,-2820.977,47.4,40.952,18009cc4,23,0,24562910.774,0.146,-129078963.065446,0.028,2193.607,44.2,30.830,08009ce4,11,0,23480062.561,0.129,-123388560.996215,0.028,-2857.711,43.9,43.058,18009d44*b7b9a259
#SATXYZ2A,USB2_1,0,61.5,FINESTEERING,1996,45607.000,00000000,7513,12778;7,GPS,17,-4311581.0525,14497893.5584,22208222.3971,-32605.022,1.687,2.825,0.0,0.0,GPS,3,-18348256.3826,4890168.4254,18531785.4074,13867.143,1.838,3.098,0.0,0.0,GPS,19,3047536.5267,14916743.4456,21453450.2142,-133453.814,2.114,3.616,0.0,0.0,GPS,6,4732342.3089,23967091.3897,10427324.2984,122837.170,2.393,4.213,0.0,0.0,GPS,22,-16097124.9119,-3658661.4027,21054027.4722,-105172.927,2.621,4.782,0.0,0.0,GPS,1,-17573609.8641,-5213227.2256,19188395.2856,-11797.624,2.850,5.458,0.0,0.0,GPS,11,-22549784.4564,-5389595.0583,12272084.2148,-221103.587,3.179,6.690,0.0,0.0*043eac58
#BESTPOSA,USB2_1,0,61.5,FINESTEERING,1996,45607.000,00000000,7145,12778;SOL_COMPUTED,SINGLE,36.76930265780,126.93477229205,81.6253,23.3000,WGS84,4.6334,1.9764,5.5749,"",0.000,0.000,8,7,7,7,0,02,00,01*6833771a
#RANGEA,USB2_1,0,61.5,FINESTEERING,1996,45608.000,00000000,5103,12778;8,17,0,21218470.334,1.599,-111503811.840059,0.134,1554.652,36.8,1.380,08009424,3,0,21224633.575,0.035,-111536128.726749,0.026,-1407.893,50.2,206.240,18009c44,19,0,21730840.553,1.095,-114196311.857269,0.092,2284.619,36.4,7.280,18009c64,6,0,22238393.478,0.452,-116863541.470588,0.027,2060.114,44.4,11.180,18009c84,22,0,23071611.253,0.072,-121242143.380661,0.027,-2608.115,48.9,43.400,08009ca4,1,0,23113557.831,0.096,-121462560.255575,0.027,-2823.455,46.6,41.952,18009cc4,23,0,24562493.464,0.148,-129076770.137241,0.027,2191.472,44.0,31.830,08009ce4,11,0,23480606.525,0.097,-123391419.656580,0.027,-2860.468,46.2,44.058,18009d44*359f65f6
#SATXYZ2A,USB2_1,0,61.5,FINESTEERING,1996,45608.000,00000000,7513,12778;7,GPS,17,-4314291.1311,14497635.9123,22207845.9120,-32605.020,1.687,2.825,0.0,0.0,GPS,3,-18347132.0045,4888089.3946,18533450.7127,13867.146,1.838,3.098,0.0,0.0,GPS,19,3044764.1312,14916430.1202,21454072.2802,-133453.814,2.114,3.617,0.0,0.0,GPS,6,4731523.1761,23966034.3994,10430136.8051,122837.170,2.393,4.213,0.0,0.0,GPS,22,-16095914.9861,-3660999.3970,21054551.9258,-105172.930,2.621,4.783,0.0,0.0,GPS,1,-17574654.2015,-5215450.1243,19186875.0154,-11797.625,2.850,5.459,0.0,0.0,GPS,11,-22550854.0424,-5390931.4449,12269626.6442,-221103.588,3.179,6.692,0.0,0.0*de6b533a
#BESTPOSA,USB2_1,0,61.5,FINESTEERING,1996,45608.000,00000000,7145,12778;SOL_COMPUTED,SINGLE,36.76929591070,126.93477569203,81.4493,23.3000,WGS84,4.4911,1.9041,5.4376,"",0.000,0.000,8,7,7,7,0,02,00,01*609b2080
#RANGEA,USB2_1,0,64.0,FINESTEERING,1996,45609.000,00000000,5103,12778;8,17,0,21218171.957,1.222,-111502259.327919,0.085,1549.603,39.8,2.380,08009424,3,0,21224901.979,0.037,-111537539.251779,0.029,-1413.253,49.9,207.240,18009c44,19,0,21730406.258,0.896,-114194029.640005,0.061,2279.721,39.8,8.280,18009c64,6,0,22238001.717,0.401,-116861483.585126,0.029,2054.565,44.7,12.180,18009c84,22,0,23072108.026,0.079,-121244753.804014,0.029,-2613.061,47.9,44.400,08009ca4,1,0,23114095.571,0.105,-121465385.884010,0.028,-2828.148,45.7,42.952,18009cc4,23,0,24562076.901,0.162,-129074581.341997,0.030,2186.189,43.0,32.830,08009ce4,11,0,23481151.279,0.105,-123394282.393999,0.030,-2865.292,45.5,45.058,18009d44*904f008d
#SATXYZ2A,USB2_1,0,64.0,FINESTEERING,1996,45609.000,00000000,7513,12778;7,GPS,17,-4317001.1816,14497378.4407,22207468.9707,-32605.018,1.687,2.824,0.0,0.0,GPS,3,-18346007.6358,4886010.1216,18535115.6225,13867.148,1.838,3.098,0.0,0.0,GPS,19,3041991.6395,14916116.9520,21454693.8766,-133453.815,2.114,3.616,0.0,0.0,GPS,6,4730703.8137,23964977.1464,10432949.0898,122837.170,2.392,4.212,0.0,0.0,GPS,22,-16094705.1519,-3663337.5111,21055075.9412,-105172.933,2.621,4.783,0.0,0.0,GPS,1,-17575698.5818,-5217672.7872,19185354.3359,-11797.626,2.850,5.460,0.0,0.0,GPS,11,-22551923.4453,-5392267.5852,12267168.8026,-221103.589,3.179,6.693,0.0,0.0*a199feee
#BESTPOSA,USB2_1,0,64.0,FINESTEERING,1996,45609.000,00000000,7145,12778;SOL_COMPUTED,SINGLE,36.76928987283,126.93477792509,81.4665,23.3000,WGS84,4.3892,1.8612,5.3438,"",0.000,0.000,8,7,7,7,0,02,00,01*fe289dce
#RANGEA,USB2_1,0,61.5,FINESTEERING,1996,45610.000,00000000,5103,12778;8,17,0,21217880.471,2.301,-111500712.769638,0.106,1550.759,31.0,0.270,08009424,3,0,21225170.484,0.035,-111538950.292196,0.024,-1410.143,50.2,208.240,18009c44,19,0,21729972.502,1.099,-114191747.733907,0.089,2283.161,34.2,9.280,18009c64,6,0,22237610.161,0.385,-116859426.570570,0.025,2057.351,43.0,13.180,18009c84,22,0,23072604.845,0.068,-121247364.438829,0.026,-2610.130,49.2,45.400,08009ca4,1,0,23114633.309,0.083,-121468211.446916,0.025,-2824.981,47.6,43.952,18009cc4,23,0,24561660.457,0.128,-129072393.134418,0.022,2188.914,44.9,33.830,08009ce4,11,0,23481696.068,0.109,-123397145.315677,0.025,-2862.028,45.0,46.058,18009d44*a6a25132
#SATXYZ2A,USB2_1,0,61.5,FINESTEERING,1996,45610.000,00000000,7513,12778;7,GPS,17,-4319711.2038,14497121.1437,22207091.5730,-32605.016,1.687,2.824,0.0,0.0,GPS,3,-18344883.2764,4883930.6063,18536780.1367,13867.150,1.838,3.098,0.0,0.0,GPS,19,3039219.0518,14915803.9409,21455315.0032,-133453.815,2.114,3.617,0.0,0.0,GPS,6,4729884.2215,23963919.6305,10435761.1526,122837.169,2.392,4.212,0.0,0.0,GPS,22,-16093495.4094,-3665675.7448,21055599.5183,-105172.936,2.622,4.784,0.0,0.0,GPS,1,-17576743.0048,-5219895.2142,19183833.2472,-11797.626,2.851,5.461,0.0,0.0,GPS,11,-22552992.6649,-5393603.4791,12264710.6902,-221103.591,3.180,6.695,0.0,0.0*7523a18b
#BESTPOSA,USB2_1,0,61.5,FINESTEERING,1996,45610.000,00000000,7145,12778;SOL_COMPUTED,SINGLE,36.76928522173,126.93478040861,81.4983,23.3000,WGS84,4.2874,1.8173,5.2816,"",0.000,0.000,8,7,7,7,0,02,00,01*1a8b29b9
#RANGEA,USB2_1,0,61.0,FINESTEERING,1996,45611.000,00000000,5103,12778;8,28,0,21026817.121,12.247,-110496721.259203,0.058,-1872.051,35.9,0.930,08009404,3,0,21225439.242,0.035,-111540362.697834,0.026,-1415.421,50.3,209.240,18009c44,19,0,21729539.286,2.627,-114189468.331907,0.155,2273.314,32.5,10.280,18009c64,6,0,22237219.235,0.307,-116857372.186649,0.027,2053.413,45.1,14.180,18009c84,22,0,23073101.823,0.075,-121249976.057973,0.027,-2614.488,48.3,46.400,08009ca4,1,0,23115171.091,0.078,-121471037.536569,0.028,-2828.772,48.0,44.952,18009cc4,23,0,24561244.119,0.133,-129070205.294693,0.028,2186.545,44.5,34.830,08009ce4,11,0,23482240.919,0.101,-123400008.517311,0.027,-2865.278,45.6,47.058,18009d44*33090a02
#SATXYZ2A,USB2_1,0,61.0,FINESTEERING,1996,45611.000,00000000,7513,12778;7,GPS,28,-13339483.8025,22668817.0835,4472222.1562,211189.158,1.780,2.993,0.0,0.0,GPS,3,-18343758.9264,4881850.8489,18538444.2554,13867.153,1.838,3.097,0.0,0.0,GPS,19,3036446.3680,14915491.0870,21455935.6601,-133453.815,2.114,3.615,0.0,0.0,GPS,6,4729064.3997,23962861.8520,10438572.9934,122837.169,2.392,4.209,0.0,0.0,GPS,22,-16092285.7585,-3668014.0982,21056122.6572,-105172.940,2.622,4.783,0.0,0.0,GPS,1,-17577787.4705,-5222117.4053,19182311.7492,-11797.627,2.851,5.460,0.0,0.0,GPS,11,-22554061.7013,-5394939.1267,12262252.3069,-221103.592,3.180,6.693,0.0,0.0*88afad6f
#BESTPOSA,USB2_1,0,61.0,FINESTEERING,1996,45611.000,00000000,7145,12778;SOL_COMPUTED,SINGLE,36.76928355806,126.93478366250,81.4886,23.3000,WGS84,4.2131,1.7937,5.2194,"",0.000,0.000,8,7,7,7,0,02,00,01*7b241f7e
#RANGEA,USB2_1,0,61.0,FINESTEERING,1996,45612.000,00000000,5103,12778;7,3,0,21225708.527,0.035,-111541777.855676,0.028,-1413.945,50.1,210.240,18009c44,19,0,21729104.930,1.042,-114187190.296648,0.093,2279.580,34.0,11.280,18009c64,6,0,22236828.646,0.296,-116855318.580118,0.029,2053.563,43.4,15.180,18009c84,22,0,23073599.184,0.081,-121252590.259567,0.028,-2612.545,47.4,47.400,08009ca4,1,0,23115709.332,0.079,-121473865.959783,0.027,-2826.950,47.8,45.952,18009cc4,23,0,24560828.209,0.120,-129068019.618728,0.028,2186.115,45.3,35.830,08009ce4,11,0,23482786.214,0.095,-123402874.263177,0.028,-2864.673,46.0,48.058,18009d44*48a456c1
#SATXYZ2A,USB2_1,0,61.0,FINESTEERING,1996,45612.000,00000000,7513,12778;6,GPS,3,-18342634.5860,4879770.8492,18540107.9784,13867.155,1.839,3.099,0.0,0.0,GPS,19,3033673.5883,14915178.3903,21456555.8472,-133453.815,2.114,3.617,0.0,0.0,GPS,6,4728244.3482,23961803.8107,10441384.6121,122837.168,2.392,4.211,0.0,0.0,GPS,22,-16091076.1994,-3670352.5711,21056645.3578,-105172.943,2.622,4.786,0.0,0.0,GPS,1,-17578831.9790,-5224339.3605,19180789.8421,-11797.628,2.851,5.464,0.0,0.0,GPS,11,-22555130.5544,-5396274.5280,12259793.6527,-221103.593,3.180,6.698,0.0,0.0*91a54742
#BESTPOSA,USB2_1,0,61.0,FINESTEERING,1996,45612.000,00000000,7145,12778;SOL_COMPUTED,SINGLE,36.76927933920,126.93478624419,81.4102,23.3000,WGS84,4.1776,1.7832,5.2025,"",0.000,0.000,7,6,6,6,0,02,00,01*32e7e799
#RANGEA,USB2_1,0,63.0,FINESTEERING,1996,45613.000,00000000,5103,12778;7,17,0,21216991.172,12.247,-111496035.590898,0.075,1546.915,47.0,0.720,08009424,3,0,21225977.919,0.033,-111543193.557849,0.026,-1416.443,50.7,211.240,18009c44,6,0,22236438.315,0.211,-116853266.673612,0.027,2050.508,46.3,16.180,18009c84,22,0,23074096.655,0.075,-121255204.485046,0.026,-2614.527,48.0,48.400,08009ca4,1,0,23116247.509,0.083,-121476694.191166,0.027,-2828.618,47.3,46.952,18009cc4,23,0,24560412.588,0.180,-129065835.161977,0.029,2184.424,41.6,36.830,08009ce4,11,0,23483331.578,0.088,-123405740.229248,0.026,-2866.518,46.6,49.058,18009d44*b38ec6c6
#SATXYZ2A,USB2_1,0,63.0,FINESTEERING,1996,45613.000,00000000,7513,12778;6,GPS,17,-4327841.1009,14496350.2995,22205956.6425,-32605.010,1.686,2.825,0.0,0.0,GPS,3,-18341510.2551,4877690.6074,18541771.3058,13867.157,1.839,3.099,0.0,0.0,GPS,6,4727424.0669,23960745.5069,10444196.0087,122837.168,2.392,4.211,0.0,0.0,GPS,22,-16089866.7320,-3672691.1636,21057167.6201,-105172.946,2.622,4.788,0.0,0.0,GPS,1,-17579876.5300,-5226561.0798,19179267.5259,-11797.629,2.852,5.465,0.0,0.0,GPS,11,-22556199.2242,-5397609.6829,12257334.7279,-221103.594,3.181,6.701,0.0,0.0*bcd3d5e7
#BESTPOSA,USB2_1,0,63.0,FINESTEERING,1996,45613.000,00000000,7145,12778;SOL_COMPUTED,SINGLE,36.76928221556,126.93478771066,81.4185,23.3000,WGS84,4.2622,1.8365,5.1922,"",0.000,0.000,7,6,6,6,0,02,00,01*fa6bcf4d
#RANGEA,USB2_1,0,63.0,FINESTEERING,1996,45614.000,00000000,5103,12778;7,17,0,21216697.085,0.983,-111494487.364175,0.051,1548.825,45.4,1.720,08009c24,3,0,21226247.013,0.035,-111544607.710125,0.027,-1413.358,50.1,212.240,18009c44,6,0,22236048.043,0.206,-116851215.436245,0.029,2051.935,44.7,17.180,18009c84,22,0,23074593.675,0.073,-121257816.292617,0.027,-2610.687,48.1,49.400,08009ca4,1,0,23116785.179,0.094,-121479519.769537,0.027,-2824.623,46.1,47.952,18009cc4,23,0,24559996.621,0.154,-129063649.434476,0.029,2186.116,42.9,37.830,08009ce4,11,0,23483876.532,0.083,-123408603.892961,0.028,-2862.886,47.0,50.058,18009d44*87961b41
#SATXYZ2A,USB2_1,0,63.0,FINESTEERING,1996,45614.000,00000000,7513,12778;6,GPS,17,-4330551.0097,14496093.7005,22205577.4199,-32605.008,1.686,2.823,0.0,0.0,GPS,3,-18340385.9337,4875610.1235,18543434.2375,13867.160,1.839,3.099,0.0,0.0,GPS,6,4726603.5558,23959686.9405,10447007.1831,122837.167,2.391,4.209,0.0,0.0,GPS,22,-16088657.3564,-3675029.8756,21057689.4441,-105172.949,2.623,4.787,0.0,0.0,GPS,1,-17580921.1236,-5228782.5630,19177744.8006,-11797.630,2.852,5.465,0.0,0.0,GPS,11,-22557267.7106,-5398944.5915,12254875.5323,-221103.596,3.181,6.701,0.0,0.0*f0ad4277
#BESTPOSA,USB2_1,0,63.0,FINESTEERING,1996,45614.000,00000000,7145,12778;SOL_COMPUTED,SINGLE,36.76928754723,126.93479183983,81.3795,23.3000,WGS84,4.2541,1.8395,5.1066,"",0.000,0.000,7,6,6,6,0,02,00,01*66e62723
#RANGEA,USB2_1,0,62.0,FINESTEERING,1996,45615.000,00000000,5103,12778;7,17,0,21216401.962,0.911,-111492938.700441,0.039,1548.893,45.3,2.720,08009c24,3,0,21226515.972,0.037,-111546021.144056,0.027,-1413.096,49.8,213.240,18009c44,6,0,22235658.048,0.428,-116849165.110611,0.036,2051.100,37.2,18.180,18009c84,22,0,23075090.438,0.078,-121260426.927627,0.027,-2611.165,47.6,50.400,08009ca4,1,0,23117322.548,0.099,-121482343.535467,0.032,-2823.321,45.6,48.952,18009cc4,23,0,24559580.361,0.215,-129061462.003860,0.031,2189.254,39.9,38.830,08009ce4,11,0,23484421.097,0.106,-123411465.596346,0.029,-2860.965,44.8,51.058,18009d44*19fa9620
#SATXYZ2A,USB2_1,0,62.0,FINESTEERING,1996,45615.000,00000000,7513,12778;7,GPS,17,-4333260.8901,14495837.2760,22205197.7409,-32605.005,1.686,2.823,0.0,0.0,GPS,3,-18339261.6221,4873529.3976,18545096.7735,13867.162,1.839,3.099,0.0,0.0,GPS,6,4725782.8149,23958628.1115,10449818.1353,122837.167,2.391,4.208,0.0,0.0,GPS,22,-16087448.0727,-3677368.7070,21058210.8298,-105172.952,2.623,4.787,0.0,0.0,GPS,1,-17581965.7598,-5231003.8101,19176221.6662,-11797.631,2.852,5.466,0.0,0.0,GPS,23,-26745777.2364,356126.6320,-1269952.2178,-65386.912,3.705,9.801,0.0,0.0,GPS,11,-22558336.0135,-5400279.2538,12252416.0661,-221103.597,3.182,6.701,0.0,0.0*11702396
#BESTPOSA,USB2_1,0,62.0,FINESTEERING,1996,45615.000,00000000,7145,12778;SOL_COMPUTED,SINGLE,36.76930275187,126.93479634356,81.5754,23.3000,WGS84,3.8981,1.7914,5.0061,"",0.000,0.000,7,7,7,7,0,02,00,01*22f9ade3
#RANGEA,USB2_1,0,62.0,FINESTEERING,1996,45616.000,00000000,5103,12778;7,17,0,21216104.954,0.499,-111491389.433321,0.041,1549.716,42.9,3.720,08009c24,3,0,21226785.014,0.037,-111547435.014759,0.030,-1412.994,49.7,214.240,18009c44,19,0,21727377.294,1.341,-114178148.342947,0.084,2279.976,36.8,0.670,08009464,22,0,23075587.269,0.084,-121263037.798385,0.033,-2610.607,46.8,51.400,08009ca4,1,0,23117859.849,0.095,-121485167.253715,0.034,-2822.994,45.8,49.952,18009cc4,23,0,24559164.035,0.136,-129059273.858743,0.033,2189.460,43.7,39.830,08009ce4,11,0,23484965.619,0.111,-123414327.055658,0.033,-2860.426,44.3,52.058,18009d44*ccc8686d
#SATXYZ2A,USB2_1,0,62.0,FINESTEERING,1996,45616.000,00000000,7513,12778;7,GPS,17,-4335970.7418,14495581.0260,22204817.6058,-32605.003,1.686,2.823,0.0,0.0,GPS,3,-18338137.3201,4871448.4296,18546758.9137,13867.164,1.839,3.100,0.0,0.0,GPS,19,3022581.5118,14913929.1759,21459031.8980,-133453.816,2.111,3.612,0.0,0.0,GPS,22,-16086238.8808,-3679707.6578,21058731.7772,-105172.956,2.623,4.789,0.0,0.0,GPS,1,-17583010.4384,-5233224.8212,19174698.1228,-11797.631,2.853,5.468,0.0,0.0,GPS,23,-26745963.3008,355823.6609,-1266847.2029,-65386.911,3.705,9.803,0.0,0.0,GPS,11,-22559404.1330,-5401613.6697,12249956.3293,-221103.598,3.182,6.704,0.0,0.0*4655f3ea
#BESTPOSA,USB2_1,0,62.0,FINESTEERING,1996,45616.000,00000000,7145,12778;SOL_COMPUTED,SINGLE,36.76931497768,126.93480078785,81.7518,23.3000,WGS84,3.6383,1.8330,4.9312,"",0.000,0.000,7,7,7,7,0,02,00,01*d488acc2
#RANGEA,USB2_1,0,63.0,FINESTEERING,1996,45617.000,00000000,5103,12778;7,17,0,21215807.214,0.385,-111489834.484869,0.078,1557.196,44.0,4.720,08009c24,3,0,21227053.199,0.038,-111548844.356838,0.031,-1405.803,49.5,215.240,18009c44,19,0,21726936.796,1.698,-114175864.359645,0.106,2287.509,34.8,1.670,08009464,22,0,23076083.248,0.084,-121265644.197492,0.032,-2602.655,46.7,52.400,08009ca4,1,0,23118396.282,0.090,-121487986.282972,0.034,-2814.830,46.2,50.952,18009cc4,23,0,24558746.683,0.107,-129057080.783012,0.034,2195.584,45.7,40.830,08009ce4,11,0,23485509.251,0.109,-123417183.904237,0.079,-2853.453,44.4,53.058,18009d44*a324ee9c
#SATXYZ2A,USB2_1,0,63.0,FINESTEERING,1996,45617.000,00000000,7513,12778;7,GPS,17,-4338680.5649,14495324.9505,22204437.0144,-32605.001,1.686,2.823,0.0,0.0,GPS,3,-18337013.0279,4869367.2196,18548420.6581,13867.167,1.839,3.100,0.0,0.0,GPS,19,3019808.2534,14913617.2655,21459649.7362,-133453.816,2.111,3.610,0.0,0.0,GPS,22,-16085029.7808,-3682046.7279,21059252.2862,-105172.959,2.624,4.790,0.0,0.0,GPS,1,-17584055.1594,-5235445.5961,19173174.1703,-11797.632,2.853,5.469,0.0,0.0,GPS,23,-26746148.9964,355520.7113,-1263742.1618,-65386.910,3.705,9.802,0.0,0.0,GPS,11,-22560472.0689,-5402947.8394,12247496.3219,-221103.599,3.182,6.705,0.0,0.0*b2f2cb3d
#BESTPOSA,USB2_1,0,63.0,FINESTEERING,1996,45617.000,00000000,7145,12778;SOL_COMPUTED,SINGLE,36.76932085718,126.93480767290,82.3312,23.3000,WGS84,3.4575,1.9223,4.9246,"",0.000,0.000,7,7,7,7,0,02,00,01*509970d1
#RANGEA,USB2_1,0,60.0,FINESTEERING,1996,45618.000,00000000,5103,12778;7,17,0,21215510.777,0.285,-111488279.614439,0.054,1551.341,45.8,5.720,08009c24,3,0,21227321.361,0.038,-111550253.594339,0.029,-1412.326,49.6,216.240,18009c44,19,0,21726500.590,1.187,-114173580.743238,0.098,2280.776,36.3,2.670,08009464,22,0,23076579.151,0.084,-121268250.175502,0.031,-2609.229,46.6,53.400,08009ca4,1,0,23118932.579,0.095,-121490804.539644,0.033,-2821.078,45.7,51.952,18009cc4,23,0,24558329.276,0.118,-129054887.168218,0.036,2189.700,44.7,41.830,08009ce4,11,0,23486052.720,0.120,-123420040.001350,0.052,-2859.645,43.5,54.058,18009d44*3b1b4b40
#SATXYZ2A,USB2_1,0,60.0,FINESTEERING,1996,45618.000,00000000,7513,12778;7,GPS,17,-4341390.3593,14495069.0496,22204055.9668,-32604.999,1.686,2.815,0.0,0.0,GPS,3,-18335888.7455,4867285.7676,18550082.0067,13867.169,1.839,3.091,0.0,0.0,GPS,19,3017034.8995,14913305.5124,21460267.1046,-133453.816,2.110,3.600,0.0,0.0,GPS,22,-16083820.7727,-3684385.9173,21059772.3570,-105172.962,2.624,4.777,0.0,0.0,GPS,1,-17585099.9229,-5237666.1349,19171649.8089,-11797.633,2.853,5.455,0.0,0.0,GPS,23,-26746334.3232,355217.7833,-1260637.0944,-65386.909,3.705,9.775,0.0,0.0,GPS,11,-22561539.8212,-5404281.7628,12245036.0441,-221103.600,3.183,6.688,0.0,0.0*087dede5
#BESTPOSA,USB2_1,0,60.0,FINESTEERING,1996,45618.000,00000000,7145,12778;SOL_COMPUTED,SINGLE,36.76932639496,126.93481622350,82.9842,23.3000,WGS84,3.3147,1.9637,4.9026,"",0.000,0.000,7,7,7,7,0,02,00,01*69c8cd76
#RANGEA,USB2_1,0,60.0,FINESTEERING,1996,45619.000,00000000,5103,12778;7,28,0,21029661.455,1.448,-110511646.629797,0.078,-1879.692,36.3,1.030,08009c04,17,0,21215215.503,0.179,-111486729.817089,0.042,1544.902,49.1,6.720,08009c24,3,0,21227590.542,0.039,-111551668.191764,0.030,-1419.353,49.3,217.240,18009c44,22,0,23077075.985,0.081,-121270861.185461,0.033,-2616.339,46.9,54.400,08009ca4,1,0,23119469.782,0.092,-121493627.521444,0.034,-2828.153,45.9,52.952,18009cc4,23,0,24557912.729,0.109,-129052698.407409,0.033,2183.971,45.3,42.830,08009ce4,11,0,23486597.104,0.120,-123422900.829403,0.043,-2865.579,43.4,55.058,18009d44*7068d671
#SATXYZ2A,USB2_1,0,60.0,FINESTEERING,1996,45619.000,00000000,7513,12778;7,GPS,28,-13343010.3990,22671029.0756,4446918.2619,211189.170,1.786,2.997,0.0,0.0,GPS,17,-4344100.1249,14494813.3231,22203674.4629,-32604.997,1.686,2.817,0.0,0.0,GPS,3,-18334764.4729,4865204.0737,18551742.9594,13867.171,1.839,3.094,0.0,0.0,GPS,22,-16082611.8567,-3686725.2259,21060291.9893,-105172.965,2.624,4.782,0.0,0.0,GPS,1,-17586144.7286,-5239886.4374,19170125.0386,-11797.634,2.854,5.460,0.0,0.0,GPS,23,-26746519.2811,354914.8768,-1257532.0008,-65386.908,3.705,9.782,0.0,0.0,GPS,11,-22562607.3898,-5405615.4398,12242575.4959,-221103.602,3.183,6.695,0.0,0.0*10c37f62
#BESTPOSA,USB2_1,0,60.0,FINESTEERING,1996,45619.000,00000000,7145,12778;SOL_COMPUTED,SINGLE,36.76933698463,126.93482060761,82.8805,23.3000,WGS84,3.1357,2.0125,4.8252,"",0.000,0.000,7,7,7,7,0,02,00,01*aba591b8
#RANGEA,USB2_1,0,60.0,FINESTEERING,1996,45620.000,00000000,5103,12778;6,17,0,21214922.062,0.130,-111485188.045887,0.031,1539.149,51.3,7.720,08009c24,3,0,21227861.299,0.038,-111553091.080810,0.028,-1425.415,49.6,218.240,18009c44,22,0,23077574.375,0.080,-121273480.273222,0.033,-2621.388,46.9,55.400,08009ca4,1,0,23120008.451,0.087,-121496458.282674,0.030,-2833.217,46.3,53.952,18009cc4,23,0,24557497.700,0.116,-129050517.365419,0.033,2178.578,44.7,43.830,08009ce4,11,0,23487143.014,0.110,-123425769.578127,0.037,-2871.278,44.1,56.058,18009d44*a214cef5
#SATXYZ2A,USB2_1,0,60.0,FINESTEERING,1996,45620.000,00000000,7513,12778;6,GPS,17,-4346809.8615,14494557.7712,22203292.5029,-32604.995,1.686,2.817,0.0,0.0,GPS,3,-18333640.2103,4863122.1379,18553403.5162,13867.174,1.839,3.094,0.0,0.0,GPS,22,-16081403.0326,-3689064.6537,21060811.1833,-105172.968,2.625,4.783,0.0,0.0,GPS,1,-17587189.5766,-5242106.5037,19168599.8594,-11797.635,2.854,5.461,0.0,0.0,GPS,23,-26746703.8701,354611.9919,-1254426.8812,-65386.907,3.705,9.783,0.0,0.0,GPS,11,-22563674.7747,-5406948.8706,12240114.6773,-221103.603,3.183,6.697,0.0,0.0*7b132d64
#BESTPOSA,USB2_1,0,60.0,FINESTEERING,1996,45620.000,00000000,7145,12778;SOL_COMPUTED,SINGLE,36.76934328606,126.93482535059,83.0875,23.3000,WGS84,3.0856,2.1067,4.8648,"",0.000,0.000,6,6,6,6,0,02,00,01*1acf2051
#RANGEA,USB2_1,0,60.5,FINESTEERING,1996,45621.000,00000000,5103,12778;7,17,0,21214628.852,0.121,-111483647.256584,0.028,1539.897,51.4,8.720,08009c24,3,0,21228132.328,0.038,-111554515.369186,0.029,-1425.643,49.5,219.240,18009c44,6,0,22233315.148,3.891,-116836868.861223,0.055,2042.074,41.4,1.000,08009484,22,0,23078072.991,0.078,-121276100.475103,0.034,-2621.086,47.0,56.400,08009ca4,1,0,23120547.280,0.092,-121499289.849836,0.030,-2832.098,45.7,54.952,18009cc4,23,0,24557082.871,0.114,-129048337.448166,0.033,2179.196,44.7,44.830,08009ce4,11,0,23487689.043,0.112,-123428639.161785,0.033,-2869.800,43.8,57.058,18009d44*c523d8da
#SATXYZ2A,USB2_1,0,60.5,FINESTEERING,1996,45621.000,00000000,7513,12778;7,GPS,17,-4349519.5693,14494302.3938,22202910.0866,-32604.993,1.685,2.823,0.0,0.0,GPS,3,-18332515.9577,4861039.9602,18555063.6771,13867.176,1.840,3.102,0.0,0.0,GPS,6,4720853.5424,23952269.6277,10466679.1779,122837.164,2.391,4.210,0.0,0.0,GPS,22,-16080194.3006,-3691404.2007,21061329.9389,-105172.972,2.625,4.795,0.0,0.0,GPS,1,-17588234.4668,-5244326.3336,19167074.2713,-11797.636,2.854,5.475,0.0,0.0,GPS,23,-26746888.0903,354309.1283,-1251321.7355,-65386.906,3.705,9.806,0.0,0.0,GPS,11,-22564741.9759,-5408282.0551,12237653.5884,-221103.604,3.184,6.714,0.0,0.0*a9320bfe
#BESTPOSA,USB2_1,0,60.5,FINESTEERING,1996,45621.000,00000000,7145,12778;SOL_COMPUTED,SINGLE,36.76934908851,126.93482945016,83.1501,23.3000,WGS84,3.0450,2.1373,4.8765,"",0.000,0.000,7,7,7,7,0,02,00,01*9b4d9d8a
#RANGEA,USB2_1,0,60.5,FINESTEERING,1996,45622.000,00000000,5103,12778;7,17,0,21214335.665,0.125,-111482106.610349,0.031,1539.986,50.6,9.720,08009c24,3,0,21228403.377,0.039,-111555939.769233,0.077,-1425.365,49.4,220.240,18009c44,6,0,22232926.784,0.965,-116834825.658659,0.043,2043.518,45.6,2.000,08009484,22,0,23078571.637,0.080,-121278720.821100,0.034,-2621.892,46.8,57.400,08009ca4,1,0,23121086.035,0.087,-121502121.134113,0.036,-2832.034,46.1,55.952,18009cc4,23,0,24556667.839,0.101,-129046156.553226,0.095,2178.471,45.7,45.830,08009ce4,11,0,23488235.009,0.107,-123431508.221281,0.083,-2869.970,44.1,58.058,18009d44*2bc68581
#SATXYZ2A,USB2_1,0,60.5,FINESTEERING,1996,45622.000,00000000,7513,12778;7,GPS,17,-4352229.2481,14494047.1909,22202527.2142,-32604.990,1.685,2.822,0.0,0.0,GPS,3,-18331391.7150,4858957.5407,18556723.4419,13867.178,1.840,3.101,0.0,0.0,GPS,6,4720031.1922,23951208.9625,10469488.5726,122837.163,2.390,4.205,0.0,0.0,GPS,22,-16078985.6606,-3693743.8667,21061848.2562,-105172.975,2.625,4.794,0.0,0.0,GPS,1,-17589279.3992,-5246545.9272,19165548.2744,-11797.636,2.855,5.475,0.0,0.0,GPS,23,-26747071.9416,354006.2861,-1248216.5638,-65386.905,3.705,9.803,0.0,0.0,GPS,11,-22565808.9933,-5409614.9932,12235192.2293,-221103.605,3.184,6.714,0.0,0.0*f91666cf
#BESTPOSA,USB2_1,0,60.5,FINESTEERING,1996,45622.000,00000000,7145,12778;SOL_COMPUTED,SINGLE,36.76935312067,126.93483280685,82.9929,23.3000,WGS84,3.1278,2.1100,4.9697,"",0.000,0.000,7,7,7,7,0,02,00,01*94b69095
#RANGEA,USB2_1,0,59.0,FINESTEERING,1996,45623.000,00000000,5103,12778;7,17,0,21214042.521,0.110,-111480565.632333,0.030,1542.038,51.3,10.720,08009c24,3,0,21228674.445,0.039,-111557364.304592,0.052,-1422.954,49.3,221.240,18009c44,6,0,22232536.721,0.956,-116832780.881286,0.037,2046.099,43.1,3.000,08009484,22,0,23079070.294,0.083,-121281341.306724,0.032,-2618.970,46.4,58.400,08009ca4,1,0,23121624.801,0.086,-121504952.341291,0.037,-2830.416,46.1,56.952,18009cc4,23,0,24556252.619,0.104,-129043974.565813,0.063,2184.063,45.3,46.830,08009ce4,11,0,23488780.964,0.100,-123434376.976093,0.058,-2866.961,44.7,59.058,18009d44*f36d2e33
#SATXYZ2A,USB2_1,0,59.0,FINESTEERING,1996,45623.000,00000000,7513,12778;7,GPS,17,-4354938.8978,14493792.1625,22202143.8856,-32604.988,1.685,2.821,0.0,0.0,GPS,3,-18330267.4825,4856874.8795,18558382.8108,13867.180,1.840,3.100,0.0,0.0,GPS,6,4719208.6120,23950148.0352,10472297.7447,122837.163,2.389,4.203,0.0,0.0,GPS,22,-16077777.1128,-3696083.6517,21062366.1350,-105172.978,2.626,4.793,0.0,0.0,GPS,1,-17590324.3737,-5248765.2844,19164021.8687,-11797.637,2.855,5.474,0.0,0.0,GPS,23,-26747255.4241,353703.4652,-1245111.3662,-65386.905,3.705,9.799,0.0,0.0,GPS,11,-22566875.8268,-5410947.6852,12232730.6000,-221103.606,3.184,6.713,0.0,0.0*d21e21d9
#BESTPOSA,USB2_1,0,59.0,FINESTEERING,1996,45623.000,00000000,7145,12778;SOL_COMPUTED,SINGLE,36.76935450091,126.93483485868,82.6697,23.3000,WGS84,3.1483,2.0696,4.9981,"",0.000,0.000,7,7,7,7,0,02,00,01*4dfd2c46
#RANGEA,USB2_1,0,59.0,FINESTEERING,1996,45624.000,00000000,5103,12778;8,17,0,21213748.982,0.106,-111479023.081569,0.025,1541.863,51.2,11.720,08009c24,3,0,21228945.222,0.038,-111558787.318031,0.035,-1424.150,49.4,222.240,18009c44,19,0,21723898.978,1.336,-114159859.751737,0.086,2270.213,36.9,1.150,08009464,6,0,22232147.357,0.949,-116830733.415189,0.032,2046.333,41.0,4.000,08009484,22,0,23079568.649,0.076,-121283960.274534,0.026,-2619.956,47.0,59.400,08009ca4,1,0,23122163.169,0.100,-121507781.521907,0.032,-2830.274,44.8,57.952,18009cc4,23,0,24555836.820,0.122,-129041789.670461,0.082,2185.178,43.8,47.830,08009ce4,11,0,23489326.469,0.100,-123437243.504356,0.042,-2866.612,44.6,60.058,18009d44*d9396ddd
#SATXYZ2A,USB2_1,0,59.0,FINESTEERING,1996,45624.000,00000000,7513,12778;8,GPS,17,-4357648.5184,14493537.3085,22201760.1008,-32604.986,1.685,2.820,0.0,0.0,GPS,3,-18329143.2601,4854791.9764,18560041.7837,13867.183,1.840,3.100,0.0,0.0,GPS,19,3000392.7744,14911438.2988,21463961.4477,-133453.817,2.110,3.607,0.0,0.0,GPS,6,4718385.8018,23949086.8458,10475106.6940,122837.163,2.389,4.202,0.0,0.0,GPS,22,-16076568.6571,-3698423.5558,21062883.5755,-105172.981,2.626,4.793,0.0,0.0,GPS,1,-17591369.3903,-5250984.4052,19162495.0543,-11797.638,2.855,5.474,0.0,0.0,GPS,23,-26747438.5377,353400.6656,-1242006.1427,-65386.904,3.705,9.798,0.0,0.0,GPS,11,-22567942.4764,-5412280.1308,12230268.7005,-221103.608,3.185,6.713,0.0,0.0*32c88e5f
#BESTPOSA,USB2_1,0,59.0,FINESTEERING,1996,45624.000,00000000,7145,12778;SOL_COMPUTED,SINGLE,36.76935205535,126.93483874521,82.3881,23.3000,WGS84,3.0818,1.9718,4.9305,"",0.000,0.000,8,8,8,8,0,02,00,01*085b77cd
#RANGEA,USB2_1,0,60.5,FINESTEERING,1996,45625.000,00000000,5103,12778;7,17,0,21213455.529,0.106,-111477481.049375,0.028,1542.628,50.8,12.720,08009c24,3,0,21229216.082,0.037,-111560210.724907,0.033,-1422.935,49.7,223.240,18009c44,19,0,21723463.731,1.287,-114157588.810791,0.120,2271.639,37.2,2.150,08009c64,22,0,23080067.075,0.073,-121286579.608358,0.029,-2618.988,47.3,60.400,08009ca4,1,0,23122701.496,0.091,-121510610.704336,0.032,-2828.899,45.6,58.952,18009cc4,23,0,24555420.866,0.147,-129039603.698171,0.109,2188.240,42.1,48.830,08009ce4,11,0,23489871.874,0.092,-123440109.597225,0.035,-2865.388,45.3,61.058,18009d44*e763913a
#SATXYZ2A,USB2_1,0,60.5,FINESTEERING,1996,45625.000,00000000,7513,12778;7,GPS,17,-4360358.1098,14493282.6292,22201375.8598,-32604.984,1.685,2.820,0.0,0.0,GPS,3,-18328019.0478,4852708.8317,18561700.3605,13867.185,1.840,3.100,0.0,0.0,GPS,19,2997618.7538,14911127.6475,21464575.5269,-133453.817,2.109,3.605,0.0,0.0,GPS,22,-16075360.2937,-3700763.5787,21063400.5775,-105172.984,2.626,4.795,0.0,0.0,GPS,1,-17592414.4489,-5253203.2895,19160967.8311,-11797.639,2.856,5.475,0.0,0.0,GPS,23,-26747621.2824,353097.8872,-1238900.8935,-65386.903,3.701,9.767,0.0,0.0,GPS,11,-22569008.9421,-5413612.3302,12227806.5310,-221103.609,3.185,6.716,0.0,0.0*981666cf
#BESTPOSA,USB2_1,0,60.5,FINESTEERING,1996,45625.000,00000000,7145,12778;SOL_COMPUTED,SINGLE,36.76935001962,126.93484451934,82.2123,23.3000,WGS84,3.0864,1.9886,4.9170,"",0.000,0.000,7,7,7,7,0,02,00,01*d219a26c
#RANGEA,USB2_1,0,61.0,FINESTEERING,1996,45626.000,00000000,5103,12778;6,17,0,21213162.152,0.098,-111475939.232130,0.028,1540.948,51.2,13.720,08009c24,3,0,21229487.078,0.037,-111561634.863033,0.028,-1424.905,49.7,224.240,18009c44,22,0,23080565.634,0.074,-121289199.580762,0.029,-2620.883,47.1,61.400,08009ca4,1,0,23123239.928,0.089,-121513440.163808,0.032,-2830.310,45.7,59.952,18009cc4,23,0,24555004.973,0.084,-129037418.089496,0.067,2184.930,46.9,49.830,08009ce4,11,0,23490417.324,0.093,-123442975.941595,0.036,-2867.144,45.1,62.058,18009d44*e09a2869
#SATXYZ2A,USB2_1,0,61.0,FINESTEERING,1996,45626.000,00000000,7513,12778;6,GPS,17,-4363067.6719,14493028.1243,22200991.1626,-32604.982,1.685,2.819,0.0,0.0,GPS,3,-18326894.8458,4850625.4452,18563358.5411,13867.187,1.840,3.099,0.0,0.0,GPS,22,-16074152.0224,-3703103.7206,21063917.1411,-105172.987,2.626,4.794,0.0,0.0,GPS,1,-17593459.5495,-5255421.9373,19159440.1992,-11797.640,2.856,5.475,0.0,0.0,GPS,23,-26747803.6582,352795.1300,-1235795.6185,-65386.902,3.701,9.761,0.0,0.0,GPS,11,-22570075.2238,-5414944.2833,12225344.0914,-221103.610,3.186,6.715,0.0,0.0*16b44f4e
#BESTPOSA,USB2_1,0,61.0,FINESTEERING,1996,45626.000,00000000,7145,12778;SOL_COMPUTED,SINGLE,36.76934788400,126.93485138525,82.2376,23.3000,WGS84,3.1296,2.0962,4.9812,"",0.000,0.000,6,6,6,6,0,02,00,01*3437495e
#RANGEA,USB2_1,0,61.0,FINESTEERING,1996,45627.000,00000000,5103,12778;8,17,0,21212869.409,0.097,-111474400.695425,0.033,1537.602,51.0,14.720,08009c24,3,0,21229758.795,0.036,-111563062.821893,0.034,-1429.270,50.0,225.240,18009c44,19,0,21722599.363,12.247,-114153029.619352,0.110,2267.241,39.0,0.600,08009464,6,0,22230977.627,12.247,-116824575.100143,0.191,2040.983,35.7,0.430,08009484,22,0,23081064.924,0.068,-121291823.541256,0.034,-2625.635,47.8,62.400,08009ca4,1,0,23123779.074,0.082,-121516273.296156,0.036,-2834.971,46.3,60.952,18009cc4,23,0,24554589.458,0.141,-129035234.693391,0.053,2181.432,42.4,50.830,08009ce4,11,0,23490963.344,0.099,-123445845.675140,0.081,-2871.297,44.4,63.058,18009d44*d3874ed1
#SATXYZ2A,USB2_1,0,61.0,FINESTEERING,1996,45627.000,00000000,7513,12778;8,GPS,17,-4365777.2047,14492773.7939,22200606.0093,-32604.980,1.685,2.820,0.0,0.0,GPS,3,-18325770.6541,4848541.8172,18565016.3256,13867.190,1.840,3.100,0.0,0.0,GPS,19,2992070.4279,14910506.8174,21465802.2754,-133453.817,2.109,3.605,0.0,0.0,GPS,6,4715915.9908,23945901.7059,10483532.2046,122837.161,2.389,4.202,0.0,0.0,GPS,22,-16072943.8434,-3705443.9813,21064433.2663,-105172.991,2.627,4.796,0.0,0.0,GPS,1,-17594504.6920,-5257640.3486,19157912.1586,-11797.641,2.856,5.477,0.0,0.0,GPS,23,-26747985.6652,352492.3939,-1232690.3179,-65386.901,3.701,9.761,0.0,0.0,GPS,11,-22571141.3213,-5416275.9901,12222881.3819,-221103.611,3.186,6.719,0.0,0.0*f2683b02
#BESTPOSA,USB2_1,0,61.0,FINESTEERING,1996,45627.000,00000000,7145,12778;SOL_COMPUTED,SINGLE,36.76934271970,126.93485725877,82.2119,23.3000,WGS84,3.0671,2.1328,4.9570,"",0.000,0.000,8,8,8,8,0,02,00,01*0902cf85
#RANGEA,USB2_1,0,63.0,FINESTEERING,1996,45628.000,00000000,5103,12778;8,17,0,21212576.519,0.103,-111472861.514825,0.030,1542.109,50.2,15.720,08009c24,3,0,21230030.593,0.038,-111564491.224800,0.032,-1425.681,49.6,226.240,18009c44,19,0,21722167.867,1.469,-114150761.497913,0.102,2269.235,37.8,1.600,08009464,6,0,22230588.438,1.080,-116822530.649034,0.097,2047.142,38.9,1.430,08009484,22,0,23081564.325,0.067,-121294447.908744,0.035,-2621.764,47.8,63.400,08009ca4,1,0,23124318.246,0.078,-121519106.600490,0.032,-2829.875,46.6,61.952,18009cc4,23,0,24554174.030,0.071,-129033051.526430,0.040,2185.432,48.2,51.830,08009ce4,11,0,23491509.500,0.082,-123448715.706464,0.055,-2866.782,46.0,64.058,18009d44*e1a0f225
#SATXYZ2A,USB2_1,0,63.0,FINESTEERING,1996,45628.000,00000000,7513,12778;8,GPS,17,-4368486.7081,14492519.6380,22200220.3999,-32604.978,1.685,2.821,0.0,0.0,GPS,3,-18324646.4727,4846457.9474,18566673.7139,13867.192,1.840,3.102,0.0,0.0,GPS,19,2989296.1226,14910196.6386,21466414.9448,-133453.817,2.108,3.605,0.0,0.0,GPS,6,4715092.2602,23944839.4688,10486340.2621,122837.161,2.388,4.202,0.0,0.0,GPS,22,-16071735.7567,-3707784.3607,21064948.9531,-105172.994,2.627,4.799,0.0,0.0,GPS,1,-17595549.8764,-5259858.5232,19156383.7095,-11797.641,2.857,5.481,0.0,0.0,GPS,23,-26748167.3033,352189.6789,-1229584.9917,-65386.900,3.700,9.763,0.0,0.0,GPS,11,-22572207.2348,-5417607.4507,12220418.4024,-221103.613,3.186,6.723,0.0,0.0*a6074de0
#BESTPOSA,USB2_1,0,63.0,FINESTEERING,1996,45628.000,00000000,7145,12778;SOL_COMPUTED,SINGLE,36.76933616558,126.93485803679,81.9203,23.3000,WGS84,2.9713,2.0135,4.8546,"",0.000,0.000,8,8,8,8,0,02,00,01*38e5eeac
#RANGEA,USB2_1,0,66.5,FINESTEERING,1996,45629.000,00000000,5103,12778;8,17,0,21212283.126,0.108,-111471319.561130,0.035,1541.163,49.5,16.720,08009c24,3,0,21230301.867,0.038,-111565916.846811,0.035,-1427.556,49.4,227.240,18009c44,19,0,21721734.384,1.442,-114148490.346925,0.106,2270.375,37.0,2.600,08009464,6,0,22230199.190,0.725,-116820484.112810,0.107,2045.102,41.0,2.430,08009484,22,0,23082063.030,0.077,-121297068.717373,0.035,-2622.637,46.6,64.400,08009ca4,1,0,23124856.658,0.093,-121521935.956636,0.031,-2831.355,45.0,62.952,18009cc4,23,0,24553758.067,0.068,-129030865.301963,0.038,2185.215,48.6,52.830,08009ce4,11,0,23492054.929,0.085,-123451582.019479,0.045,-2868.531,45.7,65.058,18009d44*483cc9ff
#SATXYZ2A,USB2_1,0,66.5,FINESTEERING,1996,45629.000,00000000,7513,12778;8,GPS,17,-4371196.1821,14492265.6566,22199834.3343,-32604.975,1.685,2.821,0.0,0.0,GPS,3,-18323522.3018,4844373.8361,18568330.7061,13867.194,1.840,3.102,0.0,0.0,GPS,19,2986521.7226,14909886.6173,21467027.1442,-133453.818,2.108,3.605,0.0,0.0,GPS,6,4714268.2995,23943776.9698,10489148.0966,122837.160,2.388,4.202,0.0,0.0,GPS,22,-16070527.7624,-3710124.8590,21065464.2013,-105172.997,2.627,4.800,0.0,0.0,GPS,1,-17596595.1026,-5262076.4613,19154854.8517,-11797.642,2.857,5.482,0.0,0.0,GPS,23,-26748348.5724,351886.9849,-1226479.6399,-65386.899,3.700,9.759,0.0,0.0,GPS,11,-22573272.9641,-5418938.6651,12217955.1531,-221103.614,3.187,6.725,0.0,0.0*ca2ee4c5
#BESTPOSA,USB2_1,0,66.5,FINESTEERING,1996,45629.000,00000000,7145,12778;SOL_COMPUTED,SINGLE,36.76933179652,126.93486033592,81.4822,23.3000,WGS84,2.9243,1.9432,4.8101,"",0.000,0.000,8,8,8,8,0,02,00,01*dfbff890
#RANGEA,USB2_1,0,60.0,FINESTEERING,1996,45630.000,00000000,5103,12778;9,28,0,21033598.175,12.247,-110532303.478056,0.121,-1881.414,31.3,0.160,08009404,17,0,21211989.590,0.095,-111469776.838255,0.027,1541.473,50.3,17.720,08009c24,3,0,21230573.073,0.035,-111567341.989151,0.026,-1427.493,50.1,228.240,18009c44,19,0,21721300.861,1.157,-114146218.630973,0.110,2271.856,38.2,3.600,08009464,6,0,22229809.500,0.450,-116818436.626831,0.068,2048.142,43.9,3.430,08009484,22,0,23082561.644,0.074,-121299688.984928,0.029,-2622.979,46.9,65.400,08009ca4,1,0,23125394.862,0.089,-121524764.488926,0.029,-2830.422,45.4,63.952,18009cc4,23,0,24553341.833,0.095,-129028677.756584,0.032,2186.446,45.6,53.830,08009ce4,11,0,23492600.178,0.119,-123454447.458576,0.036,-2867.735,42.7,66.058,18009d44*299bf9c2
#SATXYZ2A,USB2_1,0,60.0,FINESTEERING,1996,45630.000,00000000,7513,12778;9,GPS,28,-13347833.4212,22674040.1294,4412115.6577,211189.186,1.788,3.007,0.0,0.0,GPS,17,-4373905.6265,14492011.8497,22199447.8125,-32604.973,1.685,2.820,0.0,0.0,GPS,3,-18322398.1412,4842289.4833,18569987.3019,13867.197,1.841,3.102,0.0,0.0,GPS,19,2983747.2279,14909576.7536,21467638.8736,-133453.818,2.108,3.604,0.0,0.0,GPS,6,4713444.1086,23942714.2091,10491955.7080,122837.160,2.388,4.200,0.0,0.0,GPS,22,-16069319.8604,-3712465.4759,21065979.0111,-105173.000,2.628,4.800,0.0,0.0,GPS,1,-17597640.3706,-5264294.1626,19153325.5854,-11797.643,2.858,5.482,0.0,0.0,GPS,23,-26748529.4727,351584.3119,-1223374.2627,-65386.898,3.700,9.755,0.0,0.0,GPS,11,-22574338.5092,-5420269.6332,12215491.6340,-221103.615,3.187,6.725,0.0,0.0*34e7da4c
#BESTPOSA,USB2_1,0,60.0,FINESTEERING,1996,45630.000,00000000,7145,12778;SOL_COMPUTED,SINGLE,36.76932667588,126.93486317744,81.0954,23.3000,WGS84,2.8111,1.8260,4.6776,"",0.000,0.000,9,9,9,9,0,02,00,01*bf5fe881
#RANGEA,USB2_1,0,60.0,FINESTEERING,1996,45631.000,00000000,5103,12778;8,17,0,21211696.104,0.093,-111468234.709709,0.032,1541.654,50.3,18.720,08009c24,3,0,21230844.586,0.040,-111568768.835840,0.029,-1427.939,49.0,229.240,18009c44,19,0,21720869.672,1.142,-114143938.158670,0.121,2273.227,39.9,0.400,08009464,6,0,22229419.564,0.251,-116816388.428758,0.047,2048.220,48.1,4.430,08009c84,22,0,23083060.618,0.075,-121302311.187990,0.035,-2622.491,46.7,66.400,08009ca4,1,0,23125933.472,0.094,-121527594.828516,0.030,-2831.580,44.8,64.952,18009cc4,23,0,24552925.737,0.142,-129026491.142974,0.143,2185.120,41.9,54.830,08009ce4,11,0,23493145.729,0.114,-123457314.303560,0.035,-2867.332,43.0,67.058,18009d44*f2cbf674
#SATXYZ2A,USB2_1,0,60.0,FINESTEERING,1996,45631.000,00000000,7513,12778;8,GPS,17,-4376615.0414,14491758.2174,22199060.8346,-32604.971,1.684,2.820,0.0,0.0,GPS,3,-18321273.9912,4840204.8889,18571643.5015,13867.199,1.841,3.102,0.0,0.0,GPS,19,2980972.6386,14909267.0475,21468250.1330,-133453.818,2.107,3.604,0.0,0.0,GPS,6,4712619.6875,23941651.1867,10494763.0961,122837.159,2.387,4.200,0.0,0.0,GPS,22,-16068112.0508,-3714806.2114,21066493.3825,-105173.003,2.628,4.801,0.0,0.0,GPS,1,-17598685.6803,-5266511.6272,19151795.9105,-11797.644,2.858,5.484,0.0,0.0,GPS,23,-26748710.0041,351281.6598,-1220268.8601,-65386.897,3.699,9.753,0.0,0.0,GPS,11,-22575403.8700,-5421600.3551,12213027.8451,-221103.616,3.187,6.727,0.0,0.0*48854254
#BESTPOSA,USB2_1,0,60.0,FINESTEERING,1996,45631.000,00000000,7145,12778;SOL_COMPUTED,SINGLE,36.76931846975,126.93486488511,80.8208,23.3000,WGS84,2.7707,1.7757,4.6085,"",0.000,0.000,8,8,8,8,0,02,00,01*fdddd038
#RANGEA,USB2_1,0,66.0,FINESTEERING,1996,45632.000,00000000,5103,12778;7,17,0,21211402.770,0.093,-111466693.348007,0.027,1543.232,50.1,19.720,08009c24,3,0,21231116.277,0.051,-111570196.646183,0.026,-1426.060,47.0,230.240,18009c44,6,0,22229030.024,0.183,-116814341.299209,0.032,2047.868,49.7,5.430,08009c84,22,0,23083559.775,0.086,-121304934.318473,0.033,-2622.098,45.4,67.400,08009ca4,1,0,23126472.105,0.098,-121530425.434133,0.033,-2828.930,44.3,65.952,18009cc4,23,0,24552509.739,0.113,-129024304.768575,0.089,2187.251,43.9,55.830,08009ce4,11,0,23493691.441,0.091,-123460181.802665,0.031,-2866.963,44.8,68.058,18009d44*0af79fec
#SATXYZ2A,USB2_1,0,66.0,FINESTEERING,1996,45632.000,00000000,7513,12778;7,GPS,17,-4379324.4266,14491504.7595,22198673.4006,-32604.969,1.684,2.821,0.0,0.0,GPS,3,-18320149.8517,4838120.0531,18573299.3047,13867.201,1.841,3.103,0.0,0.0,GPS,6,4711795.0362,23940587.9027,10497570.2610,122837.159,2.387,4.200,0.0,0.0,GPS,22,-16066904.3337,-3717147.0655,21067007.3153,-105173.007,2.628,4.803,0.0,0.0,GPS,1,-17599731.0317,-5268728.8551,19150265.8272,-11797.645,2.858,5.486,0.0,0.0,GPS,23,-26748890.1666,350979.0286,-1217163.4321,-65386.897,3.699,9.752,0.0,0.0,GPS,11,-22576469.0466,-5422930.8307,12210563.7865,-221103.617,3.188,6.730,0.0,0.0*2d7d857d
#BESTPOSA,USB2_1,0,66.0,FINESTEERING,1996,45632.000,00000000,7145,12778;SOL_COMPUTED,SINGLE,36.76931024846,126.93486739766,80.6666,23.3000,WGS84,2.8177,1.7708,4.6050,"",0.000,0.000,7,7,7,7,0,02,00,01*0013fff0
#RANGEA,USB2_1,0,60.5,FINESTEERING,1996,45633.000,00000000,5103,12778;8,17,0,21211109.103,0.094,-111465150.148740,0.027,1540.942,49.8,20.720,08009c24,3,0,21231387.512,0.040,-111571622.298229,0.030,-1426.440,49.2,231.240,18009c44,19,0,21720016.365,12.247,-114139451.643791,0.214,2272.806,40.2,0.330,08009464,6,0,22228640.483,0.270,-116812293.428342,0.031,2044.425,45.4,6.430,08009c84,22,0,23084058.374,0.083,-121307554.306945,0.033,-2620.971,45.6,68.400,08009ca4,1,0,23127010.131,0.107,-121533252.797277,0.032,-2827.437,43.6,66.952,18009cc4,23,0,24552093.251,0.068,-129022115.787012,0.058,2188.320,48.2,56.830,08009ce4,11,0,23494236.457,0.101,-123463045.924261,0.033,-2864.493,43.9,69.058,18009d44*7e616417
#SATXYZ2A,USB2_1,0,60.5,FINESTEERING,1996,45633.000,00000000,7513,12778;8,GPS,17,-4382033.7820,14491251.4761,22198285.5105,-32604.967,1.684,2.820,0.0,0.0,GPS,3,-18319025.7229,4836034.9758,18574954.7116,13867.204,1.841,3.103,0.0,0.0,GPS,19,2975423.1765,14908648.1080,21469471.2417,-133453.818,2.107,3.604,0.0,0.0,GPS,6,4710970.1546,23939524.3570,10500377.2026,122837.158,2.387,4.199,0.0,0.0,GPS,22,-16065696.7090,-3719488.0382,21067520.8097,-105173.010,2.629,4.803,0.0,0.0,GPS,1,-17600776.4247,-5270945.8462,19148735.3354,-11797.646,2.859,5.486,0.0,0.0,GPS,23,-26749069.9602,350676.4182,-1214057.9789,-65386.896,3.699,9.748,0.0,0.0,GPS,11,-22577534.0387,-5424261.0601,12208099.4583,-221103.619,3.188,6.731,0.0,0.0*20dd178c
#BESTPOSA,USB2_1,0,60.5,FINESTEERING,1996,45633.000,00000000,7145,12778;SOL_COMPUTED,SINGLE,36.76930413053,126.93487264432,80.3987,23.3000,WGS84,2.8412,1.7649,4.5970,"",0.000,0.000,8,8,8,8,0,02,00,01*a9514481
#RANGEA,USB2_1,0,60.5,FINESTEERING,1996,45634.000,00000000,5103,12778;8,17,0,21210815.420,0.092,-111463606.890112,0.029,1547.073,49.8,21.720,08009c24,3,0,21231658.728,0.039,-111573047.604480,0.029,-1421.972,49.2,232.240,18009c44,19,0,21719588.743,0.844,-114137208.373983,0.104,2274.347,40.8,0.290,08009464,6,0,22228250.925,0.475,-116810246.500568,0.032,2049.522,39.9,7.430,08009c84,22,0,23084556.803,0.077,-121310173.618538,0.031,-2615.567,46.3,69.400,08009ca4,1,0,23127547.921,0.098,-121536079.004705,0.033,-2822.087,44.2,67.952,18009cc4,23,0,24551676.674,0.066,-129019926.272039,0.043,2192.717,48.3,57.830,08009ce4,11,0,23494781.314,0.098,-123465909.197851,0.031,-2860.241,44.1,70.058,18009d44*e79b56c5
#SATXYZ2A,USB2_1,0,60.5,FINESTEERING,1996,45634.000,00000000,7513,12778;8,GPS,17,-4384743.1077,14490998.3672,22197897.1643,-32604.965,1.684,2.820,0.0,0.0,GPS,3,-18317901.6047,4833949.6571,18576609.7221,13867.206,1.841,3.103,0.0,0.0,GPS,19,2972648.3038,14908338.8747,21470081.0911,-133453.818,2.107,3.603,0.0,0.0,GPS,6,4710145.0427,23938460.5498,10503183.9208,122837.158,2.387,4.199,0.0,0.0,GPS,22,-16064489.1769,-3721829.1294,21068033.8655,-105173.013,2.629,4.804,0.0,0.0,GPS,1,-17601821.8592,-5273162.6004,19147204.4352,-11797.646,2.859,5.488,0.0,0.0,GPS,23,-26749249.3849,350373.8286,-1210952.5005,-65386.895,3.698,9.745,0.0,0.0,GPS,11,-22578598.8464,-5425591.0433,12205634.8605,-221103.620,3.188,6.733,0.0,0.0*44ed996e
#BESTPOSA,USB2_1,0,60.5,FINESTEERING,1996,45634.000,00000000,7145,12778;SOL_COMPUTED,SINGLE,36.76929894875,126.93488014728,80.2283,23.3000,WGS84,2.8477,1.7608,4.5890,"",0.000,0.000,8,8,8,8,0,02,00,01*11446551
#RANGEA,USB2_1,0,60.5,FINESTEERING,1996,45635.000,00000000,5103,12778;8,17,0,21210522.011,0.091,-111462065.024347,0.030,1543.370,49.7,22.720,08009c24,3,0,21231930.264,0.043,-111574474.553726,0.035,-1426.940,48.6,233.240,18009c44,19,0,21719148.940,1.019,-114134898.699445,0.105,2271.240,39.1,0.310,08009464,6,0,22227861.779,0.857,-116808201.273855,0.086,2046.086,34.6,8.430,08009c84,22,0,23085055.431,0.084,-121312794.039203,0.033,-2619.869,45.5,70.400,08009ca4,1,0,23128085.882,0.101,-121538906.108173,0.036,-2826.791,44.0,68.952,18009cc4,23,0,24551260.340,0.075,-129017738.160810,0.035,2188.658,47.2,58.830,08009ce4,11,0,23495326.336,0.092,-123468773.336362,0.033,-2863.796,44.6,71.058,18009d44*cd492350
#SATXYZ2A,USB2_1,0,60.5,FINESTEERING,1996,45635.000,00000000,7513,12778;8,GPS,17,-4387452.4035,14490745.4329,22197508.3619,-32604.963,1.684,2.820,0.0,0.0,GPS,3,-18316777.4972,4831864.0970,18578264.3361,13867.208,1.841,3.103,0.0,0.0,GPS,19,2969873.3365,14908029.7990,21470690.4704,-133453.818,2.107,3.602,0.0,0.0,GPS,6,4709319.7006,23937396.4811,10505990.4156,122837.157,2.387,4.198,0.0,0.0,GPS,22,-16063281.7373,-3724170.3390,21068546.4828,-105173.016,2.629,4.805,0.0,0.0,GPS,1,-17602867.3353,-5275379.1178,19145673.1266,-11797.647,2.859,5.488,0.0,0.0,GPS,23,-26749428.4407,350071.2597,-1207846.9969,-65386.894,3.698,9.742,0.0,0.0,GPS,11,-22579663.4697,-5426920.7803,12203169.9932,-221103.621,3.189,6.734,0.0,0.0*fdb40cda
#BESTPOSA,USB2_1,0,60.5,FINESTEERING,1996,45635.000,00000000,7145,12778;SOL_COMPUTED,SINGLE,36.76929470707,126.93488809559,79.9374,23.3000,WGS84,2.8566,1.7855,4.6186,"",0.000,0.000,8,8,8,8,0,02,00,01*8eb80637
#RANGEA,USB2_1,0,59.5,FINESTEERING,1996,45636.000,00000000,5103,12778;7,17,0,21210227.969,0.083,-111460519.714866,0.028,1543.510,50.3,23.720,08009c24,3,0,21232201.273,0.040,-111575898.724313,0.032,-1427.459,49.0,234.240,18009c44,19,0,21718709.718,0.730,-114132624.544113,0.068,2271.525,41.3,1.310,08009464,22,0,23085553.546,0.080,-121315411.669689,0.093,-2620.690,45.8,71.400,08009ca4,1,0,23128623.308,0.105,-121541730.051546,0.087,-2825.469,43.6,69.952,18009cc4,23,0,24550843.601,0.089,-129015547.741590,0.030,2187.484,45.7,59.830,08009ce4,11,0,23495870.821,0.090,-123471634.653347,0.094,-2864.113,44.7,72.058,18009d44*9245b196
#SATXYZ2A,USB2_1,0,59.5,FINESTEERING,1996,45636.000,00000000,7513,12778;7,GPS,17,-4390161.6694,14490492.6730,22197119.1035,-32604.961,1.684,2.816,0.0,0.0,GPS,3,-18315653.4005,4829778.2956,18579918.5537,13867.211,1.841,3.099,0.0,0.0,GPS,19,2967098.2750,14907720.8810,21471299.3796,-133453.819,2.106,3.597,0.0,0.0,GPS,22,-16062074.3903,-3726511.6669,21069058.6616,-105173.019,2.629,4.799,0.0,0.0,GPS,1,-17603912.8529,-5277595.3982,19144141.4096,-11797.648,2.860,5.482,0.0,0.0,GPS,23,-26749607.1275,349768.7115,-1204741.4682,-65386.893,3.697,9.725,0.0,0.0,GPS,11,-22580727.9084,-5428250.2711,12200704.8564,-221103.622,3.189,6.726,0.0,0.0*d7fedee5
#BESTPOSA,USB2_1,0,59.5,FINESTEERING,1996,45636.000,00000000,7145,12778;SOL_COMPUTED,SINGLE,36.76929098967,126.93489714223,79.9818,23.3000,WGS84,2.9028,1.8339,4.6718,"",0.000,0.000,7,7,7,7,0,02,00,01*82833021
#RANGEA,USB2_1,0,59.5,FINESTEERING,1996,45637.000,00000000,5103,12778;6,17,0,21209934.103,0.086,-111458975.656051,0.027,1543.225,49.8,24.720,08009c24,3,0,21232472.630,0.042,-111577324.732627,0.035,-1427.267,48.7,235.240,18009c44,19,0,21718275.552,0.599,-114130351.365507,0.050,2271.772,42.3,2.310,08009c64,22,0,23086051.888,0.079,-121318030.504238,0.062,-2621.037,45.9,72.400,08009ca4,1,0,23129160.899,0.088,-121544555.092798,0.057,-2826.382,45.0,70.952,18009cc4,11,0,23496415.589,0.103,-123474497.351654,0.062,-2864.397,43.5,73.058,18009d44*7c0444bf
#SATXYZ2A,USB2_1,0,59.5,FINESTEERING,1996,45637.000,00000000,7513,12778;6,GPS,17,-4392870.9053,14490240.0876,22196729.3890,-32604.958,1.684,2.817,0.0,0.0,GPS,3,-18314529.3146,4827692.2529,18581572.3748,13867.213,1.841,3.102,0.0,0.0,GPS,19,2964323.1194,14907412.1207,21471907.8188,-133453.819,2.106,3.599,0.0,0.0,GPS,22,-16060867.1359,-3728853.1133,21069570.4019,-105173.023,2.630,4.803,0.0,0.0,GPS,1,-17604958.4119,-5279811.4417,19142609.2843,-11797.649,2.860,5.487,0.0,0.0,GPS,11,-22581792.1626,-5429579.5157,12198239.4502,-221103.623,3.189,6.733,0.0,0.0*69cda2b0
#BESTPOSA,USB2_1,0,59.5,FINESTEERING,1996,45637.000,00000000,7145,12778;SOL_COMPUTED,SINGLE,36.76928852953,126.93490503061,79.8259,23.3000,WGS84,3.7085,1.9249,4.8413,"",0.000,0.000,6,6,6,6,0,02,00,01*62529c53
#RANGEA,USB2_1,0,59.5,FINESTEERING,1996,45638.000,00000000,5103,12778;8,17,0,21209640.733,0.077,-111457434.084119,0.027,1539.186,50.6,25.720,08009c24,3,0,21232744.486,0.037,-111578753.353437,0.034,-1432.667,49.7,236.240,18009c44,19,0,21717843.025,0.456,-114128080.924663,0.038,2268.793,44.7,3.310,08009c64,6,0,22226692.819,5.796,-116802064.643770,0.124,2041.470,30.2,1.100,08009484,22,0,23086550.636,0.073,-121320651.508310,0.045,-2622.902,46.5,73.400,08009ca4,1,0,23129698.804,0.095,-121547381.882745,0.041,-2827.979,44.3,71.952,18009cc4,23,0,24550011.108,12.247,-129011172.781808,0.110,2188.288,42.6,0.750,080094e4,11,0,23496960.669,0.094,-123477361.828905,0.047,-2866.982,44.2,74.058,18009d44*1624e052
#SATXYZ2A,USB2_1,0,59.5,FINESTEERING,1996,45638.000,00000000,7513,12778;8,GPS,17,-4395580.1111,14489987.6767,22196339.2184,-32604.956,1.684,2.818,0.0,0.0,GPS,3,-18313405.2396,4825605.9689,18583225.7994,13867.215,1.841,3.103,0.0,0.0,GPS,19,2961547.8696,14907103.5181,21472515.7878,-133453.819,2.106,3.600,0.0,0.0,GPS,6,4706842.2920,23934202.7063,10514408.5587,122837.156,2.386,4.197,0.0,0.0,GPS,22,-16059659.9742,-3731194.6779,21070081.7036,-105173.026,2.630,4.806,0.0,0.0,GPS,1,-17606004.0122,-5282027.2481,19141076.7508,-11797.650,2.860,5.490,0.0,0.0,GPS,23,-26749963.3945,349163.6770,-1198530.3359,-65386.891,3.697,9.733,0.0,0.0,GPS,11,-22582856.2321,-5430908.5141,12195773.7746,-221103.625,3.190,6.737,0.0,0.0*07a7907a
#BESTPOSA,USB2_1,0,59.5,FINESTEERING,1996,45638.000,00000000,7145,12778;SOL_COMPUTED,SINGLE,36.76928608366,126.93491349040,79.5992,23.3000,WGS84,4.0078,1.9464,4.8872,"",0.000,0.000,8,8,8,8,0,02,00,01*706d9db8
#RANGEA,USB2_1,0,60.5,FINESTEERING,1996,45639.000,00000000,5103,12778;8,17,0,21209347.882,0.077,-111455895.307836,0.032,1538.166,50.4,26.720,08009c24,3,0,21233016.967,0.045,-111580185.316242,0.034,-1432.956,48.1,237.240,18009c44,19,0,21717411.351,0.360,-114125813.166086,0.035,2267.293,46.7,4.310,08009c64,6,0,22226307.098,2.116,-116800019.692960,0.107,2041.495,32.9,0.520,08009484,22,0,23087050.108,0.073,-121323276.255815,0.039,-2625.651,46.4,74.400,08009ca4,1,0,23130237.359,0.106,-121550212.117889,0.037,-2831.167,43.2,72.952,18009cc4,23,0,24549596.562,0.544,-129008988.323703,0.132,2186.107,44.7,1.750,080094e4,11,0,23497506.353,0.096,-123480229.564350,0.040,-2869.184,44.0,75.058,18009d44*97865692
#SATXYZ2A,USB2_1,0,60.5,FINESTEERING,1996,45639.000,00000000,7513,12778;8,GPS,17,-4398289.2868,14489735.4403,22195948.5917,-32604.954,1.684,2.819,0.0,0.0,GPS,3,-18312281.1756,4823519.4437,18584878.8274,13867.217,1.842,3.104,0.0,0.0,GPS,19,2958772.5258,14906795.0732,21473123.2868,-133453.819,2.106,3.601,0.0,0.0,GPS,6,4706016.0284,23933137.5921,10517214.1591,122837.155,2.386,4.197,0.0,0.0,GPS,22,-16058452.9052,-3733536.3607,21070592.5668,-105173.029,2.630,4.809,0.0,0.0,GPS,1,-17607049.6539,-5284242.8175,19139543.8089,-11797.651,2.861,5.493,0.0,0.0,GPS,23,-26750140.9746,348861.1906,-1195424.7325,-65386.890,3.696,9.731,0.0,0.0,GPS,11,-22583920.1170,-5432237.2662,12193307.8298,-221103.626,3.190,6.741,0.0,0.0*df6b16d2
#BESTPOSA,USB2_1,0,60.5,FINESTEERING,1996,45639.000,00000000,7145,12778;SOL_COMPUTED,SINGLE,36.76928427023,126.93492087763,79.5591,23.3000,WGS84,3.8780,1.9670,4.8707,"",0.000,0.000,8,8,8,8,0,02,00,01*b9cb69c6
#RANGEA,USB2_1,0,59.0,FINESTEERING,1996,45640.000,00000000,5103,12778;7,17,0,21209054.817,0.076,-111454355.218210,0.026,1539.865,50.3,27.720,08009c24,3,0,21233289.247,0.038,-111581616.248121,0.028,-1432.269,49.6,238.240,18009c44,19,0,21716979.692,0.307,-114123544.069910,0.030,2269.275,47.0,5.310,08009c64,22,0,23087549.278,0.069,-121325899.388429,0.030,-2623.723,46.9,75.400,08009ca4,1,0,23130775.537,0.097,-121553040.352653,0.033,-2829.241,43.9,73.952,18009cc4,23,0,24549181.358,0.506,-129006802.255384,0.086,2186.366,44.1,2.750,080094e4,11,0,23498051.669,0.097,-123483095.324489,0.035,-2866.957,43.8,76.058,18009d44*9049f3ef
#SATXYZ2A,USB2_1,0,59.0,FINESTEERING,1996,45640.000,00000000,7513,12778;7,GPS,17,-4400998.4323,14489483.3784,22195557.5090,-32604.952,1.684,2.819,0.0,0.0,GPS,3,-18311157.1225,4821432.6773,18586531.4587,13867.220,1.842,3.105,0.0,0.0,GPS,19,2955997.0880,14906486.7861,21473730.3156,-133453.819,2.105,3.601,0.0,0.0,GPS,22,-16057245.9289,-3735878.1618,21071102.9913,-105173.032,2.631,4.810,0.0,0.0,GPS,1,-17608095.3369,-5286458.1499,19138010.4589,-11797.651,2.861,5.495,0.0,0.0,GPS,23,-26750318.1857,348558.7246,-1192319.1041,-65386.889,3.696,9.729,0.0,0.0,GPS,11,-22584983.8171,-5433565.7722,12190841.6157,-221103.627,3.191,6.743,0.0,0.0*0f68ed74
#BESTPOSA,USB2_1,0,59.0,FINESTEERING,1996,45640.000,00000000,7145,12778;SOL_COMPUTED,SINGLE,36.76928345723,126.93492911484,79.4351,23.3000,WGS84,3.7457,1.9763,4.8356,"",0.000,0.000,7,7,7,7,0,02,00,01*0995d803
#RANGEA,USB2_1,0,57.0,FINESTEERING,1996,45641.000,00000000,5103,12778;7,17,0,21208761.535,0.075,-111452814.016149,0.024,1541.941,50.3,28.720,08009c24,3,0,21233561.407,0.040,-111583046.521288,0.026,-1430.758,49.2,239.240,18009c44,19,0,21716547.737,0.256,-114121273.921579,0.028,2270.735,47.6,6.310,08009c64,22,0,23088048.279,0.093,-121328521.711435,0.104,-2620.993,44.1,76.400,08009ca4,1,0,23131313.523,0.103,-121555867.644462,0.093,-2827.839,43.4,74.952,18009cc4,23,0,24548763.663,0.463,-129004615.222242,0.058,2187.388,43.5,3.750,080094e4,11,0,23498596.853,0.123,-123485960.218700,0.096,-2863.446,41.7,77.058,18009d44*b3208081
#SATXYZ2A,USB2_1,0,57.0,FINESTEERING,1996,45641.000,00000000,7513,12778;7,GPS,17,-4403707.5475,14489231.4909,22195165.9702,-32604.950,1.683,2.818,0.0,0.0,GPS,3,-18310033.0804,4819345.6698,18588183.6935,13867.222,1.842,3.104,0.0,0.0,GPS,19,2953221.5562,14906178.6567,21474336.8743,-133453.819,2.105,3.599,0.0,0.0,GPS,22,-16056039.0454,-3738220.0810,21071612.9773,-105173.035,2.631,4.810,0.0,0.0,GPS,1,-17609141.0610,-5288673.2451,19136476.7007,-11797.652,2.861,5.495,0.0,0.0,GPS,23,-26750495.0279,348256.2791,-1189213.4511,-65386.889,3.696,9.724,0.0,0.0,GPS,11,-22586047.3324,-5434894.0320,12188375.1324,-221103.628,3.191,6.743,0.0,0.0*decc99fe
#BESTPOSA,USB2_1,0,57.0,FINESTEERING,1996,45641.000,00000000,7145,12778;SOL_COMPUTED,SINGLE,36.76927953179,126.93493706888,79.3775,23.3000,WGS84,3.6875,1.9888,4.8355,"",0.000,0.000,7,7,7,7,0,02,00,01*97b9acf9
#RANGEA,USB2_1,0,57.0,FINESTEERING,1996,45642.000,00000000,5103,12778;7,17,0,21208468.289,0.077,-111451273.043268,0.026,1541.436,49.9,29.720,08009c24,3,0,21233833.778,0.040,-111584477.836971,0.026,-1431.142,49.2,240.240,18009c44,19,0,21716115.842,0.215,-114119003.811716,0.028,2270.213,47.7,7.310,08009c64,22,0,23088547.459,0.076,-121331144.969600,0.066,-2622.884,46.0,77.400,08009ca4,1,0,23131851.577,0.099,-121558695.305189,0.062,-2824.839,43.6,75.952,18009cc4,23,0,24548346.800,0.298,-129002429.209547,0.041,2187.431,46.2,4.750,080094e4,11,0,23499142.159,0.104,-123488825.896883,0.064,-2863.342,43.1,78.058,18009d44*c102057f
#SATXYZ2A,USB2_1,0,57.0,FINESTEERING,1996,45642.000,00000000,7513,12778;7,GPS,17,-4406416.6324,14488979.7780,22194773.9753,-32604.948,1.683,2.818,0.0,0.0,GPS,3,-18308909.0494,4817258.4211,18589835.5315,13867.224,1.842,3.105,0.0,0.0,GPS,19,2950445.9306,14905870.6851,21474942.9629,-133453.819,2.105,3.599,0.0,0.0,GPS,22,-16054832.2547,-3740562.1182,21072122.5247,-105173.038,2.631,4.811,0.0,0.0,GPS,1,-17610186.8264,-5290888.1031,19134942.5343,-11797.653,2.862,5.496,0.0,0.0,GPS,23,-26750671.5012,347953.8540,-1186107.7733,-65386.888,3.695,9.721,0.0,0.0,GPS,11,-22587110.6630,-5436222.0456,12185908.3800,-221103.630,3.191,6.745,0.0,0.0*5eebac9e
#BESTPOSA,USB2_1,0,57.0,FINESTEERING,1996,45642.000,00000000,7145,12778;SOL_COMPUTED,SINGLE,36.76927490216,126.93494408290,79.2017,23.3000,WGS84,3.6724,2.0058,4.8385,"",0.000,0.000,7,7,7,7,0,02,00,01*bda724c9
#RANGEA,USB2_1,0,60.5,FINESTEERING,1996,45643.000,00000000,5103,12778;7,17,0,21208174.956,0.077,-111449731.774221,0.024,1539.956,49.8,30.720,08009c24,3,0,21234106.104,0.043,-111585908.982383,0.028,-1432.380,48.4,241.240,18009c44,19,0,21715683.781,0.176,-114116733.382818,0.026,2269.939,48.1,8.310,08009c64,22,0,23089046.516,0.082,-121333767.591249,0.047,-2624.510,45.1,78.400,08009ca4,1,0,23132389.536,0.089,-121561522.342443,0.045,-2827.784,44.6,76.952,18009cc4,23,0,24547931.850,0.564,-129000242.694776,0.033,2184.627,44.8,5.750,18009ce4,11,0,23499687.367,0.113,-123491690.842102,0.080,-2865.384,42.4,79.058,18009d44*d3450a1e
#SATXYZ2A,USB2_1,0,60.5,FINESTEERING,1996,45643.000,00000000,7513,12778;7,GPS,17,-4409125.6869,14488728.2396,22194381.5244,-32604.946,1.683,2.819,0.0,0.0,GPS,3,-18307785.0296,4815170.9313,18591486.9729,13867.227,1.842,3.105,0.0,0.0,GPS,19,2947670.2111,14905562.8713,21475548.5813,-133453.820,2.105,3.599,0.0,0.0,GPS,22,-16053625.5569,-3742904.2735,21072631.6335,-105173.042,2.632,4.812,0.0,0.0,GPS,1,-17611232.6328,-5293102.7239,19133407.9598,-11797.654,2.862,5.498,0.0,0.0,GPS,23,-26750847.6056,347651.4492,-1183002.0709,-65386.887,3.695,9.720,0.0,0.0,GPS,11,-22588173.8086,-5437549.8131,12183441.3585,-221103.631,3.192,6.747,0.0,0.0*5fed4bc0
#BESTPOSA,USB2_1,0,60.5,FINESTEERING,1996,45643.000,00000000,7145,12778;SOL_COMPUTED,SINGLE,36.76927282156,126.93495204155,79.1294,23.3000,WGS84,3.5599,1.9953,4.7914,"",0.000,0.000,7,7,7,7,0,02,00,01*b734d47d
#RANGEA,USB2_1,0,60.5,FINESTEERING,1996,45644.000,00000000,5103,12778;6,17,0,21207881.740,0.076,-111448190.904510,0.027,1541.271,49.8,31.720,08009c24,3,0,21234378.671,0.040,-111587341.316944,0.029,-1432.400,49.2,242.240,18009c44,19,0,21715251.794,0.169,-114114463.392459,0.026,2270.370,47.3,9.310,08009c64,22,0,23089545.726,0.075,-121336390.901916,0.036,-2622.816,45.9,79.400,08009ca4,1,0,23132927.577,0.091,-121564349.761913,0.036,-2826.919,44.2,77.952,18009cc4,11,0,23500232.680,0.088,-123494556.577734,0.058,-2864.882,44.4,80.058,18009d44*16eb19e2
#SATXYZ2A,USB2_1,0,60.5,FINESTEERING,1996,45644.000,00000000,7513,12778;6,GPS,17,-4411834.7110,14488476.8756,22193988.6175,-32604.943,1.683,2.819,0.0,0.0,GPS,3,-18306661.0210,4813083.2004,18593138.0175,13867.229,1.842,3.106,0.0,0.0,GPS,19,2944894.3980,14905255.2154,21476153.7296,-133453.820,2.105,3.599,0.0,0.0,GPS,22,-16052418.9519,-3745246.5468,21073140.3037,-105173.045,2.632,4.813,0.0,0.0,GPS,1,-17612278.4804,-5295317.1075,19131872.9772,-11797.655,2.862,5.499,0.0,0.0,GPS,11,-22589236.7693,-5438877.3344,12180974.0679,-221103.632,3.192,6.749,0.0,0.0*d11f23da
#BESTPOSA,USB2_1,0,60.5,FINESTEERING,1996,45644.000,00000000,7145,12778;SOL_COMPUTED,SINGLE,36.76927020809,126.93495938798,78.9957,23.3000,WGS84,3.7559,2.0068,4.8108,"",0.000,0.000,6,6,6,6,0,02,00,01*62b84121
#RANGEA,USB2_1,0,62.0,FINESTEERING,1996,45645.000,00000000,5103,12778;6,17,0,21207588.764,0.072,-111446651.391645,0.031,1536.639,50.1,32.720,08009c24,3,0,21234651.541,0.041,-111588775.321817,0.032,-1437.661,48.9,243.240,18009c44,19,0,21714819.996,0.172,-114112194.613491,0.030,2266.493,46.7,10.310,08009c64,22,0,23090045.231,0.070,-121339015.861787,0.033,-2628.347,46.5,80.400,08009ca4,1,0,23133465.844,0.090,-121567178.423303,0.034,-2831.116,44.3,78.952,18009cc4,11,0,23500778.268,0.094,-123497423.544508,0.050,-2869.455,43.9,81.058,18009d44*06dd52b5
