#GPSEPHEMA,USB3_1,8,68.5,SATTIME,2000,357810.000,00000000,1214,12778;4,357810.0,63,9,9,2000,2000,360000.0,2.656060905e+07,5.260576267e-09,1.417854111e+00,9.8525658250e-03,9.2140883322e-01,-6.947666407e-07,8.555129170e-06,2.25500000e+02,-1.22812500e+01,-1.415610313e-07,1.303851604e-08,9.7900880415e-01,-2.803688213e-10,1.838585807e+00,-7.93568770e-09,9,360000.0,-1.955777407e-08,5.96531e-05,3.18323e-12,0.00000,TRUE,1.458570882e-04,4.00000000e+00*612010dd
#GPSEPHEMA,USB3_1,7,68.5,SATTIME,2020,373980.000,00000000,1214,12778;5,373980.0,0,71,71,2020,2020,374400.0,2.656150026e+07,5.065925302e-09,1.707707429e+00,5.6452323915e-03,6.9128201927e-01,-2.956017852e-06,5.787238479e-06,2.66281250e+02,-5.64687500e+01,-4.284083843e-08,-2.607703209e-08,9.4851762980e-01,-4.818057834e-10,2.423555416e+00,-8.46035241e-09,71,374400.0,-1.117587090e-08,-1.53622e-06,3.41061e-13,0.00000,TRUE,1.458495530e-04,4.00000000e+00*d665725d
#GPSEPHEMA,USB3_1,6,68.5,SATTIME,2020,373980.000,00000000,1214,12778;13,373980.0,0,105,105,2020,2020,374400.0,2.656037036e+07,4.041954078e-09,-2.1548550411e-01,3.4244972048e-03,1.457658065e+00,1.799315214e-06,1.213885844e-05,1.51437500e+02,3.53125000e+01,-6.332993507e-08,4.656612873e-08,9.6868552815e-01,1.239337338e-10,-2.669819362e+00,-7.81889712e-09,105,374400.0,-1.117587090e-08,-8.83252e-05,7.95808e-13,0.00000,TRUE,1.458578356e-04,4.00000000e+00*244e5be2
#GPSEPHEMA,USB3_1,5,68.5,SATTIME,2020,373980.000,00000000,1214,12778;15,373980.0,0,51,51,2020,2020,374400.0,2.655932007e+07,4.973421449e-09,6.7011250625e-02,1.0764998500e-02,7.0742652864e-01,3.147870302e-07,1.168437302e-05,1.37875000e+02,3.15625000e+00,4.842877388e-08,2.048909664e-07,9.2865324305e-01,-5.893102614e-11,-2.877113521e+00,-8.37320592e-09,51,374400.0,-1.071020961e-08,-3.44753e-04,1.02318e-12,0.00000,TRUE,1.458674189e-04,4.00000000e+00*4a6ce767
#GPSEPHEMA,USB3_1,4,68.5,SATTIME,2020,373980.000,00000000,1214,12778;21,373980.0,0,52,52,2020,2020,374384.0,2.655978246e+07,4.977707341e-09,-2.971320984e+00,2.4353078916e-02,-1.524247197e+00,3.580003977e-06,5.742534995e-06,2.56593750e+02,7.04687500e+01,3.203749657e-07,1.285225153e-07,9.4503219529e-01,3.803729869e-10,1.346194736e+00,-7.99640451e-09,52,374384.0,-1.024454832e-08,-3.30531e-04,6.02540e-12,0.00000,TRUE,1.458636141e-04,4.00000000e+00*05450e00
#GPSEPHEMA,USB3_1,3,68.5,SATTIME,2020,373980.000,00000000,1214,12778;30,373980.0,0,97,97,2020,2020,374400.0,2.656045913e+07,5.249147219e-09,-1.872840109e+00,3.6283872323e-03,-2.973947027e+00,3.928318620e-06,4.654750228e-06,2.81687500e+02,8.10937500e+01,3.911554813e-08,-8.754432201e-08,9.4273171418e-01,4.993065124e-10,-1.694271669e+00,-8.63607401e-09,97,374400.0,3.725290298e-09,1.83485e-05,-5.34328e-12,0.00000,TRUE,1.458583117e-04,7.84000000e+00*90c1e427
#GPSEPHEMA,USB3_1,2,68.5,SATTIME,2020,373980.000,00000000,1214,12778;29,373980.0,0,44,44,2020,2020,374400.0,2.655992822e+07,3.714440436e-09,1.545438579e+00,7.6979212463e-04,1.629623708e+00,-7.506459951e-07,1.203082502e-05,1.59218750e+02,-1.10000000e+01,-2.793967724e-08,-7.450580597e-09,9.8492013280e-01,1.678641351e-11,4.1345258617e-01,-7.57102965e-09,44,374400.0,-1.024454832e-08,3.68421e-04,-7.50333e-12,0.00000,TRUE,1.458611502e-04,4.00000000e+00*9ad9a587
#GPSEPHEMA,USB3_1,1,68.5,SATTIME,2020,373980.000,00000000,1214,12778;2,373980.0,0,44,44,2020,2020,374400.0,2.655916158e+07,5.131642325e-09,-8.9768720695e-01,1.8175148871e-02,-1.827646527e+00,3.188848495e-06,6.562098861e-06,2.52812500e+02,5.72500000e+01,-1.695007086e-07,3.147870302e-07,9.5141122470e-01,3.225134340e-10,1.340141919e+00,-8.67071831e-09,44,374400.0,-2.048909664e-08,-1.35843e-05,-1.09139e-11,0.00000,TRUE,1.458688828e-04,4.00000000e+00*2c5f0ee7
#GPSEPHEMA,USB3_1,0,68.5,SATTIME,2020,373980.000,00000000,1214,12778;24,373980.0,0,165,165,2020,2020,374400.0,2.655986621e+07,5.249861535e-09,-8.3609920577e-01,7.2915299097e-03,5.3558326334e-01,4.172325134e-06,4.889443517e-06,2.73656250e+02,7.78437500e+01,1.378357410e-07,4.284083843e-08,9.4032574059e-01,4.343038048e-10,-1.787937921e+00,-8.62821654e-09,165,374400.0,2.793967724e-09,-5.59604e-05,-5.68434e-13,0.00000,TRUE,1.458631964e-04,4.00000000e+00*649c0e2a
#RANGEA,USB3_1,0,68.5,FINESTEERING,2020,374015.000,00000000,5103,12778;8,21,0,23568397.481,0.061,-123852750.385055,0.027,2576.413,46.1,113.400,18009c04,2,0,23201715.184,0.077,-121925817.122221,0.028,-3385.981,44.6,102.180,08009c24,24,0,23256568.024,0.168,-122214069.967006,0.035,3711.502,38.8,80.860,08009c44,5,0,21393024.904,0.033,-112421086.640239,0.025,-1584.615,50.7,141.580,18009c84,29,0,23461639.551,0.052,-123291733.479530,0.027,-2532.740,47.3,116.580,08009cc4,30,0,23907421.474,0.083,-125634334.786750,0.026,-2365.767,43.2,118.520,18009ce4,15,0,20641686.457,0.034,-108472783.482801,0.026,1247.663,50.8,127.690,18009d04,13,0,20437719.416,0.038,-107400923.589094,0.027,-1219.515,49.6,130.690,08009d24*43f882cb
#SATXYZ2A,USB3_1,0,68.5,FINESTEERING,2020,374015.000,00000000,7513,12778;8,GPS,21,8240709.6017,14067733.9510,21774911.7944,-99086.272,4.978,4.968,0.0,0.0,GPS,2,-20862656.5167,14407965.3819,-6936624.5465,-4054.777,5.788,6.551,0.0,0.0,GPS,24,-13438331.6551,21433385.0943,-7685001.4505,-16773.357,5.766,6.242,0.0,0.0,GPS,5,-21068512.2095,5310131.8370,15301106.2131,-461.096,3.449,3.249,0.0,0.0,GPS,29,4448425.5909,26179053.1840,468331.2760,110453.377,6.214,6.840,0.0,0.0,GPS,30,-13805256.1250,-8449788.2299,21101518.0044,5502.557,5.821,7.804,0.0,0.0,GPS,15,-3928029.4896,21978169.1159,13850080.2129,-103351.277,3.154,2.855,0.0,0.0,GPS,13,-12840364.8416,11296548.3342,20206837.2882,-26475.348,2.900,2.648,0.0,0.0*4a5e2848
#BESTPOSA,USB3_1,0,68.5,FINESTEERING,2020,374015.000,00000000,7145,12778;SOL_COMPUTED,SINGLE,36.76878425207,126.93552955771,73.7556,23.3000,WGS84,1.2154,1.1297,2.3811,"",0.000,0.000,8,8,8,8,0,12,00,01*8f6074d0
#BESTXYZA,USB3_1,0,68.5,FINESTEERING,2020,374015.000,00000000,bde7,12778;SOL_COMPUTED,SINGLE,-3073968.7428,4088858.7647,3796927.7437,1.5691,1.9680,1.4449,SOL_COMPUTED,SINGLE,0.0000,0.0000,0.0000,0.0011,0.0011,0.0011,"",0.150,0.000,0.000,8,8,8,8,0,12,00,01*b1bb1883
#RANGEA,USB3_1,0,63.5,FINESTEERING,2020,374016.000,00000000,5103,12778;8,21,0,23567907.070,0.060,-123850173.234317,0.032,2573.393,46.3,114.400,18009c04,2,0,23202359.363,0.078,-121929202.277273,0.078,-3389.041,44.4,103.180,08009c24,24,0,23255861.552,0.171,-122210357.477798,0.096,3709.011,38.6,81.860,08009c44,5,0,21393326.319,0.033,-112422670.569299,0.074,-1587.666,50.7,142.580,18009c84,29,0,23462121.384,0.052,-123294265.573347,0.083,-2535.896,47.4,117.580,08009cc4,30,0,23907871.557,0.082,-125636699.994304,0.074,-2369.080,43.3,119.520,18009ce4,15,0,20641448.950,0.033,-108471535.359085,0.031,1244.280,50.8,128.690,18009d04,13,0,20437951.378,0.038,-107402142.555904,0.032,-1222.784,49.6,131.690,08009d24*b4bfe3bc
#SATXYZ2A,USB3_1,0,63.5,FINESTEERING,2020,374016.000,00000000,7513,12778;8,GPS,21,8238868.3838,14069549.3673,21774422.5328,-99086.268,4.977,4.968,0.0,0.0,GPS,2,-20862219.0005,14407047.5579,-6939623.7738,-4054.781,5.789,6.553,0.0,0.0,GPS,24,-13439261.9766,21433828.2548,-7682061.9457,-16773.358,5.765,6.240,0.0,0.0,GPS,5,-21070332.7745,5309378.1682,15298898.6531,-461.096,3.450,3.249,0.0,0.0,GPS,29,4448232.4692,26179146.5530,465103.7790,110453.375,6.215,6.842,0.0,0.0,GPS,30,-13803233.0246,-8451545.3596,21102121.1670,5502.556,5.821,7.806,0.0,0.0,GPS,15,-3928886.1023,21976528.5813,13852441.0514,-103351.278,3.153,2.855,0.0,0.0,GPS,13,-12840718.6444,11293982.1430,20208042.1384,-26475.348,2.900,2.648,0.0,0.0*30ddb25d
#BESTPOSA,USB3_1,0,63.5,FINESTEERING,2020,374016.000,00000000,7145,12778;SOL_COMPUTED,SINGLE,36.76878425207,126.93552955771,73.7556,23.3000,WGS84,1.2154,1.1296,2.3810,"",0.000,0.000,8,8,8,8,0,12,00,01*0430283b
#BESTXYZA,USB3_1,0,63.5,FINESTEERING,2020,374016.000,00000000,bde7,12778;SOL_COMPUTED,SINGLE,-3073968.7428,4088858.7647,3796927.7437,1.5691,1.9680,1.4448,SOL_COMPUTED,SINGLE,6.8652e-10,3.6593e-10,-3.9049e-10,0.0011,0.0011,0.0011,"",0.150,0.000,0.000,8,8,8,8,0,12,00,01*b7894f35
#RANGEA,USB3_1,0,63.5,FINESTEERING,2020,374017.000,00000000,5103,12778;8,21,0,23567416.696,0.060,-123847596.239332,0.029,2576.623,46.2,115.400,18009c04,2,0,23203003.538,0.080,-121932587.555494,0.053,-3385.716,44.1,104.180,08009c24,24,0,23255155.107,0.165,-122206645.048763,0.064,3712.360,38.8,82.860,08009c44,5,0,21393627.761,0.033,-112424254.650136,0.050,-1584.533,50.7,143.580,18009c84,29,0,23462603.238,0.052,-123296797.810041,0.055,-2532.492,47.4,118.580,08009cc4,30,0,23908321.695,0.081,-125639065.496934,0.050,-2366.015,43.3,120.520,18009ce4,15,0,20641211.500,0.033,-108470287.543897,0.029,1247.418,50.8,129.690,18009d04,13,0,20438183.392,0.038,-107403361.827184,0.030,-1219.735,49.6,132.690,08009d24*f9d9ee78
#SATXYZ2A,USB3_1,0,63.5,FINESTEERING,2020,374017.000,00000000,7513,12778;8,GPS,21,8237027.3114,14071364.8483,21773932.8400,-99086.264,4.977,4.967,0.0,0.0,GPS,2,-20861781.2713,14406129.4305,-6942622.8488,-4054.785,5.789,6.555,0.0,0.0,GPS,24,-13440192.0152,21434271.2026,-7679122.2752,-16773.359,5.764,6.238,0.0,0.0,GPS,5,-21072153.1140,5308624.6804,15296690.7681,-461.095,3.450,3.249,0.0,0.0,GPS,29,4448039.2901,26179239.5322,461876.2722,110453.373,6.216,6.843,0.0,0.0,GPS,30,-13801209.9614,-8453302.6502,21102723.8823,5502.554,5.821,7.808,0.0,0.0,GPS,15,-3929742.8887,21974887.8056,13854801.5853,-103351.279,3.153,2.855,0.0,0.0,GPS,13,-12841072.6139,11291415.8208,20209246.5544,-26475.348,2.900,2.649,0.0,0.0*788c3a80
#BESTPOSA,USB3_1,0,63.5,FINESTEERING,2020,374017.000,00000000,7145,12778;SOL_COMPUTED,SINGLE,36.76878424892,126.93552953241,73.7518,23.3000,WGS84,1.2072,1.1226,2.3696,"",0.000,0.000,8,8,8,8,0,12,00,01*9d4decbe
#BESTXYZA,USB3_1,0,63.5,FINESTEERING,2020,374017.000,00000000,bde7,12778;SOL_COMPUTED,SINGLE,-3073968.7393,4088858.7638,3796927.7412,1.5606,1.9581,1.4363,SOL_COMPUTED,SINGLE,0.0000,0.0000,0.0000,0.0011,0.0011,0.0011,"",0.150,0.000,0.000,8,8,8,8,0,12,00,01*ddc18535
#RANGEA,USB3_1,0,70.5,FINESTEERING,2020,374018.000,00000000,5103,12778;8,21,0,23566926.076,0.059,-123845018.041414,0.033,2579.804,46.3,116.400,18009c04,2,0,23203647.485,0.079,-121935971.591299,0.042,-3382.614,44.2,105.180,08009c24,24,0,23254448.420,0.173,-122202931.305254,0.103,3714.487,38.4,83.860,08009c44,5,0,21393928.976,0.033,-112425837.522676,0.040,-1581.266,50.8,144.580,18009c84,29,0,23463084.879,0.051,-123299328.860202,0.043,-2529.567,47.5,119.580,08009cc4,30,0,23908771.648,0.080,-125641429.992370,0.041,-2363.399,43.5,121.520,18009ce4,15,0,20640973.857,0.033,-108469038.691223,0.032,1250.181,51.0,130.690,18009d04,13,0,20438415.219,0.038,-107404580.053665,0.032,-1216.810,49.6,133.690,08009d24*9bf654e7
#SATXYZ2A,USB3_1,0,70.5,FINESTEERING,2020,374018.000,00000000,7513,12778;8,GPS,21,8235186.3845,14073180.3941,21773442.7161,-99086.260,4.976,4.966,0.0,0.0,GPS,2,-20861343.3290,14405210.9996,-6945621.7714,-4054.790,5.790,6.557,0.0,0.0,GPS,24,-13441121.7707,21434713.9378,-7676182.4391,-16773.359,5.763,6.236,0.0,0.0,GPS,5,-21073973.2278,5307871.3735,15294482.5582,-461.095,3.450,3.249,0.0,0.0,GPS,29,4447846.0535,26179332.1218,458648.7554,110453.371,6.216,6.845,0.0,0.0,GPS,30,-13799186.9354,-8455060.1017,21103326.1504,5502.553,5.822,7.810,0.0,0.0,GPS,15,-3930599.8490,21973246.7887,13857161.8148,-103351.280,3.153,2.855,0.0,0.0,GPS,13,-12841426.7500,11288849.3677,20210450.5362,-26475.348,2.900,2.649,0.0,0.0*31a7d654
#BESTPOSA,USB3_1,0,70.5,FINESTEERING,2020,374018.000,00000000,7145,12778;SOL_COMPUTED,SINGLE,36.76878424892,126.93552953241,73.7518,23.3000,WGS84,1.2072,1.1226,2.3696,"",0.000,0.000,8,8,8,8,0,12,00,01*cff8f021
#BESTXYZA,USB3_1,0,70.5,FINESTEERING,2020,374018.000,00000000,bde7,12778;SOL_COMPUTED,SINGLE,-3073968.7393,4088858.7638,3796927.7412,1.5606,1.9581,1.4363,SOL_COMPUTED,SINGLE,0.0000,7.3589e-10,-8.9426e-10,0.0011,0.0011,0.0011,"",0.150,0.000,0.000,8,8,8,8,0,12,00,01*98b279c3
#RANGEA,USB3_1,0,72.0,FINESTEERING,2020,374019.000,00000000,5103,12778;8,21,0,23566435.428,0.059,-123842439.688476,0.038,2579.989,46.3,117.400,18009c04,2,0,23204291.403,0.080,-121939355.453802,0.042,-3382.464,44.1,106.180,08009c24,24,0,23253741.639,0.168,-122199217.246641,0.094,3715.544,38.6,84.860,08009c44,5,0,21394230.157,0.033,-112427420.226993,0.040,-1580.820,50.8,145.580,18009c84,29,0,23463566.491,0.050,-123301859.752073,0.042,-2529.450,47.6,120.580,08009cc4,30,0,23909221.601,0.081,-125643794.518558,0.042,-2362.774,43.4,122.520,18009ce4,15,0,20640736.217,0.032,-108467789.841648,0.038,1250.416,51.0,131.690,18009d04,13,0,20438647.033,0.038,-107405798.280510,0.038,-1216.654,49.6,134.690,08009d24*c7d58bde
#SATXYZ2A,USB3_1,0,72.0,FINESTEERING,2020,374019.000,00000000,7513,12778;8,GPS,21,8233345.6031,14074996.0045,21772952.1609,-99086.255,4.975,4.965,0.0,0.0,GPS,2,-20860905.1737,14404292.2653,-6948620.5414,-4054.794,5.791,6.559,0.0,0.0,GPS,24,-13442051.2432,21435156.4602,-7673242.4373,-16773.360,5.762,6.234,0.0,0.0,GPS,5,-21075793.1160,5307118.2475,15292274.0234,-461.095,3.450,3.250,0.0,0.0,GPS,29,4447652.7594,26179424.3217,455421.2290,110453.368,6.217,6.846,0.0,0.0,GPS,30,-13797163.9468,-8456817.7141,21103927.9714,5502.551,5.822,7.812,0.0,0.0,GPS,15,-3931456.9832,21971605.5307,13859521.7396,-103351.281,3.153,2.855,0.0,0.0,GPS,13,-12841781.0530,11286282.7839,20211654.0838,-26475.349,2.900,2.649,0.0,0.0*b3d41ee0
#BESTPOSA,USB3_1,0,72.0,FINESTEERING,2020,374019.000,00000000,7145,12778;SOL_COMPUTED,SINGLE,36.76878424511,126.93552950822,73.7479,23.3000,WGS84,1.1991,1.1156,2.3583,"",0.000,0.000,8,8,8,8,0,12,00,01*e20fddf8
#BESTXYZA,USB3_1,0,72.0,FINESTEERING,2020,374019.000,00000000,bde7,12778;SOL_COMPUTED,SINGLE,-3073968.7359,4088858.7628,3796927.7385,1.5523,1.9483,1.4279,SOL_COMPUTED,SINGLE,0.0000,0.0000,0.0000,0.0011,0.0011,0.0011,"",0.150,0.000,0.000,8,8,8,8,0,12,00,01*47c01dd5
#RANGEA,USB3_1,0,69.0,FINESTEERING,2020,374020.000,00000000,5103,12778;8,21,0,23565945.040,0.061,-123839862.701793,0.033,2573.671,45.9,118.400,18009c04,2,0,23204935.563,0.079,-121942740.610227,0.068,-3388.477,44.1,107.180,08009c24,24,0,23253035.106,0.176,-122195504.424699,0.065,3710.147,38.1,85.860,08009c44,5,0,21394531.598,0.033,-112429004.294099,0.033,-1587.402,50.7,146.580,18009c84,29,0,23464048.356,0.050,-123304391.991073,0.034,-2535.765,47.6,121.580,08009cc4,30,0,23909671.822,0.085,-125646160.520675,0.035,-2369.482,42.9,123.520,18009ce4,15,0,20640498.866,0.032,-108466542.534427,0.032,1243.911,51.0,132.690,18009d04,13,0,20438879.143,0.038,-107407018.025400,0.032,-1223.253,49.6,135.690,08009d24*3f07228d
#SATXYZ2A,USB3_1,0,69.0,FINESTEERING,2020,374020.000,00000000,7513,12778;8,GPS,21,8231504.9672,14076811.6795,21772461.1746,-99086.251,4.975,4.964,0.0,0.0,GPS,2,-20860466.8056,14403373.2276,-6951619.1590,-4054.798,5.792,6.562,0.0,0.0,GPS,24,-13442980.4328,21435598.7698,-7670302.2700,-16773.361,5.761,6.232,0.0,0.0,GPS,5,-21077612.7785,5306365.3025,15290065.1638,-461.095,3.450,3.250,0.0,0.0,GPS,29,4447459.4077,26179516.1318,452193.6928,110453.366,6.217,6.848,0.0,0.0,GPS,30,-13795140.9955,-8458575.4873,21104529.3451,5502.550,5.822,7.814,0.0,0.0,GPS,15,-3932314.2913,21969964.0318,13861881.3597,-103351.281,3.152,2.855,0.0,0.0,GPS,13,-12842135.5226,11283716.0692,20212857.1971,-26475.349,2.900,2.649,0.0,0.0*50b92449
#BESTPOSA,USB3_1,0,69.0,FINESTEERING,2020,374020.000,00000000,7145,12778;SOL_COMPUTED,SINGLE,36.76878424511,126.93552950822,73.7479,23.3000,WGS84,1.1991,1.1156,2.3584,"",0.000,0.000,8,8,8,8,0,12,00,01*d1b0c9cd
#BESTXYZA,USB3_1,0,69.0,FINESTEERING,2020,374020.000,00000000,bde7,12778;SOL_COMPUTED,SINGLE,-3073968.7359,4088858.7628,3796927.7385,1.5523,1.9483,1.4279,SOL_COMPUTED,SINGLE,0.0000,0.0000,0.0000,0.0011,0.0011,0.0011,"",0.150,0.000,0.000,8,8,8,8,0,12,00,01*4606bc39
#RANGEA,USB3_1,0,69.0,FINESTEERING,2020,374021.000,00000000,5103,12778;8,21,0,23565454.941,0.061,-123837287.206003,0.031,2574.339,45.9,119.400,18009c04,2,0,23205580.003,0.081,-121946127.235721,0.048,-3387.491,43.8,108.180,08009c24,24,0,23252328.866,0.170,-122191793.020950,0.048,3710.340,38.4,86.860,08009c44,5,0,21394833.322,0.033,-112430589.823043,0.030,-1586.107,50.7,147.580,18009c84,29,0,23464530.506,0.051,-123306925.706420,0.031,-2534.691,47.4,122.580,08009cc4,30,0,23910122.382,0.084,-125648528.200326,0.033,-2368.804,42.9,124.520,18009ce4,15,0,20640261.829,0.032,-108465296.865467,0.030,1244.599,51.1,133.690,18009d04,13,0,20439111.568,0.038,-107408239.400314,0.030,-1222.436,49.6,136.690,08009d24*80fcc8db
#SATXYZ2A,USB3_1,0,69.0,FINESTEERING,2020,374021.000,00000000,7513,12778;8,GPS,21,8229664.4770,14078627.4192,21771969.7572,-99086.247,4.974,4.963,0.0,0.0,GPS,2,-20860028.2245,14402453.8863,-6954617.6239,-4054.803,5.792,6.564,0.0,0.0,GPS,24,-13443909.3394,21436040.8665,-7667361.9373,-16773.361,5.760,6.231,0.0,0.0,GPS,5,-21079432.2152,5305612.5383,15287855.9794,-461.095,3.450,3.250,0.0,0.0,GPS,29,4447265.9984,26179607.5523,448966.1470,110453.364,6.218,6.850,0.0,0.0,GPS,30,-13793118.0817,-8460333.4213,21105130.2715,5502.548,5.823,7.816,0.0,0.0,GPS,15,-3933171.7733,21968322.2919,13864240.6752,-103351.282,3.152,2.855,0.0,0.0,GPS,13,-12842490.1591,11281149.2239,20214059.8761,-26475.349,2.900,2.649,0.0,0.0*b72bd7a8
#BESTPOSA,USB3_1,0,69.0,FINESTEERING,2020,374021.000,00000000,7145,12778;SOL_COMPUTED,SINGLE,36.76878424511,126.93552950822,73.7479,23.3000,WGS84,1.1991,1.1156,2.3584,"",0.000,0.000,8,8,8,8,0,12,00,01*6d466c02
#BESTXYZA,USB3_1,0,69.0,FINESTEERING,2020,374021.000,00000000,bde7,12778;SOL_COMPUTED,SINGLE,-3073968.7359,4088858.7628,3796927.7385,1.5523,1.9483,1.4279,SOL_COMPUTED,SINGLE,6.7265e-10,3.6975e-10,-5.4760e-10,0.0011,0.0011,0.0011,"",0.150,0.000,0.000,8,8,8,8,0,12,00,01*a353412b
#RANGEA,USB3_1,0,70.5,FINESTEERING,2020,374022.000,00000000,5103,12778;8,21,0,23564964.912,0.060,-123834712.069055,0.030,2574.591,46.1,120.400,18009c04,2,0,23206224.509,0.078,-121949514.191974,0.038,-3387.478,44.1,109.180,08009c24,24,0,23251622.654,0.172,-122188081.855440,0.108,3710.297,38.2,87.860,08009c44,5,0,21395135.116,0.033,-112432175.726749,0.030,-1586.429,50.7,148.580,18009c84,29,0,23465012.730,0.049,-123309459.792367,0.030,-2534.469,47.6,123.580,08009cc4,30,0,23910573.037,0.085,-125650896.423275,0.030,-2368.808,42.8,125.520,18009ce4,15,0,20640024.892,0.031,-108464051.739019,0.029,1244.578,51.2,134.690,18009d04,13,0,20439344.088,0.038,-107409461.297079,0.030,-1222.406,49.6,137.690,08009d24*3579a417
#SATXYZ2A,USB3_1,0,70.5,FINESTEERING,2020,374022.000,00000000,7513,12778;8,GPS,21,8227824.1324,14080443.2233,21771477.9086,-99086.243,4.973,4.963,0.0,0.0,GPS,2,-20859589.4307,14401534.2416,-6957615.9362,-4054.807,5.793,6.566,0.0,0.0,GPS,24,-13444837.9630,21436482.7503,-7664421.4391,-16773.362,5.759,6.229,0.0,0.0,GPS,5,-21081251.4261,5304859.9550,15285646.4702,-461.095,3.450,3.250,0.0,0.0,GPS,29,4447072.5314,26179698.5832,445738.5917,110453.362,6.219,6.851,0.0,0.0,GPS,30,-13791095.2054,-8462091.5160,21105730.7507,5502.547,5.823,7.818,0.0,0.0,GPS,15,-3934029.4291,21966680.3110,13866599.6859,-103351.283,3.152,2.854,0.0,0.0,GPS,13,-12842844.9623,11278582.2480,20215262.1208,-26475.349,2.900,2.649,0.0,0.0*be342f96
#BESTPOSA,USB3_1,0,70.5,FINESTEERING,2020,374022.000,00000000,7145,12778;SOL_COMPUTED,SINGLE,36.76878424129,126.93552948601,73.7437,23.3000,WGS84,1.1913,1.1088,2.3473,"",0.000,0.000,8,8,8,8,0,12,00,01*67f93974
#BESTXYZA,USB3_1,0,70.5,FINESTEERING,2020,374022.000,00000000,bde7,12778;SOL_COMPUTED,SINGLE,-3073968.7324,4088858.7615,3796927.7356,1.5441,1.9387,1.4197,SOL_COMPUTED,SINGLE,0.0000,0.0000,0.0000,0.0011,0.0011,0.0011,"",0.150,0.000,0.000,8,8,8,8,0,12,00,01*7c5b1df0
#RANGEA,USB3_1,0,69.5,FINESTEERING,2020,374023.000,00000000,5103,12778;8,21,0,23564474.913,0.057,-123832137.113246,0.100,2575.673,46.3,121.400,18009c04,2,0,23206869.038,0.079,-121952901.273172,0.090,-3386.122,44.0,110.180,08009c24,24,0,23250916.428,0.158,-122184370.672050,0.072,3711.873,38.9,88.860,08009c44,5,0,21395436.937,0.033,-112433761.781879,0.033,-1585.261,50.6,149.580,18009c84,29,0,23465494.984,0.049,-123311994.047578,0.033,-2533.312,47.6,124.580,08009cc4,30,0,23911023.748,0.085,-125653264.974828,0.092,-2367.503,42.8,126.520,18009ce4,15,0,20639788.021,0.031,-108462806.946014,0.032,1245.665,51.2,135.690,18009d04,13,0,20439576.673,0.038,-107410683.513219,0.033,-1221.299,49.7,138.690,08009d24*252aa2e3
#SATXYZ2A,USB3_1,0,69.5,FINESTEERING,2020,374023.000,00000000,7513,12778;8,GPS,21,8225983.9335,14082259.0920,21770985.6288,-99086.239,4.973,4.962,0.0,0.0,GPS,2,-20859150.4240,14400614.2933,-6960614.0957,-4054.811,5.794,6.568,0.0,0.0,GPS,24,-13445766.3038,21436924.4212,-7661480.7756,-16773.362,5.758,6.227,0.0,0.0,GPS,5,-21083070.4111,5304107.5525,15283436.6363,-461.095,3.451,3.251,0.0,0.0,GPS,29,4446879.0067,26179789.2243,442511.0269,110453.359,6.219,6.853,0.0,0.0,GPS,30,-13789072.3666,-8463849.7715,21106330.7826,5502.545,5.823,7.820,0.0,0.0,GPS,15,-3934887.2590,21965038.0894,13868958.3918,-103351.284,3.152,2.854,0.0,0.0,GPS,13,-12843199.9323,11276015.1416,20216463.9312,-26475.349,2.900,2.649,0.0,0.0*a94ff810
#BESTPOSA,USB3_1,0,69.5,FINESTEERING,2020,374023.000,00000000,7145,12778;SOL_COMPUTED,SINGLE,36.76878424129,126.93552948601,73.7437,23.3000,WGS84,1.1913,1.1088,2.3473,"",0.000,0.000,8,8,8,8,0,12,00,01*cb57b5b6
#BESTXYZA,USB3_1,0,69.5,FINESTEERING,2020,374023.000,00000000,bde7,12778;SOL_COMPUTED,SINGLE,-3073968.7324,4088858.7615,3796927.7356,1.5441,1.9387,1.4197,SOL_COMPUTED,SINGLE,0.0000,6.1383e-10,0.0000,0.0011,0.0011,0.0011,"",0.150,0.000,0.000,8,8,8,8,0,12,00,01*17846aef
#RANGEA,USB3_1,0,69.0,FINESTEERING,2020,374024.000,00000000,5103,12778;8,21,0,23563984.972,0.061,-123829562.444229,0.066,2574.232,45.9,122.400,18009c04,2,0,23207513.638,0.078,-121956288.622261,0.061,-3387.640,44.1,111.180,08009c24,24,0,23250210.266,0.165,-122180659.705648,0.053,3710.865,38.5,89.860,08009c44,5,0,21395738.813,0.033,-112435348.145851,0.033,-1586.715,50.7,150.580,18009c84,29,0,23465977.301,0.048,-123314528.614709,0.087,-2534.900,47.7,125.580,08009cc4,30,0,23911474.541,0.089,-125655634.015068,0.083,-2369.651,42.3,127.520,18009ce4,15,0,20639551.240,0.031,-108461562.619312,0.032,1243.978,51.2,136.690,18009d04,13,0,20439809.338,0.038,-107411906.190362,0.033,-1222.965,49.6,139.690,08009d24*ac0f7ee3
#SATXYZ2A,USB3_1,0,69.0,FINESTEERING,2020,374024.000,00000000,7513,12778;8,GPS,21,8224143.8802,14084075.0251,21770492.9180,-99086.235,4.972,4.961,0.0,0.0,GPS,2,-20858711.2047,14399694.0415,-6963612.1024,-4054.816,5.795,6.570,0.0,0.0,GPS,24,-13446694.3616,21437365.8791,-7658539.9469,-16773.363,5.757,6.225,0.0,0.0,GPS,5,-21084889.1701,5303355.3309,15281226.4778,-461.094,3.451,3.251,0.0,0.0,GPS,29,4446685.4242,26179879.4758,439283.4526,110453.357,6.220,6.854,0.0,0.0,GPS,30,-13787049.5655,-8465608.1877,21106930.3672,5502.544,5.824,7.821,0.0,0.0,GPS,15,-3935745.2628,21963395.6269,13871316.7928,-103351.285,3.151,2.854,0.0,0.0,GPS,13,-12843555.0691,11273447.9046,20217665.3072,-26475.349,2.900,2.650,0.0,0.0*414000bd
#BESTPOSA,USB3_1,0,69.0,FINESTEERING,2020,374024.000,00000000,7145,12778;SOL_COMPUTED,SINGLE,36.76878423756,126.93552946607,73.7392,23.3000,WGS84,1.1835,1.1021,2.3363,"",0.000,0.000,8,8,8,8,0,12,00,01*cec4d232
#BESTXYZA,USB3_1,0,69.0,FINESTEERING,2020,374024.000,00000000,bde7,12778;SOL_COMPUTED,SINGLE,-3073968.7289,4088858.7599,3796927.7326,1.5361,1.9292,1.4116,SOL_COMPUTED,SINGLE,0.0000,0.0000,0.0000,0.0011,0.0011,0.0011,"",0.150,0.000,0.000,8,8,8,8,0,12,00,01*1db90dbf
#RANGEA,USB3_1,0,69.0,FINESTEERING,2020,374025.000,00000000,5103,12778;8,21,0,23563494.509,0.060,-123826985.009319,0.085,2575.794,45.9,123.400,18009c04,2,0,23208157.697,0.078,-121959673.149555,0.088,-3385.993,44.0,112.180,08009c24,24,0,23249503.556,0.157,-122176945.855680,0.091,3712.370,38.9,90.860,08009c44,5,0,21396040.156,0.033,-112436931.698761,0.035,-1585.167,50.7,151.580,18009c84,29,0,23466459.086,0.048,-123317060.387672,0.060,-2533.348,47.7,126.580,08009cc4,30,0,23911924.838,0.086,-125658000.427482,0.094,-2367.861,42.7,128.520,18009ce4,15,0,20639313.964,0.032,-108460315.675457,0.034,1245.368,51.1,137.690,18009d04,13,0,20440041.503,0.038,-107413126.230516,0.035,-1221.539,49.6,140.690,08009d24*0cb76e02
#SATXYZ2A,USB3_1,0,69.0,FINESTEERING,2020,374025.000,00000000,7513,12778;8,GPS,21,8222303.9728,14085891.0225,21769999.7760,-99086.230,4.971,4.960,0.0,0.0,GPS,2,-20858271.7726,14398773.4861,-6966609.9563,-4054.820,5.796,6.572,0.0,0.0,GPS,24,-13447622.1365,21437807.1240,-7655598.9529,-16773.364,5.756,6.223,0.0,0.0,GPS,5,-21086707.7032,5302603.2901,15279015.9947,-461.094,3.451,3.251,0.0,0.0,GPS,29,4446491.7838,26179969.3377,436055.8690,110453.355,6.220,6.856,0.0,0.0,GPS,30,-13785026.8019,-8467366.7645,21107529.5046,5502.542,5.824,7.823,0.0,0.0,GPS,15,-3936603.4406,21961752.9236,13873674.8890,-103351.285,3.151,2.854,0.0,0.0,GPS,13,-12843910.3727,11270880.5373,20218866.2488,-26475.349,2.900,2.650,0.0,0.0*6ce07d63
#BESTPOSA,USB3_1,0,69.0,FINESTEERING,2020,374025.000,00000000,7145,12778;SOL_COMPUTED,SINGLE,36.76878423756,126.93552946607,73.7392,23.3000,WGS84,1.1835,1.1021,2.3363,"",0.000,0.000,8,8,8,8,0,12,00,01*723277fd
#BESTXYZA,USB3_1,0,69.0,FINESTEERING,2020,374025.000,00000000,bde7,12778;SOL_COMPUTED,SINGLE,-3073968.7289,4088858.7599,3796927.7326,1.5361,1.9292,1.4116,SOL_COMPUTED,SINGLE,0.0000,0.0000,0.0000,0.0011,0.0011,0.0011,"",0.150,0.000,0.000,8,8,8,8,0,12,00,01*7592d0f0
#RANGEA,USB3_1,0,69.0,FINESTEERING,2020,374026.000,00000000,5103,12778;8,21,0,23563004.504,0.060,-123824409.980142,0.059,2571.345,45.9,124.400,18009c04,2,0,23208802.214,0.078,-121963060.083936,0.062,-3390.907,44.0,113.180,08009c24,24,0,23248797.259,0.157,-122173234.276115,0.062,3708.262,38.8,91.860,08009c44,5,0,21396341.966,0.033,-112438517.675617,0.036,-1589.647,50.7,152.580,18009c84,29,0,23466941.334,0.048,-123319594.581625,0.047,-2537.805,47.7,127.580,08009cc4,30,0,23912375.630,0.086,-125660369.434431,0.064,-2372.515,42.6,129.520,18009ce4,15,0,20639077.174,0.031,-108459071.311956,0.036,1240.594,51.3,138.690,18009d04,13,0,20440274.164,0.038,-107414348.862894,0.036,-1226.410,49.6,141.690,08009d24*fcab15de
#SATXYZ2A,USB3_1,0,69.0,FINESTEERING,2020,374026.000,00000000,7513,12778;8,GPS,21,8220464.2111,14087707.0843,21769506.2029,-99086.226,4.971,4.959,0.0,0.0,GPS,2,-20857832.1280,14397852.6271,-6969607.6572,-4054.824,5.796,6.574,0.0,0.0,GPS,24,-13448549.6286,21438248.1557,-7652657.7937,-16773.364,5.755,6.221,0.0,0.0,GPS,5,-21088526.0103,5301851.4300,15276805.1871,-461.094,3.451,3.251,0.0,0.0,GPS,29,4446298.0856,26180058.8099,432828.2761,110453.353,6.221,6.857,0.0,0.0,GPS,30,-13783004.0761,-8469125.5019,21108128.1946,5502.541,5.824,7.825,0.0,0.0,GPS,15,-3937461.7924,21960109.9797,13876032.6801,-103351.286,3.151,2.854,0.0,0.0,GPS,13,-12844265.8431,11268313.0395,20220066.7560,-26475.349,2.900,2.650,0.0,0.0*61337ac8
#BESTPOSA,USB3_1,0,69.0,FINESTEERING,2020,374026.000,00000000,7145,12778;SOL_COMPUTED,SINGLE,36.76878423756,126.93552946607,73.7392,23.3000,WGS84,1.1836,1.1021,2.3363,"",0.000,0.000,8,8,8,8,0,12,00,01*26c1e899
#BESTXYZA,USB3_1,0,69.0,FINESTEERING,2020,374026.000,00000000,bde7,12778;SOL_COMPUTED,SINGLE,-3073968.7289,4088858.7599,3796927.7326,1.5361,1.9292,1.4116,SOL_COMPUTED,SINGLE,5.8469e-10,3.6342e-10,-5.4514e-10,0.0011,0.0011,0.0011,"",0.150,0.000,0.000,8,8,8,8,0,12,00,01*56a0d67a
#RANGEA,USB3_1,0,70.5,FINESTEERING,2020,374027.000,00000000,5103,12778;8,21,0,23562514.855,0.059,-123821836.829492,0.047,2571.091,46.0,125.400,18009c04,2,0,23209447.066,0.079,-121966448.827531,0.049,-3390.752,43.9,114.180,08009c24,24,0,23248091.296,0.154,-122169524.477178,0.050,3707.547,38.9,92.860,08009c44,5,0,21396644.125,0.033,-112440105.521650,0.038,-1590.074,50.8,153.580,18009c84,29,0,23467423.935,0.048,-123322130.643030,0.042,-2538.206,47.6,128.580,08009cc4,30,0,23912826.814,0.087,-125662740.487659,0.050,-2373.397,42.5,130.520,18009ce4,15,0,20638840.776,0.031,-108457828.999141,0.037,1239.956,51.3,139.690,18009d04,13,0,20440507.205,0.038,-107415573.525802,0.038,-1226.935,49.6,142.690,08009d24*8ee55552
#SATXYZ2A,USB3_1,0,70.5,FINESTEERING,2020,374027.000,00000000,7513,12778;8,GPS,21,8218624.5952,14089523.2104,21769012.1987,-99086.222,4.970,4.958,0.0,0.0,GPS,2,-20857392.2707,14396931.4646,-6972605.2051,-4054.829,5.797,6.576,0.0,0.0,GPS,24,-13449476.8378,21438688.9743,-7649716.4695,-16773.365,5.754,6.220,0.0,0.0,GPS,5,-21090344.0913,5301099.7508,15274594.0549,-461.094,3.451,3.252,0.0,0.0,GPS,29,4446104.3294,26180147.8925,429600.6740,110453.350,6.222,6.859,0.0,0.0,GPS,30,-13780981.3881,-8470884.4000,21108726.4373,5502.539,5.825,7.827,0.0,0.0,GPS,15,-3938320.3182,21958466.7951,13878390.1663,-103351.287,3.151,2.854,0.0,0.0,GPS,13,-12844621.4804,11265745.4115,20221266.8287,-26475.349,2.900,2.650,0.0,0.0*f4387cc3
#BESTPOSA,USB3_1,0,70.5,FINESTEERING,2020,374027.000,00000000,7145,12778;SOL_COMPUTED,SINGLE,36.76878423461,126.93552944908,73.7344,23.3000,WGS84,1.1760,1.0955,2.3255,"",0.000,0.000,8,8,8,8,0,12,00,01*5e2661d1
#BESTXYZA,USB3_1,0,70.5,FINESTEERING,2020,374027.000,00000000,bde7,12778;SOL_COMPUTED,SINGLE,-3073968.7256,4088858.7579,3796927.7295,1.5282,1.9198,1.4036,SOL_COMPUTED,SINGLE,0.0000,0.0000,0.0000,0.0011,0.0011,0.0011,"",0.150,0.000,0.000,8,8,8,8,0,12,00,01*f6915f76
#RANGEA,USB3_1,0,70.5,FINESTEERING,2020,374028.000,00000000,5103,12778;8,21,0,23562025.536,0.059,-123819265.443799,0.040,2572.583,46.0,126.400,18009c04,2,0,23210092.259,0.079,-121969839.293350,0.042,-3389.369,43.9,115.180,08009c24,24,0,23247385.641,0.148,-122165816.264858,0.099,3709.461,39.3,93.860,08009c44,5,0,21396946.616,0.033,-112441695.107151,0.036,-1588.674,50.8,154.580,18009c84,29,0,23467906.870,0.048,-123324668.478199,0.038,-2536.504,47.6,129.580,08009cc4,30,0,23913278.355,0.086,-125665113.466831,0.042,-2371.619,42.6,131.520,18009ce4,15,0,20638604.744,0.031,-108456588.599193,0.036,1241.625,51.2,140.690,18009d04,13,0,20440740.615,0.038,-107416800.122131,0.036,-1225.343,49.6,143.690,08009d24*d8e6719c
#SATXYZ2A,USB3_1,0,70.5,FINESTEERING,2020,374028.000,00000000,7513,12778;8,GPS,21,8216785.1252,14091339.4008,21768517.7634,-99086.218,4.970,4.958,0.0,0.0,GPS,2,-20856952.2009,14396009.9984,-6975602.5999,-4054.833,5.798,6.579,0.0,0.0,GPS,24,-13450403.7641,21439129.5797,-7646774.9803,-16773.366,5.753,6.218,0.0,0.0,GPS,5,-21092161.9461,5300348.2522,15272382.5983,-461.094,3.451,3.252,0.0,0.0,GPS,29,4445910.5152,26180236.5854,426373.0628,110453.348,6.222,6.861,0.0,0.0,GPS,30,-13778958.7379,-8472643.4586,21109324.2327,5502.538,5.825,7.829,0.0,0.0,GPS,15,-3939179.0181,21956823.3700,13880747.3473,-103351.288,3.150,2.853,0.0,0.0,GPS,13,-12844977.2846,11263177.6533,20222466.4670,-26475.349,2.900,2.650,0.0,0.0*10a56ae9
#BESTPOSA,USB3_1,0,70.5,FINESTEERING,2020,374028.000,00000000,7145,12778;SOL_COMPUTED,SINGLE,36.76878423461,126.93552944908,73.7344,23.3000,WGS84,1.1760,1.0955,2.3255,"",0.000,0.000,8,8,8,8,0,12,00,01*39e72981
#BESTXYZA,USB3_1,0,70.5,FINESTEERING,2020,374028.000,00000000,bde7,12778;SOL_COMPUTED,SINGLE,-3073968.7256,4088858.7579,3796927.7295,1.5282,1.9198,1.4036,SOL_COMPUTED,SINGLE,0.0000,5.5493e-10,0.0000,0.0011,0.0011,0.0011,"",0.150,0.000,0.000,8,8,8,8,0,12,00,01*c6909f2c
#RANGEA,USB3_1,0,71.5,FINESTEERING,2020,374029.000,00000000,5103,12778;8,21,0,23561535.631,0.059,-123816691.029197,0.031,2571.708,46.0,127.400,18009c04,2,0,23210736.866,0.079,-121973226.730640,0.033,-3389.849,43.8,116.180,08009c24,24,0,23246679.436,0.155,-122162104.959432,0.065,3708.839,38.8,94.860,08009c44,5,0,21397248.539,0.033,-112443281.683437,0.030,-1589.240,50.8,155.580,18009c84,29,0,23468389.229,0.048,-123327203.256465,0.030,-2537.388,47.6,130.580,08009cc4,30,0,23913729.367,0.082,-125667483.603876,0.034,-2373.127,42.9,132.520,18009ce4,15,0,20638368.166,0.032,-108455345.329174,0.030,1240.657,51.1,141.690,18009d04,13,0,20440973.473,0.037,-107418023.839609,0.029,-1226.465,49.7,144.690,08009d24*4e71a3d3
#SATXYZ2A,USB3_1,0,71.5,FINESTEERING,2020,374029.000,00000000,7513,12778;8,GPS,21,8214945.8010,14093155.6553,21768022.8970,-99086.214,4.969,4.957,0.0,0.0,GPS,2,-20856511.9186,14395088.2286,-6978599.8415,-4054.837,5.799,6.581,0.0,0.0,GPS,24,-13451330.4076,21439569.9719,-7643833.3260,-16773.366,5.752,6.216,0.0,0.0,GPS,5,-21093979.5747,5299596.9344,15270170.8173,-461.094,3.451,3.252,0.0,0.0,GPS,29,4445716.6429,26180324.8888,423145.4425,110453.346,6.223,6.862,0.0,0.0,GPS,30,-13776936.1256,-8474402.6777,21109921.5807,5502.536,5.825,7.831,0.0,0.0,GPS,15,-3940037.8920,21955179.7042,13883104.2233,-103351.288,3.150,2.853,0.0,0.0,GPS,13,-12845333.2556,11260609.7650,20223665.6708,-26475.350,2.900,2.650,0.0,0.0*1a4d5d4b
#BESTPOSA,USB3_1,0,71.5,FINESTEERING,2020,374029.000,00000000,7145,12778;SOL_COMPUTED,SINGLE,36.76878423404,126.93552943406,73.7294,23.3000,WGS84,1.1686,1.0890,2.3149,"",0.000,0.000,8,8,8,8,0,12,00,01*f639df52
#BESTXYZA,USB3_1,0,71.5,FINESTEERING,2020,374029.000,00000000,bde7,12778;SOL_COMPUTED,SINGLE,-3073968.7221,4088858.7555,3796927.7264,1.5204,1.9106,1.3958,SOL_COMPUTED,SINGLE,0.0000,0.0000,0.0000,0.0011,0.0011,0.0011,"",0.150,0.000,0.000,8,8,8,8,0,12,00,01*f0271674
#RANGEA,USB3_1,0,70.5,FINESTEERING,2020,374030.000,00000000,5103,12778;8,21,0,23561045.757,0.059,-123814116.757036,0.029,2573.735,45.9,128.400,18009c04,2,0,23211381.482,0.077,-121976614.267198,0.029,-3388.304,44.0,117.180,08009c24,24,0,23245973.207,0.152,-122158393.692052,0.048,3710.711,38.9,95.860,08009c44,5,0,21397550.483,0.033,-112444868.380189,0.027,-1587.330,50.8,156.580,18009c84,29,0,23468871.620,0.047,-123329738.200056,0.027,-2535.743,47.7,131.580,08009cc4,30,0,23914180.452,0.081,-125669854.038101,0.032,-2371.308,43.0,133.520,18009ce4,15,0,20638131.646,0.032,-108454102.380914,0.027,1242.139,51.1,142.690,18009d04,13,0,20441206.390,0.037,-107419247.859323,0.027,-1224.783,49.8,145.690,08009d24*761b0b4a
#SATXYZ2A,USB3_1,0,70.5,FINESTEERING,2020,374030.000,00000000,7513,12778;8,GPS,21,8213106.6228,14094971.9740,21767527.5996,-99086.210,4.968,4.956,0.0,0.0,GPS,2,-20856071.4239,14394166.1552,-6981596.9300,-4054.842,5.799,6.583,0.0,0.0,GPS,24,-13452256.7683,21440010.1508,-7640891.5069,-16773.367,5.751,6.214,0.0,0.0,GPS,5,-21095796.9771,5298845.7973,15267958.7119,-461.093,3.451,3.252,0.0,0.0,GPS,29,4445522.7125,26180412.8025,419917.8132,110453.344,6.223,6.864,0.0,0.0,GPS,30,-13774913.5512,-8476162.0573,21110518.4813,5502.535,5.826,7.833,0.0,0.0,GPS,15,-3940896.9401,21953535.7980,13885460.7941,-103351.289,3.150,2.853,0.0,0.0,GPS,13,-12845689.3935,11258041.7465,20224864.4400,-26475.350,2.900,2.650,0.0,0.0*cd581321
#BESTPOSA,USB3_1,0,70.5,FINESTEERING,2020,374030.000,00000000,7145,12778;SOL_COMPUTED,SINGLE,36.76878423404,126.93552943406,73.7294,23.3000,WGS84,1.1686,1.0891,2.3149,"",0.000,0.000,8,8,8,8,0,12,00,01*d9c2b057
#BESTXYZA,USB3_1,0,70.5,FINESTEERING,2020,374030.000,00000000,bde7,12778;SOL_COMPUTED,SINGLE,-3073968.7221,4088858.7555,3796927.7264,1.5204,1.9106,1.3958,SOL_COMPUTED,SINGLE,0.0000,7.8193e-10,0.0000,0.0011,0.0011,0.0011,"",0.150,0.000,0.000,8,8,8,8,0,12,00,01*b196a0f9
#RANGEA,USB3_1,0,70.5,FINESTEERING,2020,374031.000,00000000,5103,12778;8,21,0,23560555.940,0.060,-123811542.777994,0.036,2570.623,45.8,129.400,18009c04,2,0,23212026.153,0.077,-121980002.013181,0.038,-3390.985,44.0,118.180,08009c24,24,0,23245266.990,0.152,-122154682.561489,0.043,3707.627,38.8,96.860,08009c44,5,0,21397852.477,0.033,-112446455.360694,0.036,-1590.508,50.8,157.580,18009c84,29,0,23469354.061,0.047,-123332273.415691,0.037,-2538.492,47.6,132.580,08009cc4,30,0,23914631.615,0.080,-125672224.914056,0.038,-2374.288,43.0,134.520,18009ce4,15,0,20637895.212,0.032,-108452859.868360,0.037,1239.088,51.1,143.690,18009d04,13,0,20441439.396,0.037,-107420472.312244,0.037,-1227.865,49.7,146.690,08009d24*4e8fda02
#SATXYZ2A,USB3_1,0,70.5,FINESTEERING,2020,374031.000,00000000,7513,12778;8,GPS,21,8211267.5906,14096788.3568,21767031.8711,-99086.205,4.968,4.955,0.0,0.0,GPS,2,-20855630.7168,14393243.7781,-6984593.8652,-4054.846,5.800,6.585,0.0,0.0,GPS,24,-13453182.8462,21440450.1163,-7637949.5230,-16773.367,5.750,6.212,0.0,0.0,GPS,5,-21097614.1531,5298094.8409,15265746.2822,-461.093,3.452,3.252,0.0,0.0,GPS,29,4445328.7239,26180500.3266,416690.1749,110453.341,6.224,6.865,0.0,0.0,GPS,30,-13772891.0147,-8477921.5973,21111114.9346,5502.533,5.826,7.835,0.0,0.0,GPS,15,-3941756.1622,21951891.6514,13887817.0596,-103351.290,3.150,2.853,0.0,0.0,GPS,13,-12846045.6982,11255473.5980,20226062.7747,-26475.350,2.900,2.651,0.0,0.0*47aef9d5
#BESTPOSA,USB3_1,0,70.5,FINESTEERING,2020,374031.000,00000000,7145,12778;SOL_COMPUTED,SINGLE,36.76878423404,126.93552943406,73.7294,23.3000,WGS84,1.1686,1.0891,2.3149,"",0.000,0.000,8,8,8,8,0,12,00,01*65341598
#BESTXYZA,USB3_1,0,70.5,FINESTEERING,2020,374031.000,00000000,bde7,12778;SOL_COMPUTED,SINGLE,-3073968.7221,4088858.7555,3796927.7264,1.5204,1.9106,1.3958,SOL_COMPUTED,SINGLE,5.5714e-10,2.0360e-10,-5.5514e-10,0.0011,0.0011,0.0011,"",0.150,0.000,0.000,8,8,8,8,0,12,00,01*b196a6a9
#RANGEA,USB3_1,0,70.5,FINESTEERING,2020,374032.000,00000000,5103,12778;8,21,0,23560066.605,0.059,-123808971.319221,0.033,2570.009,45.9,130.400,18009c04,2,0,23212671.285,0.076,-121983392.289745,0.032,-3391.834,43.9,119.180,08009c24,24,0,23244561.268,0.154,-122150973.836673,0.038,3707.199,38.7,97.860,08009c44,5,0,21398154.952,0.033,-112448044.847480,0.031,-1590.813,50.8,158.580,18009c84,29,0,23469836.986,0.047,-123334811.152206,0.032,-2539.140,47.7,133.580,08009cc4,30,0,23915083.287,0.081,-125674598.497940,0.033,-2375.108,43.0,135.520,18009ce4,15,0,20637659.287,0.032,-108451620.036132,0.032,1238.428,51.1,144.690,18009d04,13,0,20441672.913,0.037,-107421699.430681,0.033,-1228.582,49.7,147.690,08009d24*760bb356
#SATXYZ2A,USB3_1,0,70.5,FINESTEERING,2020,374032.000,00000000,7513,12778;8,GPS,21,8209428.7043,14098604.8036,21766535.7116,-99086.201,4.967,4.954,0.0,0.0,GPS,2,-20855189.7974,14392321.0973,-6987590.6470,-4054.850,5.801,6.587,0.0,0.0,GPS,24,-13454108.6413,21440889.8684,-7635007.3742,-16773.368,5.748,6.210,0.0,0.0,GPS,5,-21099431.1028,5297344.0651,15263533.5283,-461.093,3.452,3.253,0.0,0.0,GPS,29,4445134.6772,26180587.4611,413462.5278,110453.339,6.225,6.867,0.0,0.0,GPS,30,-13770868.5164,-8479681.2978,21111710.9405,5502.532,5.826,7.837,0.0,0.0,GPS,15,-3942615.5585,21950247.2644,13890173.0199,-103351.291,3.150,2.853,0.0,0.0,GPS,13,-12846402.1699,11252905.3196,20227260.6749,-26475.350,2.900,2.651,0.0,0.0*0f95e2e8
#BESTPOSA,USB3_1,0,70.5,FINESTEERING,2020,374032.000,00000000,7145,12778;SOL_COMPUTED,SINGLE,36.76878423369,126.93552942046,73.7242,23.3000,WGS84,1.1613,1.0827,2.3044,"",0.000,0.000,8,8,8,8,0,12,00,01*fb112238
#BESTXYZA,USB3_1,0,70.5,FINESTEERING,2020,374032.000,00000000,bde7,12778;SOL_COMPUTED,SINGLE,-3073968.7186,4088858.7530,3796927.7233,1.5128,1.9015,1.3881,SOL_COMPUTED,SINGLE,0.0000,0.0000,0.0000,0.0011,0.0011,0.0011,"",0.150,0.000,0.000,8,8,8,8,0,12,00,01*0c1c3722
#RANGEA,USB3_1,0,71.0,FINESTEERING,2020,374033.000,00000000,5103,12778;8,21,0,23559577.558,0.058,-123806401.406345,0.037,2568.900,45.9,131.400,18009c04,2,0,23213316.711,0.080,-121986784.073022,0.095,-3392.582,43.6,120.180,08009c24,24,0,23243855.812,0.155,-122147266.524473,0.080,3706.733,38.6,98.860,08009c44,5,0,21398457.718,0.033,-112449635.885156,0.036,-1592.107,50.8,159.580,18009c84,29,0,23470320.208,0.046,-123337350.445785,0.036,-2540.323,47.8,134.580,08009cc4,30,0,23915535.299,0.081,-125676973.799749,0.037,-2376.265,43.0,136.520,18009ce4,15,0,20637423.690,0.032,-108450381.933900,0.097,1237.213,51.1,145.690,18009d04,13,0,20441906.749,0.037,-107422928.259979,0.037,-1229.791,49.7,148.690,08009d24*e6fac3cf
#SATXYZ2A,USB3_1,0,71.0,FINESTEERING,2020,374033.000,00000000,7513,12778;8,GPS,21,8207589.9641,14100421.3145,21766039.1210,-99086.197,4.966,4.953,0.0,0.0,GPS,2,-20854748.6657,14391398.1129,-6990587.2755,-4054.854,5.802,6.589,0.0,0.0,GPS,24,-13455034.1536,21441329.4071,-7632065.0608,-16773.369,5.747,6.209,0.0,0.0,GPS,5,-21101247.8261,5296593.4700,15261320.4501,-461.093,3.452,3.253,0.0,0.0,GPS,29,4444940.5721,26180674.2060,410234.8719,110453.337,6.225,6.868,0.0,0.0,GPS,30,-13768846.0561,-8481441.1587,21112306.4989,5502.531,5.827,7.839,0.0,0.0,GPS,15,-3943475.1289,21948602.6371,13892528.6749,-103351.292,3.149,2.853,0.0,0.0,GPS,13,-12846758.8085,11250336.9113,20228458.1404,-26475.350,2.900,2.651,0.0,0.0*00dd8db2
#BESTPOSA,USB3_1,0,71.0,FINESTEERING,2020,374033.000,00000000,7145,12778;SOL_COMPUTED,SINGLE,36.76878423369,126.93552942046,73.7242,23.3000,WGS84,1.1613,1.0827,2.3044,"",0.000,0.000,8,8,8,8,0,12,00,01*fa1331dc
#BESTXYZA,USB3_1,0,71.0,FINESTEERING,2020,374033.000,00000000,bde7,12778;SOL_COMPUTED,SINGLE,-3073968.7186,4088858.7530,3796927.7233,1.5128,1.9015,1.3881,SOL_COMPUTED,SINGLE,0.0000,2.6527e-10,0.0000,0.0011,0.0011,0.0011,"",0.150,0.000,0.000,8,8,8,8,0,12,00,01*a10cb30d
#RANGEA,USB3_1,0,69.5,FINESTEERING,2020,374034.000,00000000,5103,12778;8,21,0,23559088.183,0.059,-123803829.733837,0.030,2570.629,45.8,132.400,18009c04,2,0,23213961.803,0.079,-121990174.060972,0.061,-3391.054,43.6,121.180,08009c24,24,0,23243150.037,0.156,-122143557.404382,0.079,3708.341,38.6,99.860,08009c44,5,0,21398760.158,0.033,-112451225.155708,0.029,-1590.204,50.8,160.580,18009c84,29,0,23470803.092,0.045,-123339887.967727,0.030,-2538.663,47.9,135.580,08009cc4,30,0,23915987.008,0.082,-125679347.495483,0.032,-2374.782,42.9,137.520,18009ce4,15,0,20637187.794,0.032,-108449142.243156,0.062,1238.508,51.1,146.690,18009d04,13,0,20442140.282,0.038,-107424155.494577,0.030,-1228.437,49.7,149.690,08009d24*8245587b
#SATXYZ2A,USB3_1,0,69.5,FINESTEERING,2020,374034.000,00000000,7513,12778;8,GPS,21,8205751.3700,14102237.8893,21765542.0993,-99086.193,4.966,4.953,0.0,0.0,GPS,2,-20854307.3217,14390474.8247,-6993583.7504,-4054.859,5.802,6.591,0.0,0.0,GPS,24,-13455959.3832,21441768.7323,-7629122.5827,-16773.369,5.746,6.207,0.0,0.0,GPS,5,-21103064.3229,5295843.0555,15259107.0477,-461.093,3.452,3.253,0.0,0.0,GPS,29,4444746.4088,26180760.5614,407007.2072,110453.334,6.226,6.870,0.0,0.0,GPS,30,-13766823.6340,-8483201.1799,21112901.6100,5502.529,5.827,7.841,0.0,0.0,GPS,15,-3944334.8735,21946957.7694,13894884.0245,-103351.292,3.149,2.853,0.0,0.0,GPS,13,-12847115.6141,11247768.3731,20229655.1713,-26475.350,2.900,2.651,0.0,0.0*7729e678
#BESTPOSA,USB3_1,0,69.5,FINESTEERING,2020,374034.000,00000000,7145,12778;SOL_COMPUTED,SINGLE,36.76878423643,126.93552940825,73.7191,23.3000,WGS84,1.1542,1.0765,2.2941,"",0.000,0.000,8,8,8,8,0,12,00,01*132dd91c
#BESTXYZA,USB3_1,0,69.5,FINESTEERING,2020,374034.000,00000000,bde7,12778;SOL_COMPUTED,SINGLE,-3073968.7152,4088858.7502,3796927.7205,1.5052,1.8926,1.3806,SOL_COMPUTED,SINGLE,0.0000,0.0000,0.0000,0.0011,0.0011,0.0011,"",0.150,0.000,0.000,8,8,8,8,0,12,00,01*5f7bc2c7
#RANGEA,USB3_1,0,69.5,FINESTEERING,2020,374035.000,00000000,5103,12778;8,21,0,23558598.764,0.059,-123801257.838764,0.032,2571.811,45.8,133.400,18009c04,2,0,23214606.824,0.079,-121993563.784509,0.046,-3390.206,43.6,122.180,08009c24,24,0,23242444.152,0.149,-122139847.882131,0.095,3709.145,38.8,100.860,08009c44,5,0,21399062.543,0.033,-112452814.181140,0.031,-1589.319,50.8,161.580,18009c84,29,0,23471285.932,0.045,-123342425.257753,0.031,-2537.479,48.0,136.580,08009cc4,30,0,23916438.690,0.081,-125681721.129482,0.032,-2373.718,42.9,138.520,18009ce4,15,0,20636951.881,0.032,-108447902.468999,0.045,1239.760,51.1,147.690,18009d04,13,0,20442373.793,0.038,-107425382.630676,0.031,-1227.357,49.6,150.690,08009d24*dab5bb9c
#SATXYZ2A,USB3_1,0,69.5,FINESTEERING,2020,374035.000,00000000,7513,12778;8,GPS,21,8203912.9219,14104054.5280,21765044.6467,-99086.189,4.965,4.952,0.0,0.0,GPS,2,-20853865.7656,14389551.2327,-6996580.0719,-4054.863,5.803,6.593,0.0,0.0,GPS,24,-13456884.3300,21442207.8439,-7626179.9400,-16773.370,5.745,6.205,0.0,0.0,GPS,5,-21104880.5932,5295092.8216,15256893.3213,-461.093,3.452,3.253,0.0,0.0,GPS,29,4444552.1870,26180846.5271,403779.5339,110453.332,6.226,6.872,0.0,0.0,GPS,30,-13764801.2501,-8484961.3614,21113496.2736,5502.528,5.827,7.843,0.0,0.0,GPS,15,-3945194.7923,21945312.6616,13897239.0686,-103351.293,3.149,2.852,0.0,0.0,GPS,13,-12847472.5866,11245199.7052,20230851.7676,-26475.350,2.900,2.651,0.0,0.0*a24f8a0c
#BESTXYZA,USB3_1,0,69.5,FINESTEERING,2020,374035.000,00000000,bde7,12778;SOL_COMPUTED,SINGLE,-3073968.7152,4088858.7502,3796927.7205,1.5053,1.8926,1.3806,SOL_COMPUTED,SINGLE,0.0000,4.2465e-10,0.0000,0.0011,0.0011,0.0011,"",0.150,0.000,0.000,8,8,8,8,0,12,00,01*9c61d757
#BESTPOSA,USB3_1,0,69.5,FINESTEERING,2020,374035.000,00000000,7145,12778;SOL_COMPUTED,SINGLE,36.76878423643,126.93552940825,73.7191,23.3000,WGS84,1.1542,1.0765,2.2941,"",0.000,0.000,8,8,8,8,0,12,00,01*afdb7cd3
#RANGEA,USB3_1,0,69.5,FINESTEERING,2020,374036.000,00000000,5103,12778;8,21,0,23558109.434,0.059,-123798686.418399,0.032,2570.704,45.8,134.400,18009c04,2,0,23215251.946,0.080,-121996953.933998,0.038,-3390.920,43.5,123.180,08009c24,24,0,23241738.346,0.155,-122136138.771789,0.088,3708.608,38.5,101.860,08009c44,5,0,21399365.021,0.033,-112454403.689388,0.031,-1590.101,50.8,162.580,18009c84,29,0,23471768.863,0.045,-123344963.009960,0.031,-2538.361,48.0,137.580,08009cc4,30,0,23916890.516,0.080,-125684095.426294,0.084,-2374.873,43.0,139.520,18009ce4,15,0,20636716.100,0.031,-108446663.348567,0.037,1238.342,51.2,148.690,18009d04,13,0,20442607.431,0.038,-107426610.407560,0.031,-1228.541,49.6,151.690,08009d24*002c270b
#SATXYZ2A,USB3_1,0,69.5,FINESTEERING,2020,374036.000,00000000,7513,12778;8,GPS,21,8202074.6200,14105871.2305,21764546.7630,-99086.185,4.964,4.951,0.0,0.0,GPS,2,-20853423.9973,14388627.3370,-6999576.2397,-4054.867,5.804,6.596,0.0,0.0,GPS,24,-13457808.9941,21442646.7420,-7623237.1328,-16773.371,5.744,6.203,0.0,0.0,GPS,5,-21106696.6369,5294342.7682,15254679.2707,-461.093,3.452,3.254,0.0,0.0,GPS,29,4444357.9068,26180932.1033,400551.8520,110453.330,6.227,6.873,0.0,0.0,GPS,30,-13762778.9044,-8486721.7032,21114090.4898,5502.526,5.828,7.845,0.0,0.0,GPS,15,-3946054.8854,21943667.3136,13899593.8073,-103351.294,3.149,2.852,0.0,0.0,GPS,13,-12847829.7260,11242630.9076,20232047.9292,-26475.350,2.900,2.651,0.0,0.0*07c5c08f
#BESTPOSA,USB3_1,0,69.5,FINESTEERING,2020,374036.000,00000000,7145,12778;SOL_COMPUTED,SINGLE,36.76878423643,126.93552940825,73.7191,23.3000,WGS84,1.1542,1.0765,2.2941,"",0.000,0.000,8,8,8,8,0,12,00,01*b1b194c3
#BESTXYZA,USB3_1,0,69.5,FINESTEERING,2020,374036.000,00000000,bde7,12778;SOL_COMPUTED,SINGLE,-3073968.7152,4088858.7502,3796927.7205,1.5053,1.8926,1.3806,SOL_COMPUTED,SINGLE,5.4492e-10,1.1057e-10,-4.1263e-10,0.0011,0.0011,0.0011,"",0.150,0.000,0.000,8,8,8,8,0,12,00,01*bf815c30
#RANGEA,USB3_1,0,69.5,FINESTEERING,2020,374037.000,00000000,5103,12778;8,21,0,23557620.057,0.058,-123796114.747589,0.032,2569.550,45.8,135.400,18009c04,2,0,23215897.007,0.080,-122000343.795867,0.035,-3392.126,43.4,124.180,08009c24,24,0,23241032.437,0.151,-122132429.182485,0.083,3707.618,38.7,102.860,08009c44,5,0,21399667.453,0.033,-112455992.942129,0.031,-1591.556,50.7,163.580,18009c84,29,0,23472251.747,0.045,-123347500.513151,0.032,-2539.757,48.0,138.580,08009cc4,30,0,23917342.304,0.081,-125686469.622406,0.057,-2376.329,42.9,140.520,18009ce4,15,0,20636480.287,0.031,-108445424.133232,0.033,1236.846,51.2,149.690,18009d04,13,0,20442841.044,0.038,-107427838.079067,0.031,-1230.053,49.6,152.690,08009d24*52cdf608
#SATXYZ2A,USB3_1,0,69.5,FINESTEERING,2020,374037.000,00000000,7513,12778;8,GPS,21,8200236.4643,14107687.9969,21764048.4483,-99086.180,4.964,4.950,0.0,0.0,GPS,2,-20852982.0169,14387703.1376,-7002572.2538,-4054.872,5.805,6.598,0.0,0.0,GPS,24,-13458733.3755,21443085.4264,-7620294.1612,-16773.371,5.743,6.201,0.0,0.0,GPS,5,-21108512.4539,5293592.8954,15252464.8962,-461.092,3.452,3.254,0.0,0.0,GPS,29,4444163.5681,26181017.2899,397324.1616,110453.328,6.228,6.875,0.0,0.0,GPS,30,-13760756.5971,-8488482.2053,21114684.2585,5502.525,5.828,7.847,0.0,0.0,GPS,15,-3946915.1526,21942021.7255,13901948.2404,-103351.295,3.148,2.852,0.0,0.0,GPS,13,-12848187.0324,11240061.9804,20233243.6561,-26475.350,2.901,2.651,0.0,0.0*77ce464f
#BESTPOSA,USB3_1,0,69.5,FINESTEERING,2020,374037.000,00000000,7145,12778;SOL_COMPUTED,SINGLE,36.76878423901,126.93552939854,73.7139,23.3000,WGS84,1.1472,1.0703,2.2839,"",0.000,0.000,8,8,8,8,0,12,00,01*d6c2fc33
#BESTXYZA,USB3_1,0,69.5,FINESTEERING,2020,374037.000,00000000,bde7,12778;SOL_COMPUTED,SINGLE,-3073968.7119,4088858.7472,3796927.7176,1.4978,1.8838,1.3731,SOL_COMPUTED,SINGLE,0.0000,5.4187e-10,0.0000,0.0011,0.0011,0.0011,"",0.150,0.000,0.000,8,8,8,8,0,12,00,01*ab9717e0
#RANGEA,USB3_1,0,71.0,FINESTEERING,2020,374038.000,00000000,5103,12778;8,21,0,23557130.599,0.060,-123793542.653032,0.030,2570.771,45.7,136.400,18009c04,2,0,23216541.976,0.080,-122003733.176269,0.031,-3390.699,43.4,125.180,08009c24,24,0,23240326.460,0.149,-122128719.144290,0.056,3708.738,38.8,103.860,08009c44,5,0,21399969.798,0.033,-112457581.741016,0.029,-1590.185,50.7,164.580,18009c84,29,0,23472734.540,0.045,-123350037.575525,0.029,-2538.360,48.0,139.580,08009cc4,30,0,23917794.032,0.082,-125688843.579458,0.041,-2375.382,42.9,141.520,18009ce4,15,0,20636244.438,0.031,-108444184.659740,0.030,1238.017,51.3,150.690,18009d04,13,0,20443074.603,0.038,-107429065.475503,0.029,-1228.867,49.6,153.690,08009d24*a49cb91c
#SATXYZ2A,USB3_1,0,71.0,FINESTEERING,2020,374038.000,00000000,7513,12778;8,GPS,21,8198398.4547,14109504.8271,21763549.7026,-99086.176,4.963,4.949,0.0,0.0,GPS,2,-20852539.8244,14386778.6343,-7005568.1142,-4054.876,5.805,6.600,0.0,0.0,GPS,24,-13459657.4742,21443523.8971,-7617351.0251,-16773.372,5.742,6.199,0.0,0.0,GPS,5,-21110328.0443,5292843.2032,15250250.1976,-461.092,3.453,3.254,0.0,0.0,GPS,29,4443969.1709,26181102.0870,394096.4627,110453.325,6.228,6.876,0.0,0.0,GPS,30,-13758734.3281,-8490242.8676,21115277.5798,5502.523,5.828,7.848,0.0,0.0,GPS,15,-3947775.5941,21940375.8973,13904302.3680,-103351.295,3.148,2.852,0.0,0.0,GPS,13,-12848544.5058,11237492.9236,20234438.9482,-26475.350,2.901,2.652,0.0,0.0*8b799453
#BESTXYZA,USB3_1,0,71.0,FINESTEERING,2020,374038.000,00000000,bde7,12778;SOL_COMPUTED,SINGLE,-3073968.7119,4088858.7472,3796927.7176,1.4978,1.8838,1.3731,SOL_COMPUTED,SINGLE,8.3977e-10,1.0171e-10,-8.2093e-10,0.0011,0.0011,0.0011,"",0.150,0.000,0.000,8,8,8,8,0,12,00,01*b1d5f351
#BESTPOSA,USB3_1,0,71.0,FINESTEERING,2020,374038.000,00000000,7145,12778;SOL_COMPUTED,SINGLE,36.76878423901,126.93552939854,73.7139,23.3000,WGS84,1.1472,1.0703,2.2839,"",0.000,0.000,8,8,8,8,0,12,00,01*1caf2b45
#RANGEA,USB3_1,0,71.0,FINESTEERING,2020,374039.000,00000000,5103,12778;8,21,0,23556641.040,0.059,-123790970.003864,0.028,2574.574,45.8,137.400,18009c04,2,0,23217186.852,0.079,-122007122.010202,0.030,-3386.922,43.4,126.180,08009c24,24,0,23239620.363,0.145,-122125008.433065,0.042,3712.831,38.9,104.860,08009c44,5,0,21400272.042,0.033,-112459169.993223,0.027,-1586.507,50.7,165.580,18009c84,29,0,23473217.230,0.046,-123352574.098781,0.027,-2534.634,47.9,140.580,08009cc4,30,0,23918245.703,0.082,-125691217.139251,0.033,-2371.910,42.9,142.520,18009ce4,15,0,20636008.501,0.031,-108442944.785690,0.028,1241.682,51.3,151.690,18009d04,13,0,20443308.083,0.038,-107430292.461645,0.027,-1225.133,49.6,154.690,08009d24*01e259d3
#SATXYZ2A,USB3_1,0,71.0,FINESTEERING,2020,374039.000,00000000,7513,12778;8,GPS,21,8196560.5915,14111321.7209,21763050.5260,-99086.172,4.963,4.949,0.0,0.0,GPS,2,-20852097.4200,14385853.8273,-7008563.8208,-4054.880,5.806,6.602,0.0,0.0,GPS,24,-13460581.2902,21443962.1540,-7614407.7247,-16773.373,5.741,6.198,0.0,0.0,GPS,5,-21112143.4080,5292093.6915,15248035.1752,-461.092,3.453,3.254,0.0,0.0,GPS,29,4443774.7151,26181186.4945,390868.7554,110453.323,6.229,6.878,0.0,0.0,GPS,30,-13756712.0976,-8492003.6901,21115870.4535,5502.522,5.829,7.850,0.0,0.0,GPS,15,-3948636.2099,21938729.8291,13906656.1899,-103351.296,3.148,2.852,0.0,0.0,GPS,13,-12848902.1462,11234923.7373,20235633.8056,-26475.350,2.901,2.652,0.0,0.0*4b870ba8
#BESTPOSA,USB3_1,0,71.0,FINESTEERING,2020,374039.000,00000000,7145,12778;SOL_COMPUTED,SINGLE,36.76878424558,126.93552939076,73.7086,23.3000,WGS84,1.1403,1.0643,2.2738,"",0.000,0.000,8,8,8,8,0,12,00,01*d6ab0074
#BESTXYZA,USB3_1,0,71.0,FINESTEERING,2020,374039.000,00000000,bde7,12778;SOL_COMPUTED,SINGLE,-3073968.7085,4088858.7439,3796927.7150,1.4905,1.8751,1.3658,SOL_COMPUTED,SINGLE,0.0000,-9.0295e-10,0.0000,0.0011,0.0011,0.0011,"",0.150,0.000,0.000,8,8,8,8,0,12,00,01*2bf36b7b
#RANGEA,USB3_1,0,73.5,FINESTEERING,2020,374040.000,00000000,5103,12778;8,21,0,23556151.273,0.059,-123788396.267641,0.027,2571.966,45.7,138.400,18009c04,2,0,23217831.498,0.081,-122010509.693250,0.029,-3389.180,43.1,127.180,08009c24,24,0,23238914.001,0.141,-122121296.457214,0.035,3710.492,39.1,105.860,08009c44,5,0,21400574.072,0.033,-112460757.136552,0.026,-1588.557,50.7,166.580,18009c84,29,0,23473699.714,0.045,-123355109.501091,0.027,-2537.015,48.0,141.580,08009cc4,30,0,23918697.189,0.084,-125693589.763784,0.029,-2374.344,42.7,143.520,18009ce4,15,0,20635772.392,0.031,-108441703.969503,0.026,1239.074,51.3,152.690,18009d04,13,0,20443541.389,0.038,-107431518.506866,0.026,-1227.807,49.5,155.690,08009d24*97898f0f
#SATXYZ2A,USB3_1,0,73.5,FINESTEERING,2020,374040.000,00000000,7513,12778;8,GPS,21,8194722.8744,14113138.6785,21762550.9183,-99086.168,4.962,4.948,0.0,0.0,GPS,2,-20851654.8036,14384928.7164,-7011559.3735,-4054.885,5.807,6.604,0.0,0.0,GPS,24,-13461504.8235,21444400.1972,-7611464.2601,-16773.373,5.740,6.196,0.0,0.0,GPS,5,-21113958.5448,5291344.3602,15245819.8288,-461.092,3.453,3.255,0.0,0.0,GPS,29,4443580.2006,26181270.5125,387641.0398,110453.321,6.230,6.879,0.0,0.0,GPS,30,-13754689.9055,-8493764.6727,21116462.8798,5502.520,5.829,7.852,0.0,0.0,GPS,15,-3949497.0000,21937083.5209,13909009.7061,-103351.297,3.148,2.852,0.0,0.0,GPS,13,-12849259.9536,11232354.4215,20236828.2283,-26475.351,2.901,2.652,0.0,0.0*934d9d8a
#BESTPOSA,USB3_1,0,73.5,FINESTEERING,2020,374040.000,00000000,7145,12778;SOL_COMPUTED,SINGLE,36.76878424558,126.93552939076,73.7086,23.3000,WGS84,1.1403,1.0643,2.2738,"",0.000,0.000,8,8,8,8,0,12,00,01*b8dc1ad3
#BESTXYZA,USB3_1,0,73.5,FINESTEERING,2020,374040.000,00000000,bde7,12778;SOL_COMPUTED,SINGLE,-3073968.7085,4088858.7439,3796927.7150,1.4905,1.8751,1.3658,SOL_COMPUTED,SINGLE,0.0000,-2.3512e-10,0.0000,0.0011,0.0011,0.0011,"",0.150,0.000,0.000,8,8,8,8,0,12,00,01*b93000e6
#RANGEA,USB3_1,0,67.5,FINESTEERING,2020,374041.000,00000000,5103,12778;8,21,0,23555661.807,0.059,-123785824.121675,0.031,2572.720,45.8,139.400,18009c04,2,0,23218476.439,0.080,-122013898.948091,0.031,-3388.760,43.3,128.180,08009c24,24,0,23238207.943,0.137,-122117586.002019,0.036,3710.810,39.3,106.860,08009c44,5,0,21400876.403,0.033,-112462345.887088,0.029,-1588.240,50.7,167.580,18009c84,29,0,23474182.498,0.046,-123357646.510412,0.029,-2536.509,47.8,142.580,08009cc4,30,0,23919149.006,0.083,-125695964.171337,0.032,-2374.066,42.7,144.520,18009ce4,15,0,20635536.622,0.031,-108440464.944282,0.029,1239.401,51.2,153.690,18009d04,13,0,20443775.026,0.038,-107432746.310754,0.030,-1227.464,49.6,156.690,08009d24*b531c05c
#SATXYZ2A,USB3_1,0,67.5,FINESTEERING,2020,374041.000,00000000,7513,12778;8,GPS,21,8192885.3038,14114955.6996,21762050.8797,-99086.164,4.961,4.947,0.0,0.0,GPS,2,-20851211.9753,14384003.3017,-7014554.7723,-4054.889,5.808,6.606,0.0,0.0,GPS,24,-13462428.0742,21444838.0266,-7608520.6312,-16773.374,5.739,6.194,0.0,0.0,GPS,5,-21115773.4548,5290595.2094,15243604.1586,-461.092,3.453,3.255,0.0,0.0,GPS,29,4443385.6274,26181354.1410,384413.3159,110453.319,6.230,6.881,0.0,0.0,GPS,30,-13752667.7520,-8495525.8155,21117054.8586,5502.519,5.829,7.854,0.0,0.0,GPS,15,-3950357.9645,21935436.9728,13911362.9166,-103351.298,3.147,2.851,0.0,0.0,GPS,13,-12849617.9281,11229784.9764,20238022.2161,-26475.351,2.901,2.652,0.0,0.0*e9866ec3
#BESTPOSA,USB3_1,0,67.5,FINESTEERING,2020,374041.000,00000000,7145,12778;SOL_COMPUTED,SINGLE,36.76878424558,126.93552939076,73.7086,23.3000,WGS84,1.1403,1.0643,2.2738,"",0.000,0.000,8,8,8,8,0,12,00,01*45db674d
#BESTXYZA,USB3_1,0,67.5,FINESTEERING,2020,374041.000,00000000,bde7,12778;SOL_COMPUTED,SINGLE,-3073968.7085,4088858.7439,3796927.7150,1.4905,1.8751,1.3658,SOL_COMPUTED,SINGLE,4.2350e-10,-6.1221e-11,-3.5711e-10,0.0011,0.0011,0.0011,"",0.150,0.000,0.000,8,8,8,8,0,12,00,01*8b936ed9
#RANGEA,USB3_1,0,67.5,FINESTEERING,2020,374042.000,00000000,5103,12778;8,21,0,23555172.257,0.059,-123783251.529497,0.029,2574.368,45.8,140.400,18009c04,2,0,23219121.284,0.078,-122017287.679103,0.030,-3386.926,43.4,129.180,08009c24,24,0,23237501.752,0.134,-122113874.907896,0.032,3713.092,39.6,107.860,08009c44,5,0,21401178.643,0.033,-112463934.141098,0.028,-1586.604,50.7,168.580,18009c84,29,0,23474665.192,0.046,-123360183.039413,0.028,-2534.608,47.9,143.580,08009cc4,30,0,23919600.783,0.080,-125698338.259798,0.030,-2372.136,43.0,145.520,18009ce4,15,0,20635300.791,0.031,-108439225.607278,0.028,1241.100,51.2,154.690,18009d04,13,0,20444008.602,0.038,-107433973.788047,0.028,-1225.728,49.6,157.690,08009d24*c1e2b392
#SATXYZ2A,USB3_1,0,67.5,FINESTEERING,2020,374042.000,00000000,7513,12778;8,GPS,21,8191047.8794,14116772.7843,21761550.4102,-99086.160,4.961,4.946,0.0,0.0,GPS,2,-20850768.9352,14383077.5831,-7017550.0170,-4054.893,5.809,6.608,0.0,0.0,GPS,24,-13463351.0423,21445275.6420,-7605576.8382,-16773.374,5.738,6.192,0.0,0.0,GPS,5,-21117588.1379,5289846.2391,15241388.1646,-461.092,3.453,3.255,0.0,0.0,GPS,29,4443190.9955,26181437.3799,381185.5839,110453.316,6.231,6.883,0.0,0.0,GPS,30,-13750645.6371,-8497287.1183,21117646.3898,5502.517,5.830,7.856,0.0,0.0,GPS,15,-3951219.1032,21933790.1849,13913715.8213,-103351.299,3.147,2.851,0.0,0.0,GPS,13,-12849976.0696,11227215.4021,20239215.7691,-26475.351,2.901,2.652,0.0,0.0*ea89ace4
#BESTPOSA,USB3_1,0,67.5,FINESTEERING,2020,374042.000,00000000,7145,12778;SOL_COMPUTED,SINGLE,36.76878425342,126.93552938573,73.7031,23.3000,WGS84,1.1335,1.0584,2.2639,"",0.000,0.000,8,8,8,8,0,12,00,01*2840092b
#BESTXYZA,USB3_1,0,67.5,FINESTEERING,2020,374042.000,00000000,bde7,12778;SOL_COMPUTED,SINGLE,-3073968.7052,4088858.7402,3796927.7124,1.4833,1.8665,1.3586,SOL_COMPUTED,SINGLE,0.0000,0.0000,0.0000,0.0011,0.0011,0.0011,"",0.150,0.000,0.000,8,8,8,8,0,12,00,01*f6751f98
#RANGEA,USB3_1,0,69.0,FINESTEERING,2020,374043.000,00000000,5103,12778;8,21,0,23554682.611,0.060,-123780678.397176,0.033,2572.262,45.6,141.400,18009c04,2,0,23219766.021,0.076,-122020675.872736,0.033,-3388.612,43.6,130.180,08009c24,24,0,23236795.479,0.131,-122110163.201282,0.032,3710.615,39.7,108.860,08009c44,5,0,21401480.785,0.033,-112465521.869171,0.032,-1588.299,50.7,169.580,18009c84,29,0,23475147.787,0.046,-123362719.047870,0.032,-2536.358,47.8,144.580,08009cc4,30,0,23920052.477,0.079,-125700712.005350,0.034,-2373.989,43.1,146.520,18009ce4,15,0,20635064.894,0.031,-108437985.901823,0.032,1239.010,51.3,155.690,18009d04,13,0,20444242.109,0.038,-107435200.905532,0.032,-1227.704,49.6,158.690,08009d24*138482e6
#SATXYZ2A,USB3_1,0,69.0,FINESTEERING,2020,374043.000,00000000,7513,12778;8,GPS,21,8189210.6015,14118589.9326,21761049.5096,-99086.155,4.960,4.945,0.0,0.0,GPS,2,-20850325.6832,14382151.5606,-7020545.1077,-4054.898,5.809,6.610,0.0,0.0,GPS,24,-13464273.7277,21445713.0435,-7602632.8811,-16773.375,5.737,6.190,0.0,0.0,GPS,5,-21119402.5940,5289097.4492,15239171.8469,-461.092,3.453,3.255,0.0,0.0,GPS,29,4442996.3048,26181520.2293,377957.8437,110453.314,6.231,6.884,0.0,0.0,GPS,30,-13748623.5608,-8499048.5812,21118237.4735,5502.516,5.830,7.858,0.0,0.0,GPS,15,-3952080.4163,21932143.1572,13916068.4202,-103351.299,3.147,2.851,0.0,0.0,GPS,13,-12850334.3781,11224645.6984,20240408.8872,-26475.351,2.901,2.652,0.0,0.0*dc099ccf
#BESTPOSA,USB3_1,0,69.0,FINESTEERING,2020,374043.000,00000000,7145,12778;SOL_COMPUTED,SINGLE,36.76878425342,126.93552938573,73.7031,23.3000,WGS84,1.1335,1.0584,2.2639,"",0.000,0.000,8,8,8,8,0,12,00,01*1ef859ec
#BESTXYZA,USB3_1,0,69.0,FINESTEERING,2020,374043.000,00000000,bde7,12778;SOL_COMPUTED,SINGLE,-3073968.7052,4088858.7402,3796927.7124,1.4834,1.8665,1.3586,SOL_COMPUTED,SINGLE,7.4187e-10,-2.0925e-10,-6.2233e-10,0.0011,0.0011,0.0011,"",0.150,0.000,0.000,8,8,8,8,0,12,00,01*771b43b6
