#RANGEA,USB1_1,0,55.5,FINESTEERING,2000,457927.000,00000000,5103,12778;10,1,0,20491973.163,0.034,-107685971.591704,0.098,1792.981,50.5,2573.110,08009c04,30,0,21605969.134,0.037,-113540138.695216,0.107,425.408,49.7,2545.500,08009c44,18,0,19949132.480,0.034,-104833326.142095,0.033,133.791,50.4,2565.890,08009c64,28,0,23172589.411,0.063,-121772797.969188,0.098,2627.745,45.1,1357.540,18009c84,22,0,23740669.555,0.064,-124758070.941399,0.033,2725.613,45.0,1129.850,18009ca4,7,0,21159522.174,0.035,-111193956.670670,0.034,-1349.354,50.2,2579.880,08009cc4,8,0,21258999.218,0.041,-111716716.523650,0.033,-1482.467,49.0,2582.840,08009ce4,27,0,23780734.545,0.086,-124968593.908786,0.090,-2687.150,42.4,2546.560,08009d04,10,0,24792004.763,0.075,-130282829.860173,0.105,-1017.008,43.7,1669.572,08009d24,11,0,20240593.535,0.040,-106364960.889502,0.034,818.014,49.0,2575.610,08009d44*161e2111
#SATXYZ2A,USB1_1,0,55.5,FINESTEERING,2000,457927.000,00000000,7513,12778;10,GPS,1,-13683402.4885,21142324.5810,7792464.5629,-14078.271,4.352,2.746,0.0,0.0,GPS,30,2691070.6708,21528470.4144,15217159.0935,22609.912,5.513,3.507,0.0,0.0,GPS,18,-15864514.7136,14909412.9369,14630950.0428,2289.623,4.042,2.517,0.0,0.0,GPS,28,8445050.6607,13743729.5458,21714339.7246,214101.559,7.314,5.066,0.0,0.0,GPS,22,-23942059.9304,9864363.6862,-5651852.1392,-116224.698,8.474,7.152,0.0,0.0,GPS,7,-4168160.9398,24958169.9947,7466209.7088,58079.212,5.142,3.258,0.0,0.0,GPS,8,-14716202.6600,5448942.4202,21496252.6497,-30239.869,4.758,3.065,0.0,0.0,GPS,27,-20143735.7393,-7789527.3692,15557995.1909,110706.282,8.495,7.595,0.0,0.0,GPS,10,-12747143.4809,-12030163.9906,20044562.1587,55222.700,10.073,14.383,0.0,0.0,GPS,11,-10186486.2967,19407266.1865,14546446.6388,-220774.895,4.062,2.514,0.0,0.0*cfd5d440
#BESTPOSA,USB1_1,0,55.5,FINESTEERING,2000,457927.000,00000000,7145,12778;SOL_COMPUTED,SINGLE,36.76834539558,126.93456410481,76.2973,23.3000,WGS84,1.0229,0.9513,1.5223,"",0.000,0.000,10,10,10,10,0,12,00,01*71eee9cf
#BESTXYZA,USB1_1,0,55.5,FINESTEERING,2000,457927.000,00000000,bde7,12778;SOL_COMPUTED,SINGLE,-3073918.5849,4088935.4911,3796890.2518,1.2336,1.0206,1.3059,SOL_COMPUTED,SINGLE,2.1960e-11,-7.7927e-12,-1.5668e-11,0.0008,0.0008,0.0008,"",0.150,0.000,0.000,10,10,10,10,0,12,00,01*6b5cd4a4
#RANGEA,USB1_1,0,55.5,FINESTEERING,2000,457928.000,00000000,5103,12778;10,1,0,20491631.457,0.034,-107684175.927350,0.064,1795.611,50.5,2574.110,08009c04,30,0,21605887.728,0.038,-113539710.883162,0.069,427.966,49.6,2546.500,08009c44,18,0,19949106.529,0.035,-104833189.750764,0.030,136.322,50.3,2566.890,08009c64,28,0,23172088.815,0.063,-121770167.323926,0.064,2630.966,45.2,1358.540,18009c84,22,0,23740150.329,0.065,-124755342.373246,0.032,2728.705,44.9,1130.850,18009ca4,7,0,21159778.452,0.035,-111195303.441689,0.031,-1346.643,50.2,2580.880,08009cc4,8,0,21259280.740,0.040,-111718195.931661,0.031,-1478.911,49.0,2583.840,08009ce4,27,0,23781245.292,0.090,-124971277.939765,0.059,-2683.728,42.0,2547.560,08009d04,10,0,24792197.768,0.072,-130283844.090251,0.069,-1013.911,43.9,1670.572,08009d24,11,0,20240437.364,0.041,-106364140.202748,0.032,820.641,49.0,2576.610,08009d44*0d7ca4c8
#SATXYZ2A,USB1_1,0,55.5,FINESTEERING,2000,457928.000,00000000,7513,12778;10,GPS,1,-13683286.9101,21141281.7455,7795470.5372,-14078.273,4.351,2.746,0.0,0.0,GPS,30,2690074.3654,21530155.6699,15214934.2302,22609.910,5.512,3.507,0.0,0.0,GPS,18,-15864157.3684,14907480.4591,14633254.0173,2289.623,4.042,2.517,0.0,0.0,GPS,28,8442456.5666,13743987.3211,21715215.1268,214101.562,7.313,5.065,0.0,0.0,GPS,22,-23942879.4266,9864156.0544,-5648870.7890,-116224.702,8.472,7.150,0.0,0.0,GPS,7,-4168784.3761,24958926.2839,7463203.7923,58079.210,5.142,3.259,0.0,0.0,GPS,8,-14717923.6368,5446844.4213,21495619.4517,-30239.870,4.758,3.065,0.0,0.0,GPS,27,-20144886.9339,-7791139.0321,15555734.0984,110706.282,8.496,7.597,0.0,0.0,GPS,10,-12744666.1056,-12030693.2997,20045807.0989,55222.701,10.073,14.386,0.0,0.0,GPS,11,-10186941.1667,19405336.3490,14548604.7370,-220774.896,4.062,2.514,0.0,0.0*cf5a2189
#BESTPOSA,USB1_1,0,55.5,FINESTEERING,2000,457928.000,00000000,7145,12778;SOL_COMPUTED,SINGLE,36.76834539558,126.93456410481,76.2973,23.3000,WGS84,1.0229,0.9513,1.5223,"",0.000,0.000,10,10,10,10,0,12,00,01*c55d28e1
#BESTXYZA,USB1_1,0,55.5,FINESTEERING,2000,457928.000,00000000,bde7,12778;SOL_COMPUTED,SINGLE,-3073918.5849,4088935.4911,3796890.2518,1.2335,1.0206,1.3059,SOL_COMPUTED,SINGLE,9.4976e-13,-3.3703e-13,-6.7765e-13,0.0008,0.0008,0.0008,"",0.150,0.000,0.000,10,10,10,10,0,12,00,01*c21fa45a
#RANGEA,USB1_1,0,57.0,FINESTEERING,2000,457929.000,00000000,5103,12778;10,1,0,20491289.773,0.034,-107682380.356196,0.046,1794.408,50.5,2575.110,08009c04,30,0,21605806.340,0.037,-113539283.210967,0.049,426.488,49.7,2547.500,08009c44,18,0,19949080.608,0.035,-104833053.523343,0.032,135.117,50.3,2567.890,08009c64,28,0,23171588.135,0.061,-121767536.196299,0.047,2630.310,45.4,1359.540,18009c84,22,0,23739631.038,0.064,-124752613.433526,0.033,2728.198,44.9,1131.850,18009ca4,7,0,21160034.751,0.035,-111196650.321185,0.032,-1347.946,50.2,2581.880,08009cc4,8,0,21259562.208,0.040,-111719675.028668,0.032,-1479.958,49.1,2584.840,08009ce4,27,0,23781755.957,0.087,-124973961.503207,0.045,-2684.296,42.3,2548.560,08009d04,10,0,24792390.773,0.072,-130284858.384475,0.050,-1015.267,43.9,1671.572,08009d24,11,0,20240281.199,0.041,-106363319.535668,0.032,819.631,49.0,2577.610,08009d44*d99cfb22
#SATXYZ2A,USB1_1,0,57.0,FINESTEERING,2000,457929.000,00000000,7513,12778;10,GPS,1,-13683171.2589,21140238.5455,7798476.3418,-14078.274,4.351,2.746,0.0,0.0,GPS,30,2689078.2624,21531840.7241,15212709.0409,22609.909,5.512,3.507,0.0,0.0,GPS,18,-15863800.0390,14905547.6792,14635557.6686,2289.623,4.042,2.517,0.0,0.0,GPS,28,8439862.3851,13744245.2712,21716090.0917,214101.565,7.312,5.064,0.0,0.0,GPS,22,-23943698.5678,9863948.3832,-5645889.3178,-116224.706,8.471,7.148,0.0,0.0,GPS,7,-4169407.6339,24959682.2549,7460197.7138,58079.207,5.142,3.259,0.0,0.0,GPS,8,-14719644.6866,5444746.5872,21494985.7993,-30239.870,4.759,3.065,0.0,0.0,GPS,27,-20146038.0450,-7792750.4039,15553472.6771,110706.282,8.496,7.599,0.0,0.0,GPS,10,-12742188.6062,-12031222.7801,20047051.6157,55222.702,10.073,14.389,0.0,0.0,GPS,11,-10187396.1493,19403406.2562,14550762.5166,-220774.897,4.062,2.514,0.0,0.0*325efe32
#BESTPOSA,USB1_1,0,57.0,FINESTEERING,2000,457929.000,00000000,7145,12778;SOL_COMPUTED,SINGLE,36.76834539480,126.93456410024,76.2960,23.3000,WGS84,1.0223,0.9507,1.5215,"",0.000,0.000,10,10,10,10,0,12,00,01*b9255c4a
#BESTXYZA,USB1_1,0,57.0,FINESTEERING,2000,457929.000,00000000,bde7,12778;SOL_COMPUTED,SINGLE,-3073918.5840,4088935.4906,3796890.2510,1.2330,1.0198,1.3052,SOL_COMPUTED,SINGLE,1.0683e-10,-3.9960e-11,-7.3126e-11,0.0008,0.0008,0.0008,"",0.150,0.000,0.000,10,10,10,10,0,12,00,01*565ab815
#RANGEA,USB1_1,0,55.0,FINESTEERING,2000,457930.000,00000000,5103,12778;10,1,0,20490948.629,0.034,-107680587.621243,0.042,1789.196,50.4,2576.110,08009c04,30,0,21605725.512,0.037,-113538858.433064,0.043,421.020,49.7,2548.500,08009c44,18,0,19949055.248,0.035,-104832920.224601,0.038,129.683,50.3,2568.890,08009c64,28,0,23171087.895,0.060,-121764907.362655,0.044,2625.596,45.6,1360.540,18009c84,22,0,23739112.204,0.064,-124749886.876779,0.038,2723.344,44.9,1132.850,18009ca4,7,0,21160291.601,0.035,-111198000.067515,0.037,-1353.547,50.1,2582.880,08009cc4,8,0,21259844.130,0.040,-111721156.558677,0.038,-1485.107,49.1,2585.840,08009ce4,27,0,23782267.034,0.095,-124976647.323796,0.043,-2688.851,41.6,2549.560,08009d04,10,0,24792584.324,0.080,-130285875.460540,0.093,-1020.820,43.0,1672.572,08009d24,11,0,20240125.570,0.041,-106362501.658427,0.093,814.260,48.9,2578.610,08009d44*eaad2241
#SATXYZ2A,USB1_1,0,55.0,FINESTEERING,2000,457930.000,00000000,7513,12778;10,GPS,1,-13683055.5349,21139194.9811,7801481.9767,-14078.276,4.351,2.746,0.0,0.0,GPS,30,2688082.3619,21533525.5768,15210483.5258,22609.907,5.512,3.506,0.0,0.0,GPS,18,-15863442.7255,14903614.5973,14637860.9966,2289.623,4.042,2.517,0.0,0.0,GPS,28,8437268.1162,13744503.3960,21716964.6193,214101.568,7.311,5.063,0.0,0.0,GPS,22,-23944517.3539,9863740.6728,-5642907.7257,-116224.710,8.470,7.146,0.0,0.0,GPS,7,-4170030.7131,24960437.9077,7457191.4733,58079.205,5.142,3.259,0.0,0.0,GPS,8,-14721365.8095,5442648.9181,21494351.6924,-30239.870,4.759,3.066,0.0,0.0,GPS,27,-20147189.0724,-7794361.4845,15551210.9269,110706.282,8.497,7.601,0.0,0.0,GPS,10,-12739710.9828,-12031752.4318,20048295.7093,55222.703,10.073,14.391,0.0,0.0,GPS,11,-10187851.2446,19401475.9081,14552919.9776,-220774.898,4.062,2.514,0.0,0.0*5c91a142
#BESTPOSA,USB1_1,0,55.0,FINESTEERING,2000,457930.000,00000000,7145,12778;SOL_COMPUTED,SINGLE,36.76834539480,126.93456410024,76.2960,23.3000,WGS84,1.0223,0.9507,1.5215,"",0.000,0.000,10,10,10,10,0,12,00,01*2b7c2d17
#BESTXYZA,USB1_1,0,55.0,FINESTEERING,2000,457930.000,00000000,bde7,12778;SOL_COMPUTED,SINGLE,-3073918.5840,4088935.4906,3796890.2510,1.2330,1.0198,1.3052,SOL_COMPUTED,SINGLE,4.6204e-12,-1.7282e-12,-3.1627e-12,0.0008,0.0008,0.0008,"",0.150,0.000,0.000,10,10,10,10,0,12,00,01*534b4635
#RANGEA,USB1_1,0,55.0,FINESTEERING,2000,457931.000,00000000,5103,12778;10,1,0,20490607.801,0.034,-107678796.546740,0.041,1788.390,50.5,2577.110,08009c04,30,0,21605645.006,0.037,-113538435.351106,0.107,420.191,49.7,2549.500,08009c44,18,0,19949030.213,0.034,-104832788.653554,0.101,128.896,50.4,2569.890,08009c64,28,0,23170587.867,0.060,-121762279.624955,0.097,2625.348,45.6,1361.540,18009c84,22,0,23738593.565,0.065,-124747161.475465,0.109,2722.990,44.9,1133.850,18009ca4,7,0,21160548.759,0.035,-111199351.463633,0.109,-1354.247,50.1,2583.880,08009cc4,8,0,21260126.287,0.040,-111722639.303639,0.111,-1485.490,49.0,2586.840,08009ce4,27,0,23782778.323,0.093,-124979334.173503,0.106,-2689.540,41.7,2550.560,08009d04,10,0,24792778.161,0.075,-130286894.154651,0.113,-1021.449,43.7,1673.572,08009d24,11,0,20239970.234,0.041,-106361685.327729,0.065,813.687,48.9,2579.610,08009d44*3f110633
#SATXYZ2A,USB1_1,0,55.0,FINESTEERING,2000,457931.000,00000000,7513,12778;10,GPS,1,-13682939.7382,21138151.0522,7804487.4418,-14078.278,4.350,2.746,0.0,0.0,GPS,30,2687086.6638,21535210.2282,15208257.6848,22609.906,5.512,3.506,0.0,0.0,GPS,18,-15863085.4279,14901681.2133,14640164.0012,2289.623,4.042,2.517,0.0,0.0,GPS,28,8434673.7599,13744761.6954,21717838.7095,214101.570,7.310,5.062,0.0,0.0,GPS,22,-23945335.7850,9863532.9231,-5639926.0128,-116224.714,8.469,7.145,0.0,0.0,GPS,7,-4170653.6137,24961193.2423,7454185.0708,58079.202,5.143,3.259,0.0,0.0,GPS,8,-14723087.0054,5440551.4138,21493717.1311,-30239.870,4.759,3.066,0.0,0.0,GPS,27,-20148340.0160,-7795972.2740,15548948.8481,110706.282,8.497,7.603,0.0,0.0,GPS,10,-12737233.2356,-12032282.2549,20049539.3796,55222.704,10.074,14.394,0.0,0.0,GPS,11,-10188306.4525,19399545.3047,14555077.1198,-220774.898,4.062,2.514,0.0,0.0*7ce5bb7d
#BESTPOSA,USB1_1,0,55.0,FINESTEERING,2000,457931.000,00000000,7145,12778;SOL_COMPUTED,SINGLE,36.76834539416,126.93456409571,76.2948,23.3000,WGS84,1.0216,0.9500,1.5208,"",0.000,0.000,10,10,10,10,0,12,00,01*386a6ff0
#BESTXYZA,USB1_1,0,55.0,FINESTEERING,2000,457931.000,00000000,bde7,12778;SOL_COMPUTED,SINGLE,-3073918.5831,4088935.4900,3796890.2502,1.2325,1.0190,1.3045,SOL_COMPUTED,SINGLE,5.1864e-10,-2.2352e-10,-3.4481e-10,0.0008,0.0008,0.0008,"",0.150,0.000,0.000,10,10,10,10,0,12,00,01*68fdc784
#RANGEA,USB1_1,0,55.0,FINESTEERING,2000,457932.000,00000000,5103,12778;10,1,0,20490266.974,0.034,-107677005.488181,0.036,1791.975,50.5,2578.110,08009c04,30,0,21605564.514,0.038,-113538012.358252,0.069,424.080,49.6,2550.500,08009c44,18,0,19949005.202,0.035,-104832657.199891,0.066,132.289,50.3,2570.890,08009c64,28,0,23170087.711,0.062,-121759651.284732,0.107,2629.654,45.3,1362.540,18009c84,22,0,23738074.858,0.064,-124744435.610488,0.071,2726.755,44.9,1134.850,18009ca4,7,0,21160805.934,0.035,-111200702.912652,0.071,-1350.333,50.2,2584.880,08009cc4,8,0,21260408.359,0.041,-111724121.644391,0.072,-1480.974,48.9,2587.840,08009ce4,27,0,23783289.502,0.099,-124982020.490525,0.069,-2685.131,41.2,2551.560,08009d04,10,0,24792972.013,0.076,-130287912.830121,0.073,-1018.076,43.4,1674.572,08009d24,11,0,20239814.896,0.041,-106360868.966264,0.047,817.288,48.9,2580.610,08009d44*dfefc39c
#SATXYZ2A,USB1_1,0,55.0,FINESTEERING,2000,457932.000,00000000,7513,12778;10,GPS,1,-13682823.8688,21137106.7590,7807492.7371,-14078.279,4.350,2.745,0.0,0.0,GPS,30,2686091.1682,21536894.6781,15206031.5181,22609.904,5.512,3.506,0.0,0.0,GPS,18,-15862728.1464,14899747.5274,14642466.6825,2289.623,4.042,2.517,0.0,0.0,GPS,28,8432079.3164,13745020.1696,21718712.3624,214101.573,7.309,5.061,0.0,0.0,GPS,22,-23946153.8610,9863325.1339,-5636944.1791,-116224.718,8.468,7.143,0.0,0.0,GPS,7,-4171276.3358,24961948.2585,7451178.5065,58079.199,5.143,3.260,0.0,0.0,GPS,8,-14724808.2742,5438454.0744,21493082.1154,-30239.870,4.759,3.066,0.0,0.0,GPS,27,-20149490.8759,-7797582.7723,15546686.4406,110706.282,8.498,7.605,0.0,0.0,GPS,10,-12734755.3644,-12032812.2493,20050782.6265,55222.705,10.074,14.397,0.0,0.0,GPS,11,-10188761.7730,19397614.4460,14557233.9433,-220774.899,4.061,2.514,0.0,0.0*a4e2bb14
#BESTPOSA,USB1_1,0,55.0,FINESTEERING,2000,457932.000,00000000,7145,12778;SOL_COMPUTED,SINGLE,36.76834539416,126.93456409571,76.2948,23.3000,WGS84,1.0216,0.9500,1.5208,"",0.000,0.000,10,10,10,10,0,12,00,01*aa9f0739
#BESTXYZA,USB1_1,0,55.0,FINESTEERING,2000,457932.000,00000000,bde7,12778;SOL_COMPUTED,SINGLE,-3073918.5831,4088935.4900,3796890.2502,1.2325,1.0190,1.3045,SOL_COMPUTED,SINGLE,2.2431e-11,-9.6672e-12,-1.4913e-11,0.0008,0.0008,0.0008,"",0.150,0.000,0.000,10,10,10,10,0,12,00,01*49299691
#RANGEA,USB1_1,0,57.5,FINESTEERING,2000,457933.000,00000000,5103,12778;10,1,0,20489926.071,0.034,-107675214.037419,0.034,1792.138,50.6,2579.110,08009c04,30,0,21605483.967,0.037,-113537589.030002,0.050,423.848,49.7,2551.500,08009c44,18,0,19948980.126,0.035,-104832525.419078,0.048,132.464,50.3,2571.890,08009c64,28,0,23169587.374,0.060,-121757021.985501,0.070,2629.974,45.6,1363.540,18009c84,22,0,23737555.980,0.064,-124741708.867257,0.050,2727.555,44.9,1135.850,18009ca4,7,0,21161063.028,0.036,-111202053.964549,0.051,-1350.481,50.1,2585.880,08009cc4,8,0,21260690.279,0.041,-111725603.158860,0.051,-1480.756,48.9,2588.840,08009ce4,27,0,23783800.492,0.095,-124984705.758555,0.049,-2684.244,41.6,2552.560,08009d04,10,0,24793165.766,0.074,-130288931.004346,0.053,-1017.654,43.7,1675.572,08009d24,11,0,20239659.461,0.041,-106360052.127038,0.039,817.655,49.0,2581.610,08009d44*2d3031f5
#SATXYZ2A,USB1_1,0,57.5,FINESTEERING,2000,457933.000,00000000,7513,12778;10,GPS,1,-13682707.9267,21136062.1013,7810497.8625,-14078.281,4.349,2.745,0.0,0.0,GPS,30,2685095.8749,21538578.9264,15203805.0257,22609.903,5.512,3.506,0.0,0.0,GPS,18,-15862370.8809,14897813.5396,14644769.0402,2289.624,4.042,2.517,0.0,0.0,GPS,28,8429484.7856,13745278.8186,21719585.5780,214101.576,7.308,5.060,0.0,0.0,GPS,22,-23946971.5820,9863117.3053,-5633962.2247,-116224.722,8.466,7.141,0.0,0.0,GPS,7,-4171898.8795,24962702.9564,7448171.7805,58079.197,5.143,3.260,0.0,0.0,GPS,8,-14726529.6160,5436356.9001,21492446.6452,-30239.871,4.759,3.066,0.0,0.0,GPS,27,-20150641.6519,-7799192.9795,15544423.7044,110706.282,8.499,7.607,0.0,0.0,GPS,10,-12732277.3694,-12033342.4151,20052025.4501,55222.705,10.074,14.399,0.0,0.0,GPS,11,-10189217.2063,19395683.3322,14559390.4480,-220774.900,4.061,2.514,0.0,0.0*95cccd45
#BESTPOSA,USB1_1,0,57.5,FINESTEERING,2000,457933.000,00000000,7145,12778;SOL_COMPUTED,SINGLE,36.76834539416,126.93456409571,76.2948,23.3000,WGS84,1.0216,0.9500,1.5208,"",0.000,0.000,10,10,10,10,0,12,00,01*6d8f0da5
#BESTXYZA,USB1_1,0,57.5,FINESTEERING,2000,457933.000,00000000,bde7,12778;SOL_COMPUTED,SINGLE,-3073918.5831,4088935.4900,3796890.2502,1.2325,1.0190,1.3045,SOL_COMPUTED,SINGLE,9.7012e-13,-4.1810e-13,-6.4497e-13,0.0008,0.0008,0.0008,"",0.150,0.000,0.000,10,10,10,10,0,12,00,01*d836c267
#RANGEA,USB1_1,0,54.0,FINESTEERING,2000,457934.000,00000000,5103,12778;10,1,0,20489585.471,0.034,-107673424.177497,0.031,1788.911,50.5,2580.110,08009c04,30,0,21605403.723,0.037,-113537167.354070,0.038,420.627,49.7,2552.500,08009c44,18,0,19948955.372,0.035,-104832395.330245,0.037,129.108,50.4,2572.890,08009c64,28,0,23169087.237,0.060,-121754393.724992,0.048,2627.796,45.6,1364.540,18009c84,22,0,23737037.312,0.064,-124738983.259103,0.038,2724.923,45.0,1136.850,18009ca4,7,0,21161320.434,0.036,-111203406.642142,0.038,-1353.735,50.1,2586.880,08009cc4,8,0,21260972.428,0.041,-111727085.869876,0.039,-1483.515,48.9,2589.840,08009ce4,27,0,23784311.660,0.100,-124987392.072728,0.038,-2687.314,41.1,2553.560,08009d04,10,0,24793359.830,0.077,-130289950.763665,0.042,-1020.682,43.4,1676.572,08009d24,11,0,20239504.319,0.041,-106359236.842935,0.033,814.248,49.0,2582.610,08009d44*7d54d8f1
#SATXYZ2A,USB1_1,0,54.0,FINESTEERING,2000,457934.000,00000000,7513,12778;10,GPS,1,-13682591.9121,21135017.0792,7813502.8178,-14078.282,4.349,2.745,0.0,0.0,GPS,30,2684100.7841,21540262.9731,15201578.2076,22609.901,5.511,3.506,0.0,0.0,GPS,18,-15862013.6315,14895879.2498,14647071.0745,2289.624,4.042,2.517,0.0,0.0,GPS,28,8426890.1677,13745537.6423,21720458.3561,214101.579,7.307,5.059,0.0,0.0,GPS,22,-23947788.9479,9862909.4372,-5630980.1496,-116224.726,8.465,7.139,0.0,0.0,GPS,7,-4172521.2448,24963457.3359,7445164.8927,58079.194,5.143,3.260,0.0,0.0,GPS,8,-14728251.0306,5434259.8908,21491810.7206,-30239.871,4.759,3.066,0.0,0.0,GPS,27,-20151792.3441,-7800802.8955,15542160.6397,110706.282,8.499,7.609,0.0,0.0,GPS,10,-12729799.2507,-12033872.7522,20053267.8502,55222.706,10.074,14.402,0.0,0.0,GPS,11,-10189672.7523,19393751.9633,14561546.6338,-220774.901,4.061,2.514,0.0,0.0*a7693d76
#BESTPOSA,USB1_1,0,54.0,FINESTEERING,2000,457934.000,00000000,7145,12778;SOL_COMPUTED,SINGLE,36.76834539358,126.93456409123,76.2936,23.3000,WGS84,1.0210,0.9494,1.5201,"",0.000,0.000,10,10,10,10,0,12,00,01*07913860
#BESTXYZA,USB1_1,0,54.0,FINESTEERING,2000,457934.000,00000000,bde7,12778;SOL_COMPUTED,SINGLE,-3073918.5822,4088935.4895,3796890.2494,1.2320,1.0182,1.3038,SOL_COMPUTED,SINGLE,1.0762e-10,-4.8790e-11,-7.0452e-11,0.0008,0.0008,0.0008,"",0.150,0.000,0.000,10,10,10,10,0,12,00,01*e6e8d5ea
#RANGEA,USB1_1,0,54.0,FINESTEERING,2000,457935.000,00000000,5103,12778;10,1,0,20489244.860,0.034,-107671634.261695,0.032,1788.657,50.6,2581.110,08009c04,30,0,21605323.482,0.037,-113536745.668471,0.035,420.492,49.7,2553.500,08009c44,18,0,19948930.615,0.034,-104832265.248851,0.035,128.889,50.4,2573.890,08009c64,28,0,23168586.984,0.060,-121751764.856135,0.041,2627.980,45.6,1365.540,18009c84,22,0,23736518.540,0.064,-124736257.100461,0.075,2725.073,45.0,1137.850,18009ca4,7,0,21161577.831,0.036,-111204759.271315,0.035,-1353.654,50.1,2587.880,08009cc4,8,0,21261254.476,0.041,-111728568.072484,0.035,-1482.925,48.9,2590.840,08009ce4,27,0,23784822.707,0.094,-124990077.700402,0.073,-2686.721,41.6,2554.560,08009d04,10,0,24793553.878,0.073,-130290970.403190,0.081,-1020.766,43.8,1677.572,08009d24,11,0,20239349.146,0.040,-106358421.395196,0.033,814.323,49.0,2583.610,08009d44*aded4c92
#SATXYZ2A,USB1_1,0,54.0,FINESTEERING,2000,457935.000,00000000,7513,12778;10,GPS,1,-13682475.8249,21133971.6927,7816507.6032,-14078.284,4.349,2.745,0.0,0.0,GPS,30,2683105.8956,21541946.8181,15199351.0638,22609.900,5.511,3.506,0.0,0.0,GPS,18,-15861656.3982,14893944.6582,14649372.7853,2289.624,4.042,2.517,0.0,0.0,GPS,28,8424295.4627,13745796.6407,21721330.6969,214101.582,7.306,5.058,0.0,0.0,GPS,22,-23948605.9588,9862701.5296,-5627997.9540,-116224.730,8.464,7.137,0.0,0.0,GPS,7,-4173143.4317,24964211.3969,7442157.8432,58079.192,5.144,3.260,0.0,0.0,GPS,8,-14729972.5180,5432163.0466,21491174.3416,-30239.871,4.760,3.067,0.0,0.0,GPS,27,-20152942.9522,-7802412.5203,15539897.2464,110706.282,8.500,7.611,0.0,0.0,GPS,10,-12727321.0083,-12034403.2607,20054509.8270,55222.707,10.074,14.405,0.0,0.0,GPS,11,-10190128.4110,19391820.3393,14563702.5008,-220774.901,4.061,2.514,0.0,0.0*3c0a6297
#BESTPOSA,USB1_1,0,54.0,FINESTEERING,2000,457935.000,00000000,7145,12778;SOL_COMPUTED,SINGLE,36.76834539358,126.93456409123,76.2936,23.3000,WGS84,1.0210,0.9494,1.5201,"",0.000,0.000,10,10,10,10,0,12,00,01*763de027
#BESTXYZA,USB1_1,0,54.0,FINESTEERING,2000,457935.000,00000000,bde7,12778;SOL_COMPUTED,SINGLE,-3073918.5822,4088935.4895,3796890.2494,1.2320,1.0182,1.3038,SOL_COMPUTED,SINGLE,4.6545e-12,-2.1101e-12,-3.0470e-12,0.0008,0.0008,0.0008,"",0.150,0.000,0.000,10,10,10,10,0,12,00,01*c0a0271a
#RANGEA,USB1_1,0,55.0,FINESTEERING,2000,457936.000,00000000,5103,12778;10,1,0,20488904.773,0.034,-107669847.095323,0.037,1786.177,50.6,2582.110,08009c04,30,0,21605243.769,0.037,-113536326.782031,0.091,417.790,49.8,2554.500,08009c44,18,0,19948906.409,0.034,-104832138.016000,0.039,126.151,50.4,2574.890,08009c64,28,0,23168087.149,0.059,-121749138.133439,0.041,2626.082,45.8,1366.540,18009c84,22,0,23736000.206,0.065,-124733533.209056,0.056,2722.918,44.8,1138.850,18009ca4,7,0,21161835.752,0.036,-111206114.653994,0.038,-1356.449,50.1,2588.880,08009cc4,8,0,21261536.972,0.041,-111730052.587584,0.039,-1485.389,48.9,2591.840,08009ce4,27,0,23785334.152,0.098,-124992765.453067,0.105,-2688.399,41.3,2555.560,08009d04,10,0,24793748.427,0.072,-130291992.747767,0.101,-1024.047,43.9,1678.572,08009d24,11,0,20239194.486,0.040,-106357608.645190,0.037,811.719,49.0,2584.610,08009d44*f0a3b48e
#SATXYZ2A,USB1_1,0,55.0,FINESTEERING,2000,457936.000,00000000,7513,12778;10,GPS,1,-13682359.6653,21132925.9418,7819512.2184,-14078.286,4.348,2.745,0.0,0.0,GPS,30,2682111.2095,21543630.4614,15197123.5945,22609.898,5.511,3.506,0.0,0.0,GPS,18,-15861299.1812,14892009.7647,14651674.1724,2289.624,4.042,2.517,0.0,0.0,GPS,28,8421700.6706,13746055.8139,21722202.6003,214101.584,7.305,5.057,0.0,0.0,GPS,22,-23949422.6146,9862493.5823,-5625015.6378,-116224.734,8.463,7.135,0.0,0.0,GPS,7,-4173765.4402,24964965.1395,7439150.6322,58079.189,5.144,3.261,0.0,0.0,GPS,8,-14731694.0782,5430066.3675,21490537.5083,-30239.871,4.760,3.067,0.0,0.0,GPS,27,-20154093.4764,-7804021.8538,15537633.5246,110706.282,8.500,7.613,0.0,0.0,GPS,10,-12724842.6423,-12034933.9405,20055751.3803,55222.708,10.074,14.407,0.0,0.0,GPS,11,-10190584.1826,19389888.4603,14565858.0487,-220774.902,4.061,2.514,0.0,0.0*e9288330
#BESTPOSA,USB1_1,0,55.0,FINESTEERING,2000,457936.000,00000000,7145,12778;SOL_COMPUTED,SINGLE,36.76834539302,126.93456408688,76.2923,23.3000,WGS84,1.0204,0.9488,1.5194,"",0.000,0.000,10,10,10,10,0,12,00,01*2bb0f10a
#BESTXYZA,USB1_1,0,55.0,FINESTEERING,2000,457936.000,00000000,bde7,12778;SOL_COMPUTED,SINGLE,-3073918.5813,4088935.4890,3796890.2486,1.2315,1.0174,1.3031,SOL_COMPUTED,SINGLE,5.0725e-10,-2.5204e-10,-3.3863e-10,0.0008,0.0008,0.0008,"",0.150,0.000,0.000,10,10,10,10,0,12,00,01*05679684
#RANGEA,USB1_1,0,59.5,FINESTEERING,2000,457937.000,00000000,5103,12778;10,1,0,20488564.142,0.034,-107668057.084744,0.039,1790.486,50.6,2583.110,08009c04,30,0,21605163.525,0.037,-113535905.108834,0.064,422.181,49.8,2555.500,08009c44,18,0,19948881.677,0.034,-104832008.012711,0.082,130.423,50.4,2575.890,08009c64,28,0,23167586.667,0.059,-121746508.027488,0.041,2630.716,45.8,1367.540,18009c84,22,0,23735481.234,0.066,-124730805.993829,0.048,2727.917,44.7,1139.850,18009ca4,7,0,21162093.138,0.036,-111207467.224023,0.039,-1351.981,50.0,2589.880,08009cc4,8,0,21261818.837,0.041,-111731533.835282,0.040,-1480.482,48.9,2592.840,08009ce4,27,0,23785844.966,0.093,-124995449.807065,0.103,-2683.500,41.8,2556.560,08009d04,10,0,24793942.412,0.076,-130293012.161351,0.091,-1018.828,43.6,1679.572,08009d24,11,0,20239039.279,0.041,-106356792.975835,0.040,816.162,49.0,2585.610,08009d44*e6277509
#SATXYZ2A,USB1_1,0,59.5,FINESTEERING,2000,457937.000,00000000,7513,12778;10,GPS,1,-13682243.4332,21131879.8265,7822516.6635,-14078.287,4.348,2.744,0.0,0.0,GPS,30,2681116.7258,21545313.9029,15194895.7997,22609.897,5.511,3.506,0.0,0.0,GPS,18,-15860941.9804,14890074.5694,14653975.2359,2289.624,4.042,2.517,0.0,0.0,GPS,28,8419105.7916,13746315.1619,21723074.0662,214101.587,7.304,5.056,0.0,0.0,GPS,22,-23950238.9153,9862285.5955,-5622033.2012,-116224.739,8.462,7.133,0.0,0.0,GPS,7,-4174387.2703,24965718.5636,7436143.2596,58079.187,5.144,3.261,0.0,0.0,GPS,8,-14733415.7111,5427969.8536,21489900.2206,-30239.871,4.760,3.067,0.0,0.0,GPS,27,-20155243.9164,-7805630.8962,15535369.4744,110706.282,8.501,7.615,0.0,0.0,GPS,10,-12722364.1527,-12035464.7918,20056992.5102,55222.709,10.074,14.410,0.0,0.0,GPS,11,-10191040.0670,19387956.3263,14568013.2777,-220774.903,4.061,2.514,0.0,0.0*26c97925
#BESTPOSA,USB1_1,0,59.5,FINESTEERING,2000,457937.000,00000000,7145,12778;SOL_COMPUTED,SINGLE,36.76834538231,126.93456407953,76.2913,23.3000,WGS84,1.0402,0.9711,1.5402,"",0.000,0.000,10,10,10,10,0,12,00,01*5c21b2fd
#BESTXYZA,USB1_1,0,59.5,FINESTEERING,2000,457937.000,00000000,bde7,12778;SOL_COMPUTED,SINGLE,-3073918.5808,4088935.4893,3796890.2471,1.2527,1.0383,1.3228,SOL_COMPUTED,SINGLE,0.0000,0.0000,0.0000,0.0008,0.0008,0.0008,"",0.150,0.000,0.000,10,10,10,10,0,12,00,01*a9cb0b5b
#RANGEA,USB1_1,0,53.5,FINESTEERING,2000,457938.000,00000000,5103,12778;10,1,0,20488223.771,0.034,-107666268.426583,0.037,1789.444,50.4,2584.110,08009c04,30,0,21605083.549,0.037,-113535484.835086,0.048,421.108,49.8,2556.500,08009c44,18,0,19948857.209,0.034,-104831879.406075,0.057,129.509,50.5,2576.890,08009c64,28,0,23167086.335,0.061,-121743878.700715,0.038,2630.733,45.4,1368.540,18009c84,22,0,23734962.442,0.064,-124728079.640401,0.041,2727.463,45.0,1140.850,18009ca4,7,0,21162350.781,0.036,-111208821.135091,0.038,-1353.112,50.0,2590.880,08009cc4,8,0,21262100.878,0.041,-111733016.008082,0.038,-1481.143,48.8,2593.840,08009ce4,27,0,23786355.927,0.092,-124998134.880816,0.069,-2683.671,41.8,2557.560,08009d04,10,0,24794136.662,0.074,-130294032.862389,0.097,-1020.606,43.7,1680.572,08009d24,11,0,20238884.300,0.041,-106355978.565019,0.038,815.246,49.0,2586.610,08009d44*d91db9db
#SATXYZ2A,USB1_1,0,53.5,FINESTEERING,2000,457938.000,00000000,7513,12778;10,GPS,1,-13682127.1288,21130833.3468,7825520.9383,-14078.289,4.348,2.744,0.0,0.0,GPS,30,2680122.4444,21546997.1426,15192667.6793,22609.895,5.511,3.506,0.0,0.0,GPS,18,-15860584.7959,14888139.0724,14656275.9757,2289.624,4.042,2.517,0.0,0.0,GPS,28,8416510.8257,13746574.6847,21723945.0947,214101.590,7.303,5.055,0.0,0.0,GPS,22,-23951054.8610,9862077.5689,-5619050.6442,-116224.743,8.461,7.131,0.0,0.0,GPS,7,-4175008.9223,24966471.6692,7433135.7256,58079.184,5.145,3.261,0.0,0.0,GPS,8,-14735137.4166,5425873.5049,21489262.4785,-30239.872,4.760,3.067,0.0,0.0,GPS,27,-20156394.2723,-7807239.6473,15533105.0957,110706.282,8.502,7.616,0.0,0.0,GPS,10,-12719885.5397,-12035995.8145,20058233.2165,55222.709,10.074,14.413,0.0,0.0,GPS,11,-10191496.0642,19386023.9374,14570168.1876,-220774.904,4.061,2.514,0.0,0.0*0107e868
#BESTPOSA,USB1_1,0,53.5,FINESTEERING,2000,457938.000,00000000,7145,12778;SOL_COMPUTED,SINGLE,36.76834538231,126.93456407953,76.2913,23.3000,WGS84,1.0391,0.9700,1.5385,"",0.000,0.000,10,10,10,10,0,12,00,01*d0d9e0b2
#BESTXYZA,USB1_1,0,53.5,FINESTEERING,2000,457938.000,00000000,bde7,12778;SOL_COMPUTED,SINGLE,-3073918.5808,4088935.4893,3796890.2471,1.2513,1.0371,1.3213,SOL_COMPUTED,SINGLE,4.6049e-11,4.3001e-11,-8.6915e-11,0.0008,0.0008,0.0008,"",0.150,0.000,0.000,10,10,10,10,0,12,00,01*6a17eeb7
#RANGEA,USB1_1,0,53.0,FINESTEERING,2000,457939.000,00000000,5103,12778;10,1,0,20487883.585,0.034,-107664480.740886,0.032,1789.341,50.4,2585.110,08009c04,30,0,21605003.775,0.037,-113535065.604159,0.037,420.811,49.8,2557.500,08009c44,18,0,19948832.951,0.034,-104831751.877349,0.041,129.053,50.4,2577.890,08009c64,28,0,23166586.075,0.059,-121741249.760062,0.035,2630.883,45.7,1369.540,18009c84,22,0,23734443.737,0.065,-124725353.793837,0.034,2727.560,44.9,1141.850,18009ca4,7,0,21162608.613,0.036,-111210176.051204,0.032,-1353.195,50.0,2591.880,08009cc4,8,0,21262383.028,0.041,-111734498.731673,0.032,-1480.804,48.8,2594.840,08009ce4,27,0,23786866.952,0.094,-125000820.347226,0.047,-2683.561,41.7,2558.560,08009d04,10,0,24794331.092,0.074,-130295054.582328,0.064,-1020.230,43.7,1681.572,08009d24,11,0,20238729.503,0.041,-106355165.080418,0.032,815.114,49.0,2587.610,08009d44*3fce05a8
#SATXYZ2A,USB1_1,0,53.0,FINESTEERING,2000,457939.000,00000000,7513,12778;10,GPS,1,-13682010.7521,21129786.5028,7828525.0428,-14078.290,4.347,2.744,0.0,0.0,GPS,30,2679128.3653,21548680.1804,15190439.2336,22609.894,5.511,3.506,0.0,0.0,GPS,18,-15860227.6277,14886203.2736,14658576.3917,2289.625,4.042,2.517,0.0,0.0,GPS,28,8413915.7729,13746834.3822,21724815.6857,214101.593,7.302,5.054,0.0,0.0,GPS,22,-23951870.4515,9861869.5026,-5616067.9668,-116224.747,8.459,7.129,0.0,0.0,GPS,7,-4175630.3959,24967224.4561,7430128.0302,58079.182,5.145,3.261,0.0,0.0,GPS,8,-14736859.1948,5423777.3215,21488624.2821,-30239.872,4.760,3.067,0.0,0.0,GPS,27,-20157544.5440,-7808848.1071,15530840.3888,110706.282,8.502,7.618,0.0,0.0,GPS,10,-12717406.8032,-12036527.0086,20059473.4993,55222.710,10.074,14.415,0.0,0.0,GPS,11,-10191952.1742,19384091.2935,14572322.7784,-220774.904,4.060,2.514,0.0,0.0*f96343ee
#BESTPOSA,USB1_1,0,53.0,FINESTEERING,2000,457939.000,00000000,7145,12778;SOL_COMPUTED,SINGLE,36.76834538190,126.93456407498,76.2901,23.3000,WGS84,1.0379,0.9688,1.5369,"",0.000,0.000,10,10,10,10,0,12,00,01*d90f15af
#BESTXYZA,USB1_1,0,53.0,FINESTEERING,2000,457939.000,00000000,bde7,12778;SOL_COMPUTED,SINGLE,-3073918.5799,4088935.4888,3796890.2463,1.2501,1.0357,1.3199,SOL_COMPUTED,SINGLE,1.1003e-10,-4.9154e-11,-7.0613e-11,0.0008,0.0008,0.0008,"",0.150,0.000,0.000,10,10,10,10,0,12,00,01*d8d6dd49
#RANGEA,USB1_1,0,53.0,FINESTEERING,2000,457940.000,00000000,5103,12778;10,1,0,20487543.471,0.034,-107662693.436202,0.033,1785.351,50.5,2586.110,08009c04,30,0,21604924.079,0.037,-113534646.780917,0.035,416.937,49.8,2558.500,08009c44,18,0,19948808.782,0.034,-104831624.810796,0.037,124.934,50.4,2578.890,08009c64,28,0,23166085.789,0.059,-121738620.641772,0.035,2627.433,45.7,1370.540,18009c84,22,0,23733925.011,0.065,-124722627.831757,0.034,2724.077,44.8,1142.850,18009ca4,7,0,21162866.515,0.036,-111211531.353822,0.033,-1357.120,50.0,2592.880,08009cc4,8,0,21262665.165,0.041,-111735981.392901,0.034,-1484.312,48.8,2595.840,08009ce4,27,0,23787377.938,0.094,-125003505.554219,0.041,-2686.775,41.7,2559.560,08009d04,10,0,24794525.559,0.074,-130296076.559930,0.048,-1023.857,43.8,1682.572,08009d24,11,0,20238574.759,0.040,-106354351.883218,0.034,811.140,49.1,2588.610,08009d44*8752a2c4
#SATXYZ2A,USB1_1,0,53.0,FINESTEERING,2000,457940.000,00000000,7513,12778;10,GPS,1,-13681894.3032,21128739.2943,7831528.9770,-14078.292,4.347,2.744,0.0,0.0,GPS,30,2678134.4885,21550363.0162,15188210.4624,22609.892,5.510,3.506,0.0,0.0,GPS,18,-15859870.4759,14884267.1731,14660876.4839,2289.625,4.041,2.517,0.0,0.0,GPS,28,8411320.6334,13747094.2546,21725685.8393,214101.596,7.301,5.053,0.0,0.0,GPS,22,-23952685.6870,9861661.3966,-5613085.1692,-116224.751,8.458,7.127,0.0,0.0,GPS,7,-4176251.6914,24967976.9244,7427120.1734,58079.179,5.145,3.262,0.0,0.0,GPS,8,-14738581.0455,5421681.3034,21487985.6314,-30239.872,4.761,3.068,0.0,0.0,GPS,27,-20158694.7315,-7810456.2757,15528575.3535,110706.282,8.503,7.620,0.0,0.0,GPS,10,-12714927.9433,-12037058.3741,20060713.3586,55222.711,10.074,14.418,0.0,0.0,GPS,11,-10192408.3972,19382158.3948,14574477.0501,-220774.905,4.060,2.513,0.0,0.0*c9e5602b
#BESTPOSA,USB1_1,0,53.0,FINESTEERING,2000,457940.000,00000000,7145,12778;SOL_COMPUTED,SINGLE,36.76834538190,126.93456407498,76.2901,23.3000,WGS84,1.0376,0.9685,1.5364,"",0.000,0.000,10,10,10,10,0,12,00,01*22a0ad4f
#BESTXYZA,USB1_1,0,53.0,FINESTEERING,2000,457940.000,00000000,bde7,12778;SOL_COMPUTED,SINGLE,-3073918.5799,4088935.4888,3796890.2463,1.2498,1.0354,1.3195,SOL_COMPUTED,SINGLE,4.7585e-12,-2.1259e-12,-3.0540e-12,0.0008,0.0008,0.0008,"",0.150,0.000,0.000,10,10,10,10,0,12,00,01*6c7d37f1
#RANGEA,USB1_1,0,52.5,FINESTEERING,2000,457941.000,00000000,5103,12778;10,1,0,20487203.326,0.034,-107660905.968903,0.028,1789.401,50.6,2587.110,08009c04,30,0,21604844.369,0.036,-113534227.877091,0.029,420.832,49.9,2559.500,08009c44,18,0,19948784.595,0.034,-104831497.675549,0.029,128.992,50.6,2579.890,08009c64,28,0,23165585.345,0.058,-121735990.777564,0.030,2632.157,45.9,1371.540,18009c84,22,0,23733406.171,0.064,-124719901.242497,0.029,2728.772,45.0,1143.850,18009ca4,7,0,21163124.392,0.035,-111212886.515740,0.028,-1353.147,50.3,2593.880,08009cc4,8,0,21262947.189,0.041,-111737463.481515,0.028,-1479.822,48.9,2596.840,08009ce4,27,0,23787888.780,0.089,-125006190.043963,0.034,-2682.099,42.1,2560.560,08009d04,10,0,24794719.993,0.073,-130297098.332936,0.096,-1019.896,43.9,1683.572,08009d24,11,0,20238419.980,0.040,-106353538.477143,0.084,815.261,49.1,2589.610,08009d44*d6ff1b30
#SATXYZ2A,USB1_1,0,52.5,FINESTEERING,2000,457941.000,00000000,7513,12778;10,GPS,1,-13681777.7820,21127691.7215,7834532.7407,-14078.294,4.347,2.744,0.0,0.0,GPS,30,2677140.8141,21552045.6500,15185981.3659,22609.891,5.510,3.506,0.0,0.0,GPS,18,-15859513.3406,14882330.7709,14663176.2523,2289.625,4.041,2.517,0.0,0.0,GPS,28,8408725.4072,13747354.3017,21726555.5554,214101.598,7.300,5.052,0.0,0.0,GPS,22,-23953500.5674,9861453.2507,-5610102.2514,-116224.755,8.457,7.125,0.0,0.0,GPS,7,-4176872.8086,24968729.0741,7424112.1554,58079.177,5.145,3.262,0.0,0.0,GPS,8,-14740302.9687,5419585.4506,21487346.5264,-30239.872,4.761,3.068,0.0,0.0,GPS,27,-20159844.8346,-7812064.1531,15526309.9900,110706.282,8.503,7.622,0.0,0.0,GPS,10,-12712448.9602,-12037589.9110,20061952.7943,55222.712,10.074,14.421,0.0,0.0,GPS,11,-10192864.7331,19380225.2413,14576631.0025,-220774.906,4.060,2.513,0.0,0.0*4e163b2a
#BESTPOSA,USB1_1,0,52.5,FINESTEERING,2000,457941.000,00000000,7145,12778;SOL_COMPUTED,SINGLE,36.76834538168,126.93456407038,76.2888,23.3000,WGS84,1.0368,0.9677,1.5355,"",0.000,0.000,10,10,10,10,0,12,00,01*a32e0ab6
#BESTXYZA,USB1_1,0,52.5,FINESTEERING,2000,457941.000,00000000,bde7,12778;SOL_COMPUTED,SINGLE,-3073918.5789,4088935.4882,3796890.2455,1.2491,1.0345,1.3186,SOL_COMPUTED,SINGLE,5.3088e-10,-2.5755e-10,-3.0623e-10,0.0008,0.0008,0.0008,"",0.150,0.000,0.000,10,10,10,10,0,12,00,01*98c3d30e
#RANGEA,USB1_1,0,52.5,FINESTEERING,2000,457942.000,00000000,5103,12778;10,1,0,20486863.192,0.033,-107659118.544854,0.032,1787.355,50.7,2588.110,08009c04,30,0,21604764.672,0.036,-113533809.058406,0.033,418.463,50.0,2560.500,08009c44,18,0,19948760.433,0.033,-104831370.660582,0.033,126.825,50.6,2580.890,08009c64,28,0,23165084.810,0.058,-121733360.407767,0.034,2630.326,45.8,1372.540,18009c84,22,0,23732887.250,0.064,-124717174.198632,0.035,2727.275,45.0,1144.850,18009ca4,7,0,21163382.283,0.034,-111214241.731461,0.032,-1355.575,50.4,2594.880,08009cc4,8,0,21263229.143,0.041,-111738945.178557,0.033,-1481.769,48.9,2597.840,08009ce4,27,0,23788399.513,0.089,-125008873.966702,0.037,-2683.782,42.1,2561.560,08009d04,10,0,24794914.443,0.074,-130298120.104476,0.064,-1022.271,43.7,1684.572,08009d24,11,0,20238265.194,0.040,-106352725.013881,0.058,813.360,49.2,2590.610,08009d44*697d75eb
#SATXYZ2A,USB1_1,0,52.5,FINESTEERING,2000,457942.000,00000000,7513,12778;10,GPS,1,-13681661.1888,21126643.7843,7837536.3339,-14078.295,4.346,2.743,0.0,0.0,GPS,30,2676147.3419,21553728.0818,15183751.9441,22609.889,5.510,3.506,0.0,0.0,GPS,18,-15859156.2218,14880394.0671,14665475.6967,2289.625,4.041,2.517,0.0,0.0,GPS,28,8406130.0943,13747614.5237,21727424.8339,214101.601,7.299,5.051,0.0,0.0,GPS,22,-23954315.0926,9861245.0649,-5607119.2135,-116224.759,8.456,7.123,0.0,0.0,GPS,7,-4177493.7478,24969480.9050,7421103.9762,58079.174,5.146,3.262,0.0,0.0,GPS,8,-14742024.9643,5417489.7632,21486706.9671,-30239.872,4.761,3.068,0.0,0.0,GPS,27,-20160994.8533,-7813671.7391,15524044.2983,110706.282,8.504,7.624,0.0,0.0,GPS,10,-12709969.8538,-12038121.6194,20063191.8064,55222.713,10.074,14.423,0.0,0.0,GPS,11,-10193321.1820,19378291.8330,14578784.6357,-220774.907,4.060,2.513,0.0,0.0*dac6ba53
#BESTPOSA,USB1_1,0,52.5,FINESTEERING,2000,457942.000,00000000,7145,12778;SOL_COMPUTED,SINGLE,36.76834538168,126.93456407038,76.2888,23.3000,WGS84,1.0367,0.9676,1.5354,"",0.000,0.000,10,10,10,10,0,12,00,01*e3c66b49
#BESTXYZA,USB1_1,0,52.5,FINESTEERING,2000,457942.000,00000000,bde7,12778;SOL_COMPUTED,SINGLE,-3073918.5789,4088935.4882,3796890.2455,1.2490,1.0344,1.3185,SOL_COMPUTED,SINGLE,2.2960e-11,-1.1139e-11,-1.3244e-11,0.0008,0.0008,0.0008,"",0.150,0.000,0.000,10,10,10,10,0,12,00,01*24151429
#RANGEA,USB1_1,0,56.5,FINESTEERING,2000,457943.000,00000000,5103,12778;10,1,0,20486523.375,0.034,-107657332.806149,0.030,1783.678,50.5,2589.110,08009c04,30,0,21604685.303,0.037,-113533391.956164,0.030,415.254,49.8,2561.500,08009c44,18,0,19948736.601,0.034,-104831245.400634,0.030,123.168,50.5,2581.890,08009c64,28,0,23164584.510,0.060,-121730731.140326,0.031,2627.412,45.6,1373.540,18009c84,22,0,23732368.542,0.066,-124714448.370437,0.031,2724.204,44.8,1145.850,18009ca4,7,0,21163640.492,0.035,-111215598.635211,0.030,-1358.872,50.3,2595.880,08009cc4,8,0,21263511.339,0.042,-111740428.132081,0.030,-1484.695,48.7,2598.840,08009ce4,27,0,23788910.435,0.091,-125011558.950690,0.032,-2686.937,42.0,2562.560,08009d04,10,0,24795109.177,0.074,-130299143.491265,0.045,-1025.462,43.7,1685.572,08009d24,11,0,20238110.702,0.041,-106351913.151133,0.042,809.891,48.9,2591.610,08009d44*88423353
#SATXYZ2A,USB1_1,0,56.5,FINESTEERING,2000,457943.000,00000000,7513,12778;10,GPS,1,-13681544.5234,21125595.4828,7840539.7565,-14078.297,4.346,2.743,0.0,0.0,GPS,30,2675154.0720,21555410.3114,15181522.1970,22609.888,5.510,3.506,0.0,0.0,GPS,18,-15858799.1195,14878457.0617,14667774.8172,2289.625,4.041,2.517,0.0,0.0,GPS,28,8403534.6949,13747874.9206,21728293.6749,214101.604,7.298,5.050,0.0,0.0,GPS,22,-23955129.2628,9861036.8392,-5604136.0554,-116224.763,8.455,7.121,0.0,0.0,GPS,7,-4178114.5088,24970232.4172,7418095.6359,58079.172,5.146,3.262,0.0,0.0,GPS,8,-14743747.0324,5415394.2413,21486066.9535,-30239.873,4.761,3.068,0.0,0.0,GPS,27,-20162144.7876,-7815279.0338,15521778.2785,110706.282,8.505,7.626,0.0,0.0,GPS,10,-12707490.6243,-12038653.4992,20064430.3949,55222.714,10.074,14.426,0.0,0.0,GPS,11,-10193777.7438,19376358.1701,14580937.9496,-220774.908,4.060,2.513,0.0,0.0*7218c508
#BESTPOSA,USB1_1,0,56.5,FINESTEERING,2000,457943.000,00000000,7145,12778;SOL_COMPUTED,SINGLE,36.76834538168,126.93456407038,76.2888,23.3000,WGS84,1.0367,0.9676,1.5353,"",0.000,0.000,10,10,10,10,0,12,00,01*c1d4b986
#BESTXYZA,USB1_1,0,56.5,FINESTEERING,2000,457943.000,00000000,bde7,12778;SOL_COMPUTED,SINGLE,-3073918.5789,4088935.4882,3796890.2455,1.2489,1.0344,1.3185,SOL_COMPUTED,SINGLE,9.9300e-13,-4.8174e-13,-5.7280e-13,0.0008,0.0008,0.0008,"",0.150,0.000,0.000,10,10,10,10,0,12,00,01*923f6643
#RANGEA,USB1_1,0,60.0,FINESTEERING,2000,457944.000,00000000,5103,12778;10,1,0,20486184.028,0.034,-107655549.553901,0.034,1784.474,50.5,2590.110,08009c04,30,0,21604606.426,0.037,-113532977.434241,0.034,415.788,49.8,2562.500,08009c44,18,0,19948713.265,0.034,-104831122.726441,0.034,123.824,50.6,2582.890,08009c64,28,0,23164084.553,0.059,-121728103.786885,0.035,2628.700,45.7,1374.540,18009c84,22,0,23731850.232,0.066,-124711724.553286,0.035,2725.427,44.7,1146.850,18009ca4,7,0,21163899.178,0.034,-111216958.066344,0.034,-1358.221,50.4,2596.880,08009cc4,8,0,21263793.927,0.042,-111741913.155742,0.034,-1483.521,48.8,2599.840,08009ce4,27,0,23789421.742,0.088,-125014245.863130,0.035,-2685.486,42.3,2563.560,08009d04,10,0,24795304.394,0.075,-130300169.335009,0.104,-1024.738,43.6,1686.572,08009d24,11,0,20237956.674,0.041,-106351103.738105,0.039,810.668,48.9,2592.610,08009d44*081b4ddf
#SATXYZ2A,USB1_1,0,60.0,FINESTEERING,2000,457944.000,00000000,7513,12778;10,GPS,1,-13681427.7860,21124546.8169,7843543.0085,-14078.299,4.345,2.743,0.0,0.0,GPS,30,2674161.0043,21557092.3389,15179292.1248,22609.886,5.510,3.506,0.0,0.0,GPS,18,-15858442.0338,14876519.7547,14670073.6136,2289.625,4.041,2.517,0.0,0.0,GPS,28,8400939.2089,13748135.4922,21729162.0784,214101.607,7.297,5.049,0.0,0.0,GPS,22,-23955943.0778,9860828.5735,-5601152.7774,-116224.767,8.453,7.120,0.0,0.0,GPS,7,-4178735.0917,24970983.6106,7415087.1344,58079.169,5.146,3.263,0.0,0.0,GPS,8,-14745469.1728,5413298.8848,21485426.4857,-30239.873,4.761,3.068,0.0,0.0,GPS,27,-20163294.6374,-7816886.0373,15519511.9305,110706.282,8.505,7.628,0.0,0.0,GPS,10,-12705011.2717,-12039185.5505,20065668.5597,55222.714,10.075,14.429,0.0,0.0,GPS,11,-10194234.4187,19374424.2524,14583090.9442,-220774.908,4.060,2.513,0.0,0.0*4f1c42e5
#BESTPOSA,USB1_1,0,60.0,FINESTEERING,2000,457944.000,00000000,7145,12778;SOL_COMPUTED,SINGLE,36.76834539233,126.93456404423,76.2912,23.3000,WGS84,1.0542,0.9855,1.5538,"",0.000,0.000,10,10,10,10,0,12,00,01*adfe3c94
#BESTXYZA,USB1_1,0,60.0,FINESTEERING,2000,457944.000,00000000,bde7,12778;SOL_COMPUTED,SINGLE,-3073918.5778,4088935.4906,3796890.2479,1.2663,1.0528,1.3360,SOL_COMPUTED,SINGLE,0.0000,0.0000,0.0000,0.0009,0.0009,0.0009,"",0.150,0.000,0.000,10,10,10,10,0,12,00,01*29c21f47
#RANGEA,USB1_1,0,55.5,FINESTEERING,2000,457945.000,00000000,5103,12778;10,1,0,20485844.772,0.034,-107653766.791779,0.036,1781.587,50.5,2591.110,08009c04,30,0,21604527.649,0.037,-113532563.447377,0.035,413.057,49.9,2563.500,08009c44,18,0,19948690.037,0.034,-104831000.609672,0.035,120.932,50.6,2583.890,08009c64,28,0,23163584.593,0.060,-121725476.354010,0.036,2626.743,45.6,1375.540,18009c84,22,0,23731331.918,0.066,-124709000.743691,0.098,2723.037,44.8,1147.850,18009ca4,7,0,21164157.964,0.034,-111218317.989528,0.035,-1360.682,50.4,2597.880,08009cc4,8,0,21264076.522,0.042,-111743398.249783,0.035,-1485.620,48.8,2600.840,08009ce4,27,0,23789933.032,0.086,-125016932.649188,0.035,-2687.292,42.4,2564.560,08009d04,10,0,24795499.683,0.074,-130301195.614470,0.070,-1027.129,43.7,1687.572,08009d24,11,0,20237802.738,0.041,-106350294.726922,0.037,808.040,49.0,2593.610,08009d44*d509bfdf
#SATXYZ2A,USB1_1,0,55.5,FINESTEERING,2000,457945.000,00000000,7513,12778;10,GPS,1,-13681310.9766,21123497.7867,7846546.0898,-14078.300,4.345,2.743,0.0,0.0,GPS,30,2673168.1390,21558774.1641,15177061.7274,22609.885,5.510,3.506,0.0,0.0,GPS,18,-15858084.9647,14874582.1462,14672372.0860,2289.626,4.041,2.517,0.0,0.0,GPS,28,8398343.6365,13748396.2387,21730030.0443,214101.610,7.296,5.048,0.0,0.0,GPS,22,-23956756.5377,9860620.2678,-5598169.3795,-116224.771,8.452,7.118,0.0,0.0,GPS,7,-4179355.4966,24971734.4851,7412078.4720,58079.167,5.147,3.263,0.0,0.0,GPS,8,-14747191.3855,5411203.6938,21484785.5636,-30239.873,4.761,3.069,0.0,0.0,GPS,27,-20164444.4027,-7818492.7494,15517245.2545,110706.282,8.506,7.630,0.0,0.0,GPS,10,-12702531.7960,-12039717.7732,20066906.3009,55222.715,10.075,14.431,0.0,0.0,GPS,11,-10194691.2066,19372490.0802,14585243.6194,-220774.909,4.060,2.513,0.0,0.0*9b045f63
#BESTPOSA,USB1_1,0,55.5,FINESTEERING,2000,457945.000,00000000,7145,12778;SOL_COMPUTED,SINGLE,36.76834539233,126.93456404423,76.2912,23.3000,WGS84,1.0528,0.9842,1.5516,"",0.000,0.000,10,10,10,10,0,12,00,01*2780b6e6
#BESTXYZA,USB1_1,0,55.5,FINESTEERING,2000,457945.000,00000000,bde7,12778;SOL_COMPUTED,SINGLE,-3073918.5778,4088935.4906,3796890.2479,1.2645,1.0514,1.3342,SOL_COMPUTED,SINGLE,2.6089e-10,7.1583e-10,6.1659e-10,0.0008,0.0008,0.0008,"",0.150,0.000,0.000,10,10,10,10,0,12,00,01*e682f50d
#RANGEA,USB1_1,0,55.5,FINESTEERING,2000,457946.000,00000000,5103,12778;10,1,0,20485505.662,0.034,-107651984.768348,0.032,1781.565,50.6,2592.110,08009c04,30,0,21604449.023,0.037,-113532150.245339,0.032,412.708,49.8,2564.500,08009c44,18,0,19948666.960,0.034,-104830879.316180,0.031,120.745,50.6,2584.890,08009c64,28,0,23163084.668,0.060,-121722849.097733,0.033,2627.226,45.6,1376.540,18009c84,22,0,23730813.658,0.064,-124706277.197030,0.064,2723.194,44.9,1148.850,18009ca4,7,0,21164416.888,0.034,-111219678.663440,0.032,-1361.096,50.4,2598.880,08009cc4,8,0,21264359.170,0.041,-111744883.622464,0.032,-1485.553,48.8,2601.840,08009ce4,27,0,23790444.351,0.085,-125019619.569560,0.033,-2687.189,42.6,2565.560,08009d04,10,0,24795695.104,0.076,-130302222.570872,0.048,-1027.348,43.5,1688.572,08009d24,11,0,20237648.927,0.040,-106349486.387505,0.033,807.953,49.0,2594.610,08009d44*db91c892
#SATXYZ2A,USB1_1,0,55.5,FINESTEERING,2000,457946.000,00000000,7513,12778;10,GPS,1,-13681194.0953,21122448.3922,7849549.0004,-14078.302,4.345,2.742,0.0,0.0,GPS,30,2672175.4758,21560455.7870,15174831.0049,22609.883,5.509,3.505,0.0,0.0,GPS,18,-15857727.9123,14872644.2362,14674670.2343,2289.626,4.041,2.517,0.0,0.0,GPS,28,8395747.9777,13748657.1601,21730897.5727,214101.612,7.295,5.048,0.0,0.0,GPS,22,-23957569.6425,9860411.9221,-5595185.8617,-116224.776,8.451,7.116,0.0,0.0,GPS,7,-4179975.7236,24972485.0408,7409069.6486,58079.164,5.147,3.263,0.0,0.0,GPS,8,-14748913.6704,5409108.6685,21484144.1872,-30239.873,4.762,3.069,0.0,0.0,GPS,27,-20165594.0833,-7820099.1701,15514978.2505,110706.282,8.506,7.632,0.0,0.0,GPS,10,-12700052.1973,-12040250.1674,20068143.6183,55222.716,10.075,14.434,0.0,0.0,GPS,11,-10195148.1076,19370555.6534,14587395.9751,-220774.910,4.060,2.513,0.0,0.0*c46569c6
#BESTPOSA,USB1_1,0,55.5,FINESTEERING,2000,457946.000,00000000,7145,12778;SOL_COMPUTED,SINGLE,36.76834539244,126.93456403934,76.2899,23.3000,WGS84,1.0514,0.9828,1.5498,"",0.000,0.000,10,10,10,10,0,12,00,01*8458c9d8
#BESTXYZA,USB1_1,0,55.5,FINESTEERING,2000,457946.000,00000000,bde7,12778;SOL_COMPUTED,SINGLE,-3073918.5768,4088935.4900,3796890.2471,1.2631,1.0498,1.3326,SOL_COMPUTED,SINGLE,5.7159e-10,-2.3393e-10,-2.5064e-10,0.0008,0.0008,0.0008,"",0.150,0.000,0.000,10,10,10,10,0,12,00,01*91b1906e
#RANGEA,USB1_1,0,57.5,FINESTEERING,2000,457947.000,00000000,5103,12778;10,1,0,20485166.615,0.034,-107650203.075812,0.030,1784.726,50.5,2593.110,08009c04,30,0,21604370.461,0.037,-113531737.416366,0.030,415.797,49.8,2565.500,08009c44,18,0,19948643.963,0.034,-104830758.411164,0.030,123.910,50.6,2585.890,08009c64,28,0,23162584.692,0.060,-121720221.601474,0.031,2630.842,45.6,1377.540,18009c84,22,0,23730295.367,0.066,-124703553.508719,0.046,2726.892,44.7,1149.850,18009ca4,7,0,21164675.879,0.035,-111221039.690761,0.030,-1358.170,50.3,2599.880,08009cc4,8,0,21264641.810,0.042,-111746368.900599,0.030,-1482.196,48.7,2602.840,08009ce4,27,0,23790955.598,0.082,-125022306.208356,0.031,-2683.329,42.9,2566.560,08009d04,10,0,24795890.582,0.075,-130303249.796586,0.038,-1023.944,43.6,1689.572,08009d24,11,0,20237495.155,0.041,-106348678.301358,0.031,811.016,49.0,2595.610,08009d44*00412aa2
#SATXYZ2A,USB1_1,0,57.5,FINESTEERING,2000,457947.000,00000000,7513,12778;10,GPS,1,-13681077.1422,21121398.6333,7852551.7401,-14078.303,4.344,2.742,0.0,0.0,GPS,30,2671183.0149,21562137.2076,15172599.9573,22609.882,5.509,3.505,0.0,0.0,GPS,18,-15857370.8767,14870706.0247,14676968.0584,2289.626,4.041,2.517,0.0,0.0,GPS,28,8393152.2326,13748918.2564,21731764.6634,214101.615,7.294,5.047,0.0,0.0,GPS,22,-23958382.3922,9860203.5362,-5592202.2240,-116224.780,8.450,7.114,0.0,0.0,GPS,7,-4180595.7725,24973235.2776,7406060.6644,58079.162,5.147,3.263,0.0,0.0,GPS,8,-14750636.0275,5407013.8087,21483502.3567,-30239.873,4.762,3.069,0.0,0.0,GPS,27,-20166743.6792,-7821705.2995,15512710.9186,110706.282,8.507,7.634,0.0,0.0,GPS,10,-12697572.4758,-12040782.7331,20069380.5120,55222.717,10.075,14.437,0.0,0.0,GPS,11,-10195605.1217,19368620.9720,14589548.0113,-220774.911,4.059,2.513,0.0,0.0*e20557e0
#BESTPOSA,USB1_1,0,57.5,FINESTEERING,2000,457947.000,00000000,7145,12778;SOL_COMPUTED,SINGLE,36.76834539244,126.93456403934,76.2899,23.3000,WGS84,1.0510,0.9825,1.5493,"",0.000,0.000,10,10,10,10,0,12,00,01*3c2fa165
#BESTXYZA,USB1_1,0,57.5,FINESTEERING,2000,457947.000,00000000,bde7,12778;SOL_COMPUTED,SINGLE,-3073918.5768,4088935.4900,3796890.2471,1.2627,1.0494,1.3321,SOL_COMPUTED,SINGLE,2.4721e-11,-1.0117e-11,-1.0840e-11,0.0008,0.0008,0.0008,"",0.150,0.000,0.000,10,10,10,10,0,12,00,01*fcec6e0b
#RANGEA,USB1_1,0,56.5,FINESTEERING,2000,457948.000,00000000,5103,12778;10,1,0,20484827.424,0.034,-107648420.638606,0.030,1783.251,50.5,2594.110,08009c04,30,0,21604291.778,0.037,-113531323.917758,0.030,414.333,49.7,2566.500,08009c44,18,0,19948620.833,0.034,-104830636.867270,0.030,122.188,50.5,2586.890,08009c64,28,0,23162084.467,0.060,-121717592.795789,0.032,2630.002,45.6,1378.540,18009c84,22,0,23729776.849,0.067,-124700828.591647,0.091,2725.999,44.6,1150.850,18009ca4,7,0,21164934.734,0.035,-111222399.991000,0.030,-1359.639,50.2,2600.880,08009cc4,8,0,21264924.227,0.041,-111747853.007100,0.031,-1483.173,48.8,2603.840,08009ce4,27,0,23791466.605,0.079,-125024991.521850,0.033,-2683.949,43.1,2567.560,08009d04,10,0,24796085.908,0.083,-130304276.240012,0.035,-1025.478,42.8,1690.572,08009d24,11,0,20237341.229,0.041,-106347869.396148,0.030,809.681,49.0,2596.610,08009d44*5b010f80
#SATXYZ2A,USB1_1,0,56.5,FINESTEERING,2000,457948.000,00000000,7513,12778;10,GPS,1,-13680960.1172,21120348.5101,7855554.3089,-14078.305,4.344,2.742,0.0,0.0,GPS,30,2670190.7561,21563818.4257,15170368.5848,22609.880,5.509,3.505,0.0,0.0,GPS,18,-15857013.8578,14868767.5118,14679265.5582,2289.626,4.041,2.517,0.0,0.0,GPS,28,8390556.4012,13749179.5275,21732631.3166,214101.618,7.293,5.046,0.0,0.0,GPS,22,-23959194.7867,9859995.1102,-5589218.4666,-116224.784,8.449,7.112,0.0,0.0,GPS,7,-4181215.6436,24973985.1954,7403051.5193,58079.159,5.147,3.263,0.0,0.0,GPS,8,-14752358.4568,5404919.1146,21482860.0719,-30239.874,4.762,3.069,0.0,0.0,GPS,27,-20167893.1904,-7823311.1376,15510443.2587,110706.282,8.508,7.636,0.0,0.0,GPS,10,-12695092.6314,-12041315.4703,20070616.9819,55222.718,10.075,14.439,0.0,0.0,GPS,11,-10196062.2489,19366686.0362,14591699.7280,-220774.911,4.059,2.513,0.0,0.0*effc0430
#BESTPOSA,USB1_1,0,56.5,FINESTEERING,2000,457948.000,00000000,7145,12778;SOL_COMPUTED,SINGLE,36.76834539244,126.93456403934,76.2899,23.3000,WGS84,1.0509,0.9823,1.5490,"",0.000,0.000,10,10,10,10,0,12,00,01*4a7d3863
#BESTXYZA,USB1_1,0,56.5,FINESTEERING,2000,457948.000,00000000,bde7,12778;SOL_COMPUTED,SINGLE,-3073918.5768,4088935.4900,3796890.2471,1.2625,1.0492,1.3319,SOL_COMPUTED,SINGLE,1.0692e-12,-4.3757e-13,-4.6882e-13,0.0008,0.0008,0.0008,"",0.150,0.000,0.000,10,10,10,10,0,12,00,01*8dafb9d8
#RANGEA,USB1_1,0,56.5,FINESTEERING,2000,457949.000,00000000,5103,12778;10,1,0,20484487.950,0.034,-107646636.720189,0.034,1785.153,50.5,2595.110,08009c04,30,0,21604212.826,0.038,-113530908.993468,0.033,415.579,49.6,2567.500,08009c44,18,0,19948597.442,0.034,-104830513.904443,0.036,124.093,50.4,2587.890,08009c64,28,0,23161583.851,0.060,-121714961.947644,0.035,2632.129,45.6,1379.540,18009c84,22,0,23729257.964,0.067,-124698101.737760,0.062,2728.275,44.6,1151.850,18009ca4,7,0,21165193.307,0.036,-111223758.809575,0.033,-1358.039,50.1,2601.880,08009cc4,8,0,21265206.270,0.041,-111749335.179944,0.033,-1481.085,48.8,2604.840,08009ce4,27,0,23791977.211,0.080,-125027674.743262,0.035,-2681.527,43.1,2568.560,08009d04,10,0,24796280.955,0.080,-130305301.161637,0.100,-1023.640,43.0,1691.572,08009d24,11,0,20237187.002,0.041,-106347058.935788,0.034,811.839,48.9,2597.610,08009d44*ec7c1698
#SATXYZ2A,USB1_1,0,56.5,FINESTEERING,2000,457949.000,00000000,7513,12778;10,GPS,1,-13680843.0205,21119298.0225,7858556.7068,-14078.307,4.344,2.742,0.0,0.0,GPS,30,2669198.6996,21565499.4414,15168136.8872,22609.879,5.509,3.505,0.0,0.0,GPS,18,-15856656.8558,14866828.6975,14681562.7338,2289.626,4.041,2.517,0.0,0.0,GPS,28,8387960.4837,13749440.9735,21733497.5321,214101.621,7.292,5.045,0.0,0.0,GPS,22,-23960006.8261,9859786.6439,-5586234.5895,-116224.788,8.447,7.110,0.0,0.0,GPS,7,-4181835.3367,24974734.7942,7400042.2135,58079.157,5.148,3.264,0.0,0.0,GPS,8,-14754080.9582,5402824.5862,21482217.3330,-30239.874,4.762,3.069,0.0,0.0,GPS,27,-20169042.6168,-7824916.6843,15508175.2710,110706.282,8.508,7.638,0.0,0.0,GPS,10,-12692612.6641,-12041848.3790,20071853.0281,55222.719,10.075,14.442,0.0,0.0,GPS,11,-10196519.4892,19364750.8459,14593851.1250,-220774.912,4.059,2.513,0.0,0.0*725a68d0
#BESTPOSA,USB1_1,0,56.5,FINESTEERING,2000,457949.000,00000000,7145,12778;SOL_COMPUTED,SINGLE,36.76834539227,126.93456403509,76.2887,23.3000,WGS84,1.0500,0.9814,1.5480,"",0.000,0.000,10,10,10,10,0,12,00,01*6e76342b
#BESTXYZA,USB1_1,0,56.5,FINESTEERING,2000,457949.000,00000000,bde7,12778;SOL_COMPUTED,SINGLE,-3073918.5759,4088935.4895,3796890.2464,1.2615,1.0483,1.3310,SOL_COMPUTED,SINGLE,1.0161e-10,-5.3219e-11,-5.9172e-11,0.0008,0.0008,0.0008,"",0.150,0.000,0.000,10,10,10,10,0,12,00,01*d3ecf20d
#RANGEA,USB1_1,0,56.5,FINESTEERING,2000,457950.000,00000000,5103,12778;10,1,0,20484148.480,0.034,-107644852.812358,0.033,1782.708,50.4,2596.110,08009c04,30,0,21604133.873,0.038,-113530494.111487,0.033,413.881,49.6,2568.500,08009c44,18,0,19948574.067,0.035,-104830391.033578,0.034,121.688,50.3,2588.890,08009c64,28,0,23161083.139,0.061,-121712330.542943,0.034,2630.449,45.4,1380.540,18009c84,22,0,23728738.973,0.067,-124695374.382895,0.046,2726.446,44.6,1152.850,18009ca4,7,0,21165451.880,0.036,-111225117.644822,0.033,-1359.790,49.9,2602.880,08009cc4,8,0,21265488.245,0.042,-111750816.972899,0.033,-1482.495,48.7,2605.840,08009ce4,27,0,23792487.704,0.081,-125030357.363864,0.035,-2683.307,43.0,2569.560,08009d04,10,0,24796475.972,0.079,-130306326.020709,0.067,-1025.792,43.1,1692.572,08009d24,11,0,20237032.777,0.041,-106346248.411761,0.033,809.439,48.8,2598.610,08009d44*2d4418b6
#SATXYZ2A,USB1_1,0,56.5,FINESTEERING,2000,457950.000,00000000,7513,12778;10,GPS,1,-13680725.8521,21118247.1707,7861558.9336,-14078.308,4.343,2.742,0.0,0.0,GPS,30,2668206.8452,21567180.2546,15165904.8648,22609.878,5.509,3.505,0.0,0.0,GPS,18,-15856299.8706,14864889.5818,14683859.5851,2289.626,4.041,2.517,0.0,0.0,GPS,28,8385364.4800,13749702.5944,21734363.3100,214101.624,7.291,5.044,0.0,0.0,GPS,22,-23960818.5103,9859578.1374,-5583250.5928,-116224.792,8.446,7.108,0.0,0.0,GPS,7,-4182454.8520,24975484.0740,7397032.7470,58079.154,5.148,3.264,0.0,0.0,GPS,8,-14755803.5316,5400730.2235,21481574.1399,-30239.874,4.762,3.070,0.0,0.0,GPS,27,-20170191.9583,-7826521.9396,15505906.9554,110706.282,8.509,7.640,0.0,0.0,GPS,10,-12690132.5742,-12042381.4593,20073088.6504,55222.719,10.075,14.445,0.0,0.0,GPS,11,-10196976.8428,19362815.4012,14596002.2025,-220774.913,4.059,2.513,0.0,0.0*9c7152f1
#BESTPOSA,USB1_1,0,56.5,FINESTEERING,2000,457950.000,00000000,7145,12778;SOL_COMPUTED,SINGLE,36.76834539227,126.93456403509,76.2887,23.3000,WGS84,1.0499,0.9813,1.5480,"",0.000,0.000,10,10,10,10,0,12,00,01*78eef758
#BESTXYZA,USB1_1,0,56.5,FINESTEERING,2000,457950.000,00000000,bde7,12778;SOL_COMPUTED,SINGLE,-3073918.5759,4088935.4895,3796890.2464,1.2615,1.0482,1.3310,SOL_COMPUTED,SINGLE,4.3946e-12,-2.3017e-12,-2.5592e-12,0.0008,0.0008,0.0008,"",0.150,0.000,0.000,10,10,10,10,0,12,00,01*681b0c5d
#RANGEA,USB1_1,0,55.5,FINESTEERING,2000,457951.000,00000000,5103,12778;10,1,0,20483809.415,0.034,-107643070.998967,0.031,1777.748,50.5,2597.110,08009c04,30,0,21604055.337,0.038,-113530081.389018,0.031,408.939,49.5,2569.500,08009c44,18,0,19948551.106,0.035,-104830270.360213,0.031,116.651,50.3,2589.890,08009c64,28,0,23160582.721,0.061,-121709700.642371,0.033,2626.308,45.4,1381.540,18009c84,22,0,23728220.288,0.067,-124692648.637023,0.037,2722.112,44.6,1153.850,18009ca4,7,0,21165710.854,0.037,-111226478.608472,0.030,-1364.762,49.9,2603.880,08009cc4,8,0,21265770.533,0.042,-111752300.420936,0.031,-1487.048,48.7,2606.840,08009ce4,27,0,23792998.484,0.082,-125033041.508201,0.033,-2687.836,42.8,2570.560,08009d04,10,0,24796671.385,0.080,-130307352.916308,0.048,-1030.423,43.1,1693.572,08009d24,11,0,20236878.932,0.042,-106345439.903388,0.031,804.793,48.8,2599.610,08009d44*f26fce1c
#SATXYZ2A,USB1_1,0,55.5,FINESTEERING,2000,457951.000,00000000,7513,12778;10,GPS,1,-13680608.6120,21117195.9545,7864560.9894,-14078.310,4.343,2.741,0.0,0.0,GPS,30,2667215.1930,21568860.8652,15163672.5174,22609.876,5.509,3.505,0.0,0.0,GPS,18,-15855942.9024,14862950.1648,14686156.1119,2289.627,4.041,2.517,0.0,0.0,GPS,28,8382768.3902,13749964.3902,21735228.6503,214101.626,7.290,5.043,0.0,0.0,GPS,22,-23961629.8394,9859369.5906,-5580266.4766,-116224.796,8.445,7.106,0.0,0.0,GPS,7,-4183074.1895,24976233.0347,7394023.1199,58079.152,5.148,3.264,0.0,0.0,GPS,8,-14757526.1770,5398636.0266,21480930.4926,-30239.874,4.763,3.070,0.0,0.0,GPS,27,-20171341.2149,-7828126.9035,15503638.3121,110706.282,8.509,7.642,0.0,0.0,GPS,10,-12687652.3616,-12042914.7110,20074323.8489,55222.720,10.075,14.448,0.0,0.0,GPS,11,-10197434.3095,19360879.7022,14598152.9602,-220774.914,4.059,2.513,0.0,0.0*96aa9e59
#BESTPOSA,USB1_1,0,55.5,FINESTEERING,2000,457951.000,00000000,7145,12778;SOL_COMPUTED,SINGLE,36.76834539276,126.93456402985,76.2875,23.3000,WGS84,1.0493,0.9806,1.5472,"",0.000,0.000,10,10,10,10,0,12,00,01*f8638380
#BESTXYZA,USB1_1,0,55.5,FINESTEERING,2000,457951.000,00000000,bde7,12778;SOL_COMPUTED,SINGLE,-3073918.5749,4088935.4889,3796890.2457,1.2609,1.0473,1.3302,SOL_COMPUTED,SINGLE,6.0067e-10,-2.4405e-10,-2.3496e-10,0.0008,0.0008,0.0008,"",0.150,0.000,0.000,10,10,10,10,0,12,00,01*8808b14a
#RANGEA,USB1_1,0,54.0,FINESTEERING,2000,457952.000,00000000,5103,12778;10,1,0,20483470.565,0.034,-107641290.331958,0.030,1780.278,50.4,2598.110,08009c04,30,0,21603977.030,0.038,-113529669.869937,0.031,411.036,49.5,2570.500,08009c44,18,0,19948528.371,0.035,-104830150.886409,0.031,118.981,50.3,2590.890,08009c64,28,0,23160082.398,0.060,-121707071.327844,0.032,2629.015,45.5,1382.540,18009c84,22,0,23727701.734,0.068,-124689923.601144,0.034,2724.916,44.6,1154.850,18009ca4,7,0,21165970.051,0.037,-111227840.715226,0.031,-1362.710,49.8,2604.880,08009cc4,8,0,21266052.958,0.042,-111753784.588263,0.031,-1484.398,48.7,2607.840,08009ce4,27,0,23793509.370,0.080,-125035726.193686,0.032,-2684.773,43.1,2571.560,08009d04,10,0,24796867.010,0.079,-130308380.923036,0.071,-1028.349,43.2,1694.572,08009d24,11,0,20236725.294,0.041,-106344632.490125,0.031,807.086,48.8,2600.610,08009d44*549580a8
#SATXYZ2A,USB1_1,0,54.0,FINESTEERING,2000,457952.000,00000000,7513,12778;10,GPS,1,-13680491.3004,21116144.3741,7867562.8739,-14078.311,4.343,2.741,0.0,0.0,GPS,30,2666223.7430,21570541.2731,15161439.8453,22609.875,5.508,3.505,0.0,0.0,GPS,18,-15855585.9512,14861010.4464,14688452.3144,2289.627,4.040,2.517,0.0,0.0,GPS,28,8380172.2145,13750226.3610,21736093.5528,214101.629,7.289,5.042,0.0,0.0,GPS,22,-23962440.8133,9859161.0034,-5577282.2408,-116224.800,8.444,7.104,0.0,0.0,GPS,7,-4183693.3492,24976981.6763,7391013.3322,58079.149,5.149,3.264,0.0,0.0,GPS,8,-14759248.8943,5396541.9955,21480286.3911,-30239.874,4.763,3.070,0.0,0.0,GPS,27,-20172490.3866,-7829731.5759,15501369.3411,110706.282,8.510,7.644,0.0,0.0,GPS,10,-12685172.0265,-12043448.1343,20075558.6235,55222.721,10.075,14.450,0.0,0.0,GPS,11,-10197891.8895,19358943.7489,14600303.3982,-220774.914,4.059,2.513,0.0,0.0*b5946b6c
#BESTPOSA,USB1_1,0,54.0,FINESTEERING,2000,457952.000,00000000,7145,12778;SOL_COMPUTED,SINGLE,36.76834539276,126.93456402985,76.2875,23.3000,WGS84,1.0492,0.9806,1.5471,"",0.000,0.000,10,10,10,10,0,12,00,01*b43506e6
#BESTXYZA,USB1_1,0,54.0,FINESTEERING,2000,457952.000,00000000,bde7,12778;SOL_COMPUTED,SINGLE,-3073918.5749,4088935.4889,3796890.2457,1.2609,1.0473,1.3302,SOL_COMPUTED,SINGLE,2.5978e-11,-1.0555e-11,-1.0162e-11,0.0008,0.0008,0.0008,"",0.150,0.000,0.000,10,10,10,10,0,12,00,01*1f48f51e
#RANGEA,USB1_1,0,54.0,FINESTEERING,2000,457953.000,00000000,5103,12778;10,1,0,20483131.956,0.034,-107639510.944577,0.031,1776.593,50.4,2599.110,08009c04,30,0,21603898.977,0.038,-113529259.678897,0.030,407.428,49.4,2571.500,08009c44,18,0,19948505.892,0.035,-104830032.753825,0.031,115.293,50.2,2591.890,08009c64,28,0,23159582.206,0.061,-121704442.713752,0.031,2626.031,45.4,1383.540,18009c84,22,0,23727183.322,0.068,-124687199.332335,0.032,2721.571,44.6,1155.850,18009ca4,7,0,21166229.488,0.037,-111229204.103681,0.030,-1366.229,49.8,2605.880,08009cc4,8,0,21266335.542,0.042,-111755269.593701,0.031,-1487.593,48.7,2608.840,08009ce4,27,0,23794020.383,0.081,-125038411.536078,0.031,-2687.958,43.0,2572.560,08009d04,10,0,24797062.886,0.080,-130309410.169402,0.051,-1031.822,43.0,1695.572,08009d24,11,0,20236571.883,0.041,-106343826.276196,0.030,803.385,48.9,2601.610,08009d44*36d69d62
