#RANGEA,USB1_1,0,73.0,FINESTEERING,2000,358331.000,00000000,5103,12778;7,21,0,23775783.830,0.060,-124942586.859521,0.025,-215.223,45.6,459.700,08009c04,23,0,21832795.540,0.048,-114732123.046637,0.024,-242.853,47.6,459.938,18009c24,9,0,23202760.325,0.046,-121931330.995663,0.024,1699.438,47.9,459.780,08009c44,31,0,23014676.122,0.042,-120942934.877860,0.024,-2701.722,48.6,459.720,18009ca4,26,0,21455028.095,0.040,-112746929.631013,0.023,-1639.969,49.1,459.800,18009ce4,16,0,20467080.925,0.036,-107555237.384373,0.023,-546.551,50.0,459.730,08009d24,27,0,20399967.058,0.032,-107202561.781018,0.023,1711.841,51.1,460.010,18009d44*a97a201d
#SATXYZ2A,USB1_1,0,73.0,FINESTEERING,2000,358331.000,00000000,7513,12778;7,GPS,21,-22070113.6684,-4742183.0998,14787772.6374,-119038.718,8.326,5.749,0.0,0.0,GPS,23,2408802.1516,23484347.1460,12018116.1152,-65111.141,5.692,3.654,0.0,0.0,GPS,9,10710757.4240,13948772.6041,19868718.3216,153923.293,7.984,6.167,0.0,0.0,GPS,31,-25897020.1351,6630913.9469,1794022.3535,36797.818,7.554,4.961,0.0,0.0,GPS,26,-16480994.7597,3868255.1795,20486323.9506,-46317.076,5.283,3.234,0.0,0.0,GPS,16,-8698856.3375,12136089.2047,21764004.2577,7575.265,4.437,2.713,0.0,0.0,GPS,27,-12238348.5599,21883607.6646,8274454.5631,110731.001,4.469,2.740,0.0,0.0*173e1c55
#BESTPOSA,USB1_1,0,73.0,FINESTEERING,2000,358331.000,00000000,7145,12778;SOL_COMPUTED,SINGLE,36.76973232678,126.93478290235,75.3269,23.3000,WGS84,1.0412,0.7538,1.9049,"",0.000,0.000,7,7,7,7,0,12,00,01*04ce7ac3
#BESTXYZA,USB1_1,0,73.0,FINESTEERING,2000,358331.000,00000000,bde7,12778;SOL_COMPUTED,SINGLE,-3073878.3698,4088849.4883,3797012.9651,1.1689,1.2989,1.4925,SOL_COMPUTED,SINGLE,0.0000,0.0000,0.0000,0.0011,0.0011,0.0011,"",0.150,0.000,0.000,7,7,7,7,0,12,00,01*783aa8b1
#RANGEA,USB1_1,0,66.5,FINESTEERING,2000,358332.000,00000000,5103,12778;7,21,0,23775824.621,0.061,-124942801.207463,0.026,-214.596,45.5,460.700,08009c04,23,0,21832841.579,0.048,-114732364.940718,0.026,-242.164,47.5,460.938,18009c24,9,0,23202436.760,0.047,-121929630.636895,0.025,1699.976,47.7,460.780,08009c44,31,0,23015190.046,0.043,-120945635.550715,0.026,-2700.950,48.4,460.720,18009ca4,26,0,21455339.999,0.040,-112748568.631354,0.026,-1639.057,49.1,460.800,18009ce4,16,0,20467184.734,0.036,-107555782.912707,0.025,-545.718,50.0,460.730,08009d24,27,0,20399641.152,0.032,-107200849.113614,0.025,1712.320,51.1,461.010,18009d44*7dc5a419
#SATXYZ2A,USB1_1,0,66.5,FINESTEERING,2000,358332.000,00000000,7513,12778;7,GPS,21,-22068499.7664,-4742887.7228,14790083.2884,-119038.715,8.326,5.749,0.0,0.0,GPS,23,2408102.5019,23485709.9075,12015488.9126,-65111.141,5.692,3.655,0.0,0.0,GPS,9,10709947.1259,13951175.1626,19867468.8451,153923.293,7.984,6.166,0.0,0.0,GPS,31,-25897283.9420,6630726.7527,1790878.9329,36797.818,7.555,4.962,0.0,0.0,GPS,26,-16482751.5557,3866333.4247,20485287.0857,-46317.072,5.284,3.234,0.0,0.0,GPS,16,-8700646.9729,12133936.9983,21764525.6597,7575.264,4.437,2.713,0.0,0.0,GPS,27,-12238272.7121,21882518.0972,8277445.9175,110731.000,4.469,2.740,0.0,0.0*c7183bec
#BESTPOSA,USB1_1,0,66.5,FINESTEERING,2000,358332.000,00000000,7145,12778;SOL_COMPUTED,SINGLE,36.76973232678,126.93478290235,75.3269,23.3000,WGS84,1.0412,0.7538,1.9049,"",0.000,0.000,7,7,7,7,0,12,00,01*e6a1fca9
#BESTXYZA,USB1_1,0,66.5,FINESTEERING,2000,358332.000,00000000,bde7,12778;SOL_COMPUTED,SINGLE,-3073878.3698,4088849.4883,3797012.9651,1.1689,1.2989,1.4925,SOL_COMPUTED,SINGLE,-9.9226e-10,-5.6392e-10,-6.3440e-10,0.0011,0.0011,0.0011,"",0.150,0.000,0.000,7,7,7,7,0,12,00,01*cddd2b3e
#RANGEA,USB1_1,0,66.5,FINESTEERING,2000,358333.000,00000000,5103,12778;7,21,0,23775865.688,0.061,-124943016.963225,0.027,-215.791,45.4,461.700,08009c04,23,0,21832887.920,0.049,-114732608.398061,0.025,-243.851,47.3,461.938,18009c24,9,0,23202113.473,0.048,-121927931.747443,0.026,1698.731,47.6,461.780,08009c44,31,0,23015704.202,0.044,-120948337.385890,0.026,-2701.859,48.4,461.720,18009ca4,26,0,21455652.102,0.040,-112750208.706870,0.026,-1640.258,49.1,461.800,18009ce4,16,0,20467288.769,0.036,-107556329.624379,0.025,-546.687,50.0,461.730,08009d24,27,0,20399315.530,0.032,-107199137.937474,0.025,1711.044,51.1,462.010,18009d44*ec929590
#SATXYZ2A,USB1_1,0,66.5,FINESTEERING,2000,358333.000,00000000,7513,12778;7,GPS,21,-22066885.6370,-4743592.5103,14792393.6395,-119038.712,8.326,5.749,0.0,0.0,GPS,23,2407403.0121,23487072.3923,12012861.4524,-65111.141,5.692,3.655,0.0,0.0,GPS,9,10709137.0065,13953577.6158,19866218.9447,153923.293,7.983,6.165,0.0,0.0,GPS,31,-25897547.3771,6630539.4949,1787735.4752,36797.818,7.556,4.963,0.0,0.0,GPS,26,-16484508.3697,3864411.8646,20484249.7857,-46317.068,5.284,3.234,0.0,0.0,GPS,16,-8702437.7798,12131784.8546,21765046.5898,7575.263,4.438,2.713,0.0,0.0,GPS,27,-12238196.8232,21881428.1613,8280437.0925,110730.999,4.469,2.739,0.0,0.0*69960f8d
#BESTPOSA,USB1_1,0,66.5,FINESTEERING,2000,358333.000,00000000,7145,12778;SOL_COMPUTED,SINGLE,36.76973232041,126.93478290972,75.3262,23.3000,WGS84,1.0388,0.7517,1.9010,"",0.000,0.000,7,7,7,7,0,12,00,01*b2d72ce3
#BESTXYZA,USB1_1,0,66.5,FINESTEERING,2000,358333.000,00000000,bde7,12778;SOL_COMPUTED,SINGLE,-3073878.3702,4088849.4878,3797012.9641,1.1662,1.2960,1.4894,SOL_COMPUTED,SINGLE,0.0000,0.0000,0.0000,0.0011,0.0011,0.0011,"",0.150,0.000,0.000,7,7,7,7,0,12,00,01*25f1fdf3
#RANGEA,USB1_1,0,72.0,FINESTEERING,2000,358334.000,00000000,5103,12778;7,21,0,23775906.774,0.062,-124943232.823750,0.028,-217.391,45.3,462.700,08009c04,23,0,21832934.297,0.049,-114732852.071820,0.028,-245.317,47.3,462.938,18009c24,9,0,23201790.218,0.048,-121926233.014952,0.027,1697.341,47.4,462.780,08009c44,31,0,23016218.336,0.043,-120951039.084189,0.027,-2702.935,48.6,462.720,18009ca4,26,0,21455964.158,0.040,-112751848.537564,0.027,-1641.090,49.0,462.800,18009ce4,16,0,20467392.779,0.036,-107556876.207139,0.026,-547.909,49.9,462.730,08009d24,27,0,20398989.942,0.031,-107197426.958232,0.026,1709.475,51.1,463.010,18009d44*0e9085be
#SATXYZ2A,USB1_1,0,72.0,FINESTEERING,2000,358334.000,00000000,7513,12778;7,GPS,21,-22065271.2801,-4744297.4622,14794703.6905,-119038.709,8.326,5.749,0.0,0.0,GPS,23,2406703.6822,23488434.6004,12010233.7345,-65111.141,5.693,3.655,0.0,0.0,GPS,9,10708327.0661,13955979.9637,19864968.6204,153923.293,7.983,6.164,0.0,0.0,GPS,31,-25897810.4404,6630352.1732,1784591.9804,36797.819,7.557,4.963,0.0,0.0,GPS,26,-16486265.2016,3862490.4991,20483212.0507,-46317.065,5.285,3.234,0.0,0.0,GPS,16,-8704228.7583,12129632.7737,21765567.0481,7575.262,4.438,2.713,0.0,0.0,GPS,27,-12238120.8934,21880337.8568,8283428.0883,110730.998,4.469,2.739,0.0,0.0*d21810f3
#BESTPOSA,USB1_1,0,72.0,FINESTEERING,2000,358334.000,00000000,7145,12778;SOL_COMPUTED,SINGLE,36.76973232041,126.93478290972,75.3262,23.3000,WGS84,1.0388,0.7517,1.9010,"",0.000,0.000,7,7,7,7,0,12,00,01*10406d69
#BESTXYZA,USB1_1,0,72.0,FINESTEERING,2000,358334.000,00000000,bde7,12778;SOL_COMPUTED,SINGLE,-3073878.3702,4088849.4878,3797012.9641,1.1662,1.2960,1.4894,SOL_COMPUTED,SINGLE,0.0000,0.0000,0.0000,0.0011,0.0011,0.0011,"",0.150,0.000,0.000,7,7,7,7,0,12,00,01*37275f92
#RANGEA,USB1_1,0,72.0,FINESTEERING,2000,358335.000,00000000,5103,12778;7,21,0,23775947.978,0.062,-124943449.391047,0.030,-215.238,45.3,463.700,08009c04,23,0,21832980.845,0.050,-114733096.597449,0.029,-243.573,47.1,463.938,18009c24,9,0,23201467.103,0.048,-121924535.074010,0.029,1698.938,47.5,463.780,08009c44,31,0,23016732.556,0.043,-120953741.258641,0.029,-2700.967,48.5,463.720,18009ca4,26,0,21456276.291,0.041,-112753488.767560,0.029,-1639.044,48.9,463.800,18009ce4,16,0,20467496.893,0.037,-107557423.300751,0.028,-545.924,49.9,463.730,08009d24,27,0,20398664.510,0.032,-107195716.779532,0.028,1711.264,51.1,464.010,18009d44*03c8cc6c
#SATXYZ2A,USB1_1,0,72.0,FINESTEERING,2000,358335.000,00000000,7513,12778;7,GPS,21,-22063656.6959,-4745002.5785,14797013.4414,-119038.706,8.326,5.749,0.0,0.0,GPS,23,2406004.5121,23489796.5318,12007605.7591,-65111.141,5.693,3.655,0.0,0.0,GPS,9,10707517.3045,13958382.2062,19863717.8722,153923.293,7.983,6.163,0.0,0.0,GPS,31,-25898073.1320,6630164.7877,1781448.4486,36797.819,7.559,4.964,0.0,0.0,GPS,26,-16488022.0513,3860569.3285,20482173.8807,-46317.061,5.285,3.234,0.0,0.0,GPS,16,-8706019.9082,12127480.7555,21766087.0346,7575.261,4.438,2.713,0.0,0.0,GPS,27,-12238044.9226,21879247.1837,8286418.9046,110730.997,4.469,2.739,0.0,0.0*d8bb032b
#BESTPOSA,USB1_1,0,72.0,FINESTEERING,2000,358335.000,00000000,7145,12778;SOL_COMPUTED,SINGLE,36.76973232041,126.93478290972,75.3262,23.3000,WGS84,1.0389,0.7517,1.9010,"",0.000,0.000,7,7,7,7,0,12,00,01*23eee7b5
#BESTXYZA,USB1_1,0,72.0,FINESTEERING,2000,358335.000,00000000,bde7,12778;SOL_COMPUTED,SINGLE,-3073878.3702,4088849.4878,3797012.9641,1.1662,1.2960,1.4894,SOL_COMPUTED,SINGLE,-4.4705e-10,-1.9416e-10,-2.3316e-10,0.0011,0.0011,0.0011,"",0.150,0.000,0.000,7,7,7,7,0,12,00,01*cfc3447b
#RANGEA,USB1_1,0,72.0,FINESTEERING,2000,358336.000,00000000,5103,12778;7,21,0,23775988.974,0.066,-124943664.809106,0.026,-217.248,44.8,464.700,08009c04,23,0,21833027.188,0.052,-114733340.102845,0.026,-245.301,46.8,464.938,18009c24,9,0,23201143.792,0.050,-121922836.035989,0.026,1697.091,47.1,464.780,08009c44,31,0,23017246.511,0.045,-120956442.036185,0.025,-2702.412,48.1,464.720,18009ca4,26,0,21456588.133,0.042,-112755127.506726,0.026,-1640.295,48.7,464.800,18009ce4,16,0,20467600.739,0.038,-107557969.001775,0.025,-547.401,49.7,464.730,08009d24,27,0,20398338.871,0.032,-107194005.525725,0.025,1709.331,51.0,465.010,18009d44*957a97f8
#SATXYZ2A,USB1_1,0,72.0,FINESTEERING,2000,358336.000,00000000,7513,12778;7,GPS,21,-22062041.8844,-4745707.8594,14799322.8921,-119038.703,8.326,5.749,0.0,0.0,GPS,23,2405305.5018,23491158.1863,12004977.5261,-65111.142,5.693,3.655,0.0,0.0,GPS,9,10706707.7217,13960784.3433,19862466.7002,153923.294,7.982,6.163,0.0,0.0,GPS,31,-25898335.4519,6629977.3384,1778304.8799,36797.819,7.560,4.965,0.0,0.0,GPS,26,-16489778.9188,3858648.3526,20481135.2758,-46317.057,5.286,3.235,0.0,0.0,GPS,16,-8707811.2296,12125328.8003,21766606.5493,7575.260,4.438,2.713,0.0,0.0,GPS,27,-12237968.9110,21878156.1420,8289409.5414,110730.997,4.469,2.739,0.0,0.0*6b9ab9e8
#BESTPOSA,USB1_1,0,72.0,FINESTEERING,2000,358336.000,00000000,7145,12778;SOL_COMPUTED,SINGLE,36.76973231468,126.93478291696,75.3255,23.3000,WGS84,1.0365,0.7496,1.8971,"",0.000,0.000,7,7,7,7,0,12,00,01*d32dabb4
#BESTXYZA,USB1_1,0,72.0,FINESTEERING,2000,358336.000,00000000,bde7,12778;SOL_COMPUTED,SINGLE,-3073878.3706,4088849.4873,3797012.9632,1.1636,1.2932,1.4863,SOL_COMPUTED,SINGLE,0.0000,0.0000,0.0000,0.0011,0.0011,0.0011,"",0.150,0.000,0.000,7,7,7,7,0,12,00,01*3245935c
#RANGEA,USB1_1,0,72.0,FINESTEERING,2000,358337.000,00000000,5103,12778;7,21,0,23776030.076,0.066,-124943880.782820,0.029,-215.607,44.7,465.700,08009c04,23,0,21833073.658,0.052,-114733584.302888,0.028,-244.141,46.9,465.938,18009c24,9,0,23200820.585,0.051,-121921137.585696,0.028,1698.693,47.0,465.780,08009c44,31,0,23017760.521,0.046,-120959143.119124,0.027,-2700.636,47.9,465.720,18009ca4,26,0,21456900.025,0.042,-112756766.464820,0.028,-1638.648,48.7,465.800,18009ce4,16,0,20467704.647,0.038,-107558515.040635,0.027,-545.690,49.6,465.730,08009d24,27,0,20398013.353,0.032,-107192294.909461,0.027,1710.754,51.0,466.010,18009d44*b23d0f79
#SATXYZ2A,USB1_1,0,72.0,FINESTEERING,2000,358337.000,00000000,7513,12778;7,GPS,21,-22060426.8457,-4746413.3047,14801632.0427,-119038.700,8.326,5.749,0.0,0.0,GPS,23,2404606.6513,23492519.5640,12002349.0357,-65111.142,5.693,3.655,0.0,0.0,GPS,9,10705898.3178,13963186.3748,19861215.1044,153923.294,7.982,6.162,0.0,0.0,GPS,31,-25898597.4000,6629789.8251,1775161.2743,36797.819,7.561,4.966,0.0,0.0,GPS,26,-16491535.8040,3856727.5715,20480096.2359,-46317.053,5.286,3.235,0.0,0.0,GPS,16,-8709602.7225,12123176.9080,21767125.5920,7575.259,4.438,2.713,0.0,0.0,GPS,27,-12237892.8585,21877064.7318,8292399.9987,110730.996,4.468,2.739,0.0,0.0*a1cdc54f
#BESTPOSA,USB1_1,0,72.0,FINESTEERING,2000,358337.000,00000000,7145,12778;SOL_COMPUTED,SINGLE,36.76973231468,126.93478291696,75.3255,23.3000,WGS84,1.0365,0.7496,1.8971,"",0.000,0.000,7,7,7,7,0,12,00,01*6fdb0e7b
#BESTXYZA,USB1_1,0,72.0,FINESTEERING,2000,358337.000,00000000,bde7,12778;SOL_COMPUTED,SINGLE,-3073878.3706,4088849.4873,3797012.9632,1.1636,1.2932,1.4863,SOL_COMPUTED,SINGLE,-8.5778e-10,-5.6291e-10,-5.5040e-10,0.0011,0.0011,0.0011,"",0.150,0.000,0.000,7,7,7,7,0,12,00,01*bf52adf8
#RANGEA,USB1_1,0,72.0,FINESTEERING,2000,358338.000,00000000,5103,12778;7,21,0,23776071.104,0.066,-124944096.430331,0.034,-214.822,44.8,466.700,08009c04,23,0,21833120.092,0.052,-114733828.319901,0.034,-242.991,46.9,466.938,18009c24,9,0,23200497.332,0.051,-121919438.863990,0.034,1699.755,46.9,466.780,08009c44,31,0,23018274.429,0.046,-120961843.649478,0.033,-2699.352,47.9,466.720,18009ca4,26,0,21457211.783,0.042,-112758404.758315,0.034,-1637.027,48.6,466.800,18009ce4,16,0,20467808.448,0.038,-107559060.517897,0.033,-544.429,49.6,466.730,08009d24,27,0,20397687.789,0.032,-107190584.046452,0.034,1711.871,51.0,467.010,18009d44*ac298127
#SATXYZ2A,USB1_1,0,72.0,FINESTEERING,2000,358338.000,00000000,7513,12778;7,GPS,21,-22058811.5798,-4747118.9147,14803940.8930,-119038.697,8.326,5.749,0.0,0.0,GPS,23,2403907.9606,23493880.6648,11999720.2879,-65111.142,5.694,3.655,0.0,0.0,GPS,9,10705089.0928,13965588.3007,19859963.0848,153923.294,7.982,6.161,0.0,0.0,GPS,31,-25898858.9764,6629602.2478,1772017.6320,36797.819,7.562,4.967,0.0,0.0,GPS,26,-16493292.7068,3854806.9853,20479056.7612,-46317.049,5.287,3.235,0.0,0.0,GPS,16,-8711394.3867,12121025.0787,21767644.1630,7575.258,4.439,2.713,0.0,0.0,GPS,27,-12237816.7653,21875972.9531,8295390.2763,110730.995,4.468,2.738,0.0,0.0*5ec00aeb
#BESTPOSA,USB1_1,0,72.0,FINESTEERING,2000,358338.000,00000000,7145,12778;SOL_COMPUTED,SINGLE,36.76973230975,126.93478292361,75.3248,23.3000,WGS84,1.0342,0.7476,1.8933,"",0.000,0.000,7,7,7,7,0,12,00,01*978203d0
#BESTXYZA,USB1_1,0,72.0,FINESTEERING,2000,358338.000,00000000,bde7,12778;SOL_COMPUTED,SINGLE,-3073878.3709,4088849.4867,3797012.9624,1.1610,1.2904,1.4832,SOL_COMPUTED,SINGLE,0.0000,0.0000,0.0000,0.0011,0.0011,0.0011,"",0.150,0.000,0.000,7,7,7,7,0,12,00,01*b283eea7
#RANGEA,USB1_1,0,73.5,FINESTEERING,2000,358339.000,00000000,5103,12778;7,21,0,23776111.841,0.067,-124944310.547400,0.036,-214.001,44.6,467.700,08009c04,23,0,21833166.261,0.052,-114734070.916730,0.035,-242.476,46.9,467.938,18009c24,9,0,23200173.795,0.051,-121917738.706811,0.036,1700.100,47.0,467.780,08009c44,31,0,23018787.990,0.046,-120964542.389939,0.035,-2698.548,47.8,467.720,18009ca4,26,0,21457523.186,0.043,-112760041.182154,0.035,-1636.122,48.6,467.800,18009ce4,16,0,20467911.910,0.038,-107559604.249671,0.035,-543.489,49.5,467.730,08009d24,27,0,20397361.948,0.032,-107188871.747842,0.035,1712.374,51.0,468.010,18009d44*a117b8d9
#SATXYZ2A,USB1_1,0,73.5,FINESTEERING,2000,358339.000,00000000,7513,12778;7,GPS,21,-22057196.0867,-4747824.6891,14806249.4431,-119038.694,8.326,5.749,0.0,0.0,GPS,23,2403209.4296,23495241.4887,11997091.2827,-65111.142,5.694,3.655,0.0,0.0,GPS,9,10704280.0466,13967990.1210,19858710.6414,153923.294,7.982,6.160,0.0,0.0,GPS,31,-25899120.1811,6629414.6065,1768873.9529,36797.819,7.563,4.968,0.0,0.0,GPS,26,-16495049.6273,3852886.5939,20478016.8515,-46317.045,5.287,3.235,0.0,0.0,GPS,16,-8713186.2222,12118873.3124,21768162.2620,7575.257,4.439,2.713,0.0,0.0,GPS,27,-12237740.6315,21874880.8058,8298380.3743,110730.994,4.468,2.738,0.0,0.0*f11d134b
#BESTPOSA,USB1_1,0,73.5,FINESTEERING,2000,358339.000,00000000,7145,12778;SOL_COMPUTED,SINGLE,36.76973230975,126.93478292361,75.3248,23.3000,WGS84,1.0342,0.7476,1.8933,"",0.000,0.000,7,7,7,7,0,12,00,01*96801034
#BESTXYZA,USB1_1,0,73.5,FINESTEERING,2000,358339.000,00000000,bde7,12778;SOL_COMPUTED,SINGLE,-3073878.3709,4088849.4867,3797012.9624,1.1610,1.2904,1.4832,SOL_COMPUTED,SINGLE,0.0000,0.0000,-9.9771e-10,0.0011,0.0011,0.0011,"",0.150,0.000,0.000,7,7,7,7,0,12,00,01*826a7fbc
#RANGEA,USB1_1,0,73.5,FINESTEERING,2000,358340.000,00000000,5103,12778;7,21,0,23776152.929,0.066,-124944526.507632,0.030,-215.743,44.7,468.700,08009c04,23,0,21833212.807,0.052,-114734315.494044,0.030,-244.152,46.8,468.938,18009c24,9,0,23199850.611,0.051,-121916040.412129,0.029,1698.796,47.0,468.780,08009c44,31,0,23019301.859,0.046,-120967242.724751,0.029,-2699.793,47.9,468.720,18009ca4,26,0,21457834.877,0.042,-112761679.112633,0.029,-1637.268,48.7,468.800,18009ce4,16,0,20468015.686,0.038,-107560149.582045,0.029,-544.772,49.5,468.730,08009d24,27,0,20397036.475,0.032,-107187161.364447,0.029,1710.727,51.0,469.010,18009d44*45a113d7
#SATXYZ2A,USB1_1,0,73.5,FINESTEERING,2000,358340.000,00000000,7513,12778;7,GPS,21,-22055580.3666,-4748530.6282,14808557.6928,-119038.691,8.327,5.749,0.0,0.0,GPS,23,2402511.0583,23496602.0355,11994462.0202,-65111.142,5.694,3.655,0.0,0.0,GPS,9,10703471.1792,13970391.8355,19857457.7743,153923.294,7.981,6.159,0.0,0.0,GPS,31,-25899381.0140,6629226.9011,1765730.2371,36797.819,7.564,4.969,0.0,0.0,GPS,26,-16496806.5653,3850966.3975,20476976.5069,-46317.041,5.288,3.236,0.0,0.0,GPS,16,-8714978.2290,12116721.6093,21768679.8892,7575.256,4.439,2.713,0.0,0.0,GPS,27,-12237664.4569,21873788.2901,8301370.2925,110730.993,4.468,2.738,0.0,0.0*6a67acbc
#BESTPOSA,USB1_1,0,73.5,FINESTEERING,2000,358340.000,00000000,7145,12778;SOL_COMPUTED,SINGLE,36.76973230975,126.93478292361,75.3248,23.3000,WGS84,1.0342,0.7476,1.8933,"",0.000,0.000,7,7,7,7,0,12,00,01*fda154d8
#BESTXYZA,USB1_1,0,73.5,FINESTEERING,2000,358340.000,00000000,bde7,12778;SOL_COMPUTED,SINGLE,-3073878.3709,4088849.4867,3797012.9624,1.1610,1.2904,1.4832,SOL_COMPUTED,SINGLE,-4.1793e-10,-2.0701e-10,-1.8260e-10,0.0011,0.0011,0.0011,"",0.150,0.000,0.000,7,7,7,7,0,12,00,01*5c479724
#RANGEA,USB1_1,0,72.5,FINESTEERING,2000,358341.000,00000000,5103,12778;7,21,0,23776194.211,0.067,-124944743.453360,0.028,-217.001,44.6,469.700,08009c04,23,0,21833259.564,0.051,-114734561.196145,0.028,-246.032,46.9,469.938,18009c24,9,0,23199527.642,0.050,-121914343.181348,0.028,1697.178,47.1,469.780,08009c44,31,0,23019815.863,0.046,-120969943.808808,0.027,-2701.045,47.8,469.720,18009ca4,26,0,21458146.686,0.042,-112763317.695151,0.027,-1638.592,48.6,469.800,18009ce4,16,0,20468119.603,0.038,-107560695.684989,0.027,-546.113,49.4,469.730,08009d24,27,0,20396711.204,0.032,-107185452.042788,0.027,1709.160,51.0,470.010,18009d44*ef81bfdc
#SATXYZ2A,USB1_1,0,72.5,FINESTEERING,2000,358341.000,00000000,7513,12778;7,GPS,21,-22053964.4194,-4749236.7319,14810865.6422,-119038.688,8.327,5.749,0.0,0.0,GPS,23,2401812.8466,23497962.3053,11991832.5005,-65111.142,5.695,3.655,0.0,0.0,GPS,9,10702662.4907,13972793.4442,19856204.4835,153923.294,7.981,6.158,0.0,0.0,GPS,31,-25899641.4753,6629039.1315,1762586.4847,36797.819,7.565,4.970,0.0,0.0,GPS,26,-16498563.5208,3849046.3961,20475935.7275,-46317.037,5.288,3.236,0.0,0.0,GPS,16,-8716770.4071,12114569.9693,21769197.0445,7575.255,4.439,2.713,0.0,0.0,GPS,27,-12237588.2418,21872695.4058,8304360.0309,110730.993,4.468,2.738,0.0,0.0*e2c8ead5
#BESTPOSA,USB1_1,0,72.5,FINESTEERING,2000,358341.000,00000000,7145,12778;SOL_COMPUTED,SINGLE,36.76973230559,126.93478293024,75.3242,23.3000,WGS84,1.0318,0.7455,1.8895,"",0.000,0.000,7,7,7,7,0,12,00,01*f9275ae0
#BESTXYZA,USB1_1,0,72.5,FINESTEERING,2000,358341.000,00000000,bde7,12778;SOL_COMPUTED,SINGLE,-3073878.3713,4088849.4862,3797012.9616,1.1584,1.2876,1.4802,SOL_COMPUTED,SINGLE,0.0000,0.0000,0.0000,0.0011,0.0011,0.0011,"",0.150,0.000,0.000,7,7,7,7,0,12,00,01*58b4c9b6
#RANGEA,USB1_1,0,72.5,FINESTEERING,2000,358342.000,00000000,5103,12778;7,21,0,23776235.910,0.066,-124944962.571738,0.028,-221.556,44.8,470.700,08009c04,23,0,21833306.761,0.050,-114734809.194125,0.027,-250.478,47.2,470.938,18009c24,9,0,23199205.093,0.050,-121912648.179692,0.028,1692.579,47.2,470.780,08009c44,31,0,23020330.240,0.045,-120972646.831553,0.026,-2705.284,48.1,470.720,18009ca4,26,0,21458458.856,0.042,-112764958.128444,0.027,-1642.808,48.8,470.800,18009ce4,16,0,20468223.891,0.038,-107561243.743771,0.026,-550.349,49.7,470.730,08009d24,27,0,20396386.362,0.032,-107183744.994759,0.027,1704.689,51.1,471.010,18009d44*6b67471c
#SATXYZ2A,USB1_1,0,72.5,FINESTEERING,2000,358342.000,00000000,7513,12778;7,GPS,21,-22052348.2453,-4749943.0002,14813173.2911,-119038.685,8.327,5.749,0.0,0.0,GPS,23,2401114.7946,23499322.2980,11989202.7235,-65111.143,5.695,3.656,0.0,0.0,GPS,9,10701853.9810,13975194.9471,19854950.7690,153923.294,7.981,6.157,0.0,0.0,GPS,31,-25899901.5648,6628851.2978,1759442.6958,36797.819,7.566,4.971,0.0,0.0,GPS,26,-16500320.4938,3847126.5896,20474894.5133,-46317.034,5.289,3.236,0.0,0.0,GPS,16,-8718562.7565,12112418.3927,21769713.7279,7575.254,4.439,2.713,0.0,0.0,GPS,27,-12237511.9861,21871602.1530,8307349.5894,110730.992,4.467,2.738,0.0,0.0*47b53b32
#BESTPOSA,USB1_1,0,72.5,FINESTEERING,2000,358342.000,00000000,7145,12778;SOL_COMPUTED,SINGLE,36.76973230559,126.93478293024,75.3242,23.3000,WGS84,1.0318,0.7455,1.8895,"",0.000,0.000,7,7,7,7,0,12,00,01*e74db2f0
#BESTXYZA,USB1_1,0,72.5,FINESTEERING,2000,358342.000,00000000,bde7,12778;SOL_COMPUTED,SINGLE,-3073878.3713,4088849.4862,3797012.9616,1.1584,1.2876,1.4802,SOL_COMPUTED,SINGLE,-7.7909e-10,-5.3568e-10,-4.2333e-10,0.0011,0.0011,0.0011,"",0.150,0.000,0.000,7,7,7,7,0,12,00,01*3f40baf4
#RANGEA,USB1_1,0,70.5,FINESTEERING,2000,358343.000,00000000,5103,12778;7,21,0,23776278.081,0.066,-124945184.242890,0.028,-220.207,44.7,471.700,08009c04,23,0,21833354.476,0.050,-114735059.873959,0.027,-249.067,47.1,471.938,18009c24,9,0,23198883.038,0.049,-121910955.792149,0.028,1694.028,47.3,471.780,08009c44,31,0,23020845.059,0.045,-120975352.157941,0.027,-2703.354,48.1,471.720,18009ca4,26,0,21458771.443,0.042,-112766600.761426,0.027,-1640.856,48.7,471.800,18009ce4,16,0,20468328.629,0.038,-107561794.120259,0.027,-548.678,49.7,471.730,08009d24,27,0,20396062.028,0.032,-107182040.575419,0.027,1705.889,51.1,472.010,18009d44*7d3a0a07
#SATXYZ2A,USB1_1,0,70.5,FINESTEERING,2000,358343.000,00000000,7513,12778;7,GPS,21,-22050731.8442,-4750649.4331,14815480.6396,-119038.682,8.327,5.749,0.0,0.0,GPS,23,2400416.9022,23500682.0136,11986572.6895,-65111.143,5.695,3.656,0.0,0.0,GPS,9,10701045.6501,13977596.3441,19853696.6309,153923.295,7.980,6.157,0.0,0.0,GPS,31,-25900161.2826,6628663.3998,1756298.8705,36797.819,7.567,4.972,0.0,0.0,GPS,26,-16502077.4841,3845206.9781,20473852.8643,-46317.030,5.289,3.236,0.0,0.0,GPS,16,-8720355.2770,12110266.8793,21770229.9394,7575.253,4.439,2.713,0.0,0.0,GPS,27,-12237435.6900,21870508.5318,8310338.9680,110730.991,4.467,2.737,0.0,0.0*4932a44a
#BESTPOSA,USB1_1,0,70.5,FINESTEERING,2000,358343.000,00000000,7145,12778;SOL_COMPUTED,SINGLE,36.76973230220,126.93478293685,75.3235,23.3000,WGS84,1.0295,0.7435,1.8857,"",0.000,0.000,7,7,7,7,0,12,00,01*73a3d8d5
#BESTXYZA,USB1_1,0,70.5,FINESTEERING,2000,358343.000,00000000,bde7,12778;SOL_COMPUTED,SINGLE,-3073878.3716,4088849.4856,3797012.9609,1.1558,1.2849,1.4771,SOL_COMPUTED,SINGLE,0.0000,0.0000,0.0000,0.0011,0.0011,0.0011,"",0.150,0.000,0.000,7,7,7,7,0,12,00,01*6d358a37
#RANGEA,USB1_1,0,70.5,FINESTEERING,2000,358344.000,00000000,5103,12778;7,21,0,23776320.080,0.068,-124945404.983899,0.029,-219.639,44.6,472.700,08009c04,23,0,21833402.042,0.050,-114735309.774689,0.029,-249.215,47.2,472.938,18009c24,9,0,23198560.830,0.050,-121909262.526389,0.028,1694.041,47.1,472.780,08009c44,31,0,23021359.645,0.045,-120978056.289521,0.028,-2703.134,48.0,472.720,18009ca4,26,0,21459083.798,0.042,-112768242.146987,0.028,-1640.324,48.7,472.800,18009ce4,16,0,20468433.142,0.037,-107562343.343575,0.027,-548.302,49.7,472.730,08009d24,27,0,20395737.530,0.032,-107180335.311183,0.028,1706.111,51.0,473.010,18009d44*a07b5dfd
#SATXYZ2A,USB1_1,0,70.5,FINESTEERING,2000,358344.000,00000000,7513,12778;7,GPS,21,-22049115.2163,-4751356.0308,14817787.6876,-119038.679,8.327,5.748,0.0,0.0,GPS,23,2399719.1694,23502041.4520,11983942.3984,-65111.143,5.695,3.656,0.0,0.0,GPS,9,10700237.4981,13979997.6351,19852442.0691,153923.295,7.980,6.156,0.0,0.0,GPS,31,-25900420.6288,6628475.4375,1753155.0087,36797.819,7.568,4.973,0.0,0.0,GPS,26,-16503834.4918,3843287.5617,20472810.7805,-46317.026,5.290,3.237,0.0,0.0,GPS,16,-8722147.9686,12108115.4293,21770745.6790,7575.252,4.440,2.713,0.0,0.0,GPS,27,-12237359.3534,21869414.5421,8313328.1666,110730.990,4.467,2.737,0.0,0.0*0e58a0ad
#BESTPOSA,USB1_1,0,70.5,FINESTEERING,2000,358344.000,00000000,7145,12778;SOL_COMPUTED,SINGLE,36.76973230220,126.93478293685,75.3235,23.3000,WGS84,1.0295,0.7435,1.8857,"",0.000,0.000,7,7,7,7,0,12,00,01*f380ad3a
#BESTXYZA,USB1_1,0,70.5,FINESTEERING,2000,358344.000,00000000,bde7,12778;SOL_COMPUTED,SINGLE,-3073878.3716,4088849.4856,3797012.9609,1.1558,1.2849,1.4771,SOL_COMPUTED,SINGLE,0.0000,0.0000,-7.4979e-10,0.0011,0.0011,0.0011,"",0.150,0.000,0.000,7,7,7,7,0,12,00,01*bd1fa897
#RANGEA,USB1_1,0,72.5,FINESTEERING,2000,358345.000,00000000,5103,12778;7,21,0,23776361.854,0.065,-124945624.532943,0.033,-220.139,44.8,473.700,08009c04,23,0,21833449.403,0.049,-114735558.617062,0.032,-249.463,47.2,473.938,18009c24,9,0,23198238.402,0.049,-121907568.142985,0.032,1693.553,47.4,473.780,08009c44,31,0,23021873.966,0.045,-120980759.014394,0.031,-2703.036,48.0,473.720,18009ca4,26,0,21459395.853,0.042,-112769882.001792,0.031,-1640.238,48.6,473.800,18009ce4,16,0,20468537.391,0.038,-107562891.155673,0.031,-548.295,49.6,473.730,08009d24,27,0,20395412.821,0.032,-107178628.948668,0.031,1705.653,51.0,474.010,18009d44*12e3a5ef
#SATXYZ2A,USB1_1,0,72.5,FINESTEERING,2000,358345.000,00000000,7513,12778;7,GPS,21,-22047498.3615,-4752062.7931,14820094.4350,-119038.676,8.327,5.748,0.0,0.0,GPS,23,2399021.5961,23503400.6131,11981311.8502,-65111.143,5.696,3.656,0.0,0.0,GPS,9,10699429.5249,13982398.8200,19851187.0838,153923.295,7.980,6.155,0.0,0.0,GPS,31,-25900679.6032,6628287.4109,1750011.1105,36797.819,7.569,4.974,0.0,0.0,GPS,26,-16505591.5167,3841368.3404,20471768.2619,-46317.022,5.290,3.237,0.0,0.0,GPS,16,-8723940.8314,12105964.0427,21771260.9466,7575.251,4.440,2.713,0.0,0.0,GPS,27,-12237282.9765,21868320.1839,8316317.1851,110730.989,4.467,2.737,0.0,0.0*270ff39d
#BESTPOSA,USB1_1,0,72.5,FINESTEERING,2000,358345.000,00000000,7145,12778;SOL_COMPUTED,SINGLE,36.76973230220,126.93478293685,75.3235,23.3000,WGS84,1.0295,0.7435,1.8857,"",0.000,0.000,7,7,7,7,0,12,00,01*2965ba8a
#BESTXYZA,USB1_1,0,72.5,FINESTEERING,2000,358345.000,00000000,bde7,12778;SOL_COMPUTED,SINGLE,-3073878.3716,4088849.4856,3797012.9609,1.1558,1.2849,1.4771,SOL_COMPUTED,SINGLE,-3.7531e-10,-2.1921e-10,-1.9524e-10,0.0011,0.0011,0.0011,"",0.150,0.000,0.000,7,7,7,7,0,12,00,01*e55c9e5b
#RANGEA,USB1_1,0,73.0,FINESTEERING,2000,358346.000,00000000,5103,12778;7,21,0,23776403.787,0.064,-124945844.948018,0.031,-222.748,44.9,474.700,08009c04,23,0,21833496.953,0.049,-114735808.453955,0.030,-252.419,47.3,474.938,18009c24,9,0,23197916.149,0.049,-121905874.661242,0.030,1691.264,47.3,474.780,08009c44,31,0,23022388.402,0.045,-120983462.352816,0.029,-2705.516,48.0,474.720,18009ca4,26,0,21459708.018,0.042,-112771522.379048,0.030,-1642.265,48.7,474.800,18009ce4,16,0,20468641.758,0.037,-107563439.605916,0.029,-550.627,49.7,474.730,08009d24,27,0,20395088.291,0.032,-107176923.519587,0.029,1703.161,51.0,475.010,18009d44*361f1589
#SATXYZ2A,USB1_1,0,73.0,FINESTEERING,2000,358346.000,00000000,7513,12778;7,GPS,21,-22045881.2800,-4752769.7202,14822400.8818,-119038.673,8.327,5.748,0.0,0.0,GPS,23,2398324.1823,23504759.4969,11978681.0451,-65111.143,5.696,3.656,0.0,0.0,GPS,9,10698621.7306,13984799.8988,19849931.6748,153923.295,7.979,6.154,0.0,0.0,GPS,31,-25900938.2060,6628099.3199,1746867.1761,36797.820,7.571,4.974,0.0,0.0,GPS,26,-16507348.5588,3839449.3142,20470725.3086,-46317.018,5.291,3.237,0.0,0.0,GPS,16,-8725733.8653,12103812.7196,21771775.7423,7575.250,4.440,2.713,0.0,0.0,GPS,27,-12237206.5593,21867225.4573,8319306.0235,110730.989,4.467,2.737,0.0,0.0*225cdd9f
#BESTPOSA,USB1_1,0,73.0,FINESTEERING,2000,358346.000,00000000,7145,12778;SOL_COMPUTED,SINGLE,36.76973229902,126.93478294399,75.3228,23.3000,WGS84,1.0272,0.7415,1.8819,"",0.000,0.000,7,7,7,7,0,12,00,01*263807c2
#BESTXYZA,USB1_1,0,73.0,FINESTEERING,2000,358346.000,00000000,bde7,12778;SOL_COMPUTED,SINGLE,-3073878.3719,4088849.4849,3797012.9602,1.1533,1.2821,1.4741,SOL_COMPUTED,SINGLE,0.0000,0.0000,0.0000,0.0011,0.0011,0.0011,"",0.150,0.000,0.000,7,7,7,7,0,12,00,01*97759d48
#RANGEA,USB1_1,0,71.0,FINESTEERING,2000,358347.000,00000000,5103,12778;7,21,0,23776446.055,0.063,-124946067.140683,0.028,-219.574,45.1,475.700,08009c04,23,0,21833544.866,0.049,-114736060.177789,0.027,-248.627,47.3,475.938,18009c24,9,0,23197594.237,0.048,-121904183.031304,0.029,1694.368,47.5,475.780,08009c44,31,0,23022903.135,0.045,-120986167.239016,0.028,-2701.960,48.0,475.720,18009ca4,26,0,21460020.453,0.043,-112773164.215962,0.028,-1638.530,48.6,475.800,18009ce4,16,0,20468746.418,0.038,-107563989.600888,0.028,-547.157,49.6,475.730,08009d24,27,0,20394764.116,0.032,-107175219.965073,0.028,1706.272,51.0,476.010,18009d44*10420d59
#SATXYZ2A,USB1_1,0,71.0,FINESTEERING,2000,358347.000,00000000,7513,12778;7,GPS,21,-22044263.9717,-4753476.8120,14824707.0281,-119038.670,8.327,5.748,0.0,0.0,GPS,23,2397626.9280,23506118.1034,11976049.9831,-65111.143,5.696,3.656,0.0,0.0,GPS,9,10697814.1150,13987200.8714,19848675.8424,153923.295,7.979,6.153,0.0,0.0,GPS,31,-25901196.4371,6627911.1645,1743723.2055,36797.820,7.572,4.975,0.0,0.0,GPS,26,-16509105.6181,3837530.4831,20469681.9206,-46317.014,5.291,3.237,0.0,0.0,GPS,16,-8727527.0702,12101661.4601,21772290.0661,7575.249,4.440,2.713,0.0,0.0,GPS,27,-12237130.1018,21866130.3623,8322294.6817,110730.988,4.467,2.737,0.0,0.0*00416d1a
#BESTPOSA,USB1_1,0,71.0,FINESTEERING,2000,358347.000,00000000,7145,12778;SOL_COMPUTED,SINGLE,36.76973229902,126.93478294399,75.3228,23.3000,WGS84,1.0273,0.7415,1.8819,"",0.000,0.000,7,7,7,7,0,12,00,01*73853f61
#BESTXYZA,USB1_1,0,71.0,FINESTEERING,2000,358347.000,00000000,bde7,12778;SOL_COMPUTED,SINGLE,-3073878.3719,4088849.4849,3797012.9602,1.1533,1.2821,1.4741,SOL_COMPUTED,SINGLE,-8.0424e-10,-6.2806e-10,-3.7155e-10,0.0011,0.0011,0.0011,"",0.150,0.000,0.000,7,7,7,7,0,12,00,01*0e255894
#RANGEA,USB1_1,0,71.0,FINESTEERING,2000,358348.000,00000000,5103,12778;7,21,0,23776488.917,0.064,-124946292.424542,0.029,-223.737,45.0,476.700,08009c04,23,0,21833593.389,0.049,-114736315.146630,0.068,-253.541,47.3,476.938,18009c24,9,0,23197272.928,0.048,-121902494.532210,0.029,1689.953,47.6,476.780,08009c44,31,0,23023418.408,0.045,-120988874.972495,0.071,-2706.164,48.0,476.720,18009ca4,26,0,21460333.407,0.043,-112774808.813304,0.071,-1642.962,48.4,476.800,18009ce4,16,0,20468851.624,0.038,-107564542.476577,0.028,-551.399,49.6,476.730,08009d24,27,0,20394440.548,0.032,-107173519.592160,0.028,1701.763,51.0,477.010,18009d44*cbf0959e
#SATXYZ2A,USB1_1,0,71.0,FINESTEERING,2000,358348.000,00000000,7513,12778;7,GPS,21,-22042646.4368,-4754184.0686,14827012.8736,-119038.667,8.327,5.748,0.0,0.0,GPS,23,2396929.8332,23507476.4326,11973418.6642,-65111.144,5.697,3.656,0.0,0.0,GPS,9,10697006.6783,13989601.7378,19847419.5864,153923.295,7.979,6.152,0.0,0.0,GPS,31,-25901454.2965,6627722.9445,1740579.1987,36797.820,7.573,4.976,0.0,0.0,GPS,26,-16510862.6945,3835611.8472,20468638.0979,-46317.010,5.292,3.238,0.0,0.0,GPS,16,-8729320.4460,12099510.2641,21772803.9179,7575.248,4.440,2.713,0.0,0.0,GPS,27,-12237053.6041,21865034.8989,8325283.1596,110730.987,4.466,2.736,0.0,0.0*0b16dfeb
#BESTPOSA,USB1_1,0,71.0,FINESTEERING,2000,358348.000,00000000,7145,12778;SOL_COMPUTED,SINGLE,36.76973229679,126.93478295165,75.3222,23.3000,WGS84,1.0250,0.7395,1.8782,"",0.000,0.000,7,7,7,7,0,12,00,01*347e12a7
#BESTXYZA,USB1_1,0,71.0,FINESTEERING,2000,358348.000,00000000,bde7,12778;SOL_COMPUTED,SINGLE,-3073878.3722,4088849.4842,3797012.9596,1.1507,1.2794,1.4711,SOL_COMPUTED,SINGLE,0.0000,0.0000,0.0000,0.0011,0.0011,0.0011,"",0.150,0.000,0.000,7,7,7,7,0,12,00,01*770d355d
#RANGEA,USB1_1,0,69.0,FINESTEERING,2000,358349.000,00000000,5103,12778;7,21,0,23776531.838,0.063,-124946518.004411,0.030,-225.850,45.2,477.700,08009c04,23,0,21833641.988,0.048,-114736570.527795,0.048,-255.559,47.5,477.938,18009c24,9,0,23196951.694,0.046,-121900806.391661,0.030,1688.000,47.8,477.780,08009c44,31,0,23023933.682,0.045,-120991582.745805,0.049,-2707.896,48.0,477.720,18009ca4,26,0,21460646.351,0.043,-112776453.344455,0.049,-1644.496,48.5,477.800,18009ce4,16,0,20468956.843,0.038,-107565095.393216,0.029,-553.103,49.6,477.730,08009d24,27,0,20394117.050,0.032,-107171819.581036,0.030,1699.652,51.0,478.010,18009d44*9de444a0
#SATXYZ2A,USB1_1,0,69.0,FINESTEERING,2000,358349.000,00000000,7513,12778;7,GPS,21,-22041028.6752,-4754891.4899,14829318.4184,-119038.663,8.327,5.748,0.0,0.0,GPS,23,2396232.8978,23508834.4842,11970787.0885,-65111.144,5.697,3.656,0.0,0.0,GPS,9,10696199.4204,13992002.4979,19846162.9069,153923.295,7.978,6.152,0.0,0.0,GPS,31,-25901711.7843,6627534.6600,1737435.1559,36797.820,7.574,4.977,0.0,0.0,GPS,26,-16512619.7879,3833693.4066,20467593.8405,-46317.006,5.292,3.238,0.0,0.0,GPS,16,-8731113.9929,12097359.1319,21773317.2977,7575.247,4.440,2.713,0.0,0.0,GPS,27,-12236977.0662,21863939.0670,8328271.4571,110730.986,4.466,2.736,0.0,0.0*10784283
#BESTPOSA,USB1_1,0,69.0,FINESTEERING,2000,358349.000,00000000,7145,12778;SOL_COMPUTED,SINGLE,36.76973229679,126.93478295165,75.3222,23.3000,WGS84,1.0250,0.7395,1.8782,"",0.000,0.000,7,7,7,7,0,12,00,01*4661c47a
#BESTXYZA,USB1_1,0,69.0,FINESTEERING,2000,358349.000,00000000,bde7,12778;SOL_COMPUTED,SINGLE,-3073878.3722,4088849.4842,3797012.9596,1.1507,1.2794,1.4711,SOL_COMPUTED,SINGLE,0.0000,0.0000,-6.6881e-10,0.0011,0.0011,0.0011,"",0.150,0.000,0.000,7,7,7,7,0,12,00,01*425e59cb
#RANGEA,USB1_1,0,69.0,FINESTEERING,2000,358350.000,00000000,5103,12778;7,21,0,23776574.346,0.063,-124946741.454978,0.030,-226.446,45.1,478.700,08009c04,23,0,21833690.210,0.049,-114736823.901257,0.037,-256.334,47.3,478.938,18009c24,9,0,23196630.052,0.046,-121899116.155743,0.029,1687.281,47.8,478.780,08009c44,31,0,23024448.508,0.047,-120994288.121466,0.038,-2708.130,47.7,478.720,18009ca4,26,0,21460958.822,0.043,-112778095.401660,0.038,-1644.765,48.5,478.800,18009ce4,16,0,20469061.610,0.037,-107565645.946006,0.029,-553.297,49.7,478.730,08009d24,27,0,20393793.159,0.032,-107170117.503157,0.029,1698.993,51.0,479.010,18009d44*4c65b738
#SATXYZ2A,USB1_1,0,69.0,FINESTEERING,2000,358350.000,00000000,7513,12778;7,GPS,21,-22039410.6871,-4755599.0761,14831623.6624,-119038.660,8.327,5.748,0.0,0.0,GPS,23,2395536.1218,23510192.2585,11968155.2561,-65111.144,5.697,3.656,0.0,0.0,GPS,9,10695392.3413,13994403.1516,19844905.8040,153923.296,7.978,6.151,0.0,0.0,GPS,31,-25901968.9003,6627346.3109,1734291.0770,36797.820,7.575,4.978,0.0,0.0,GPS,26,-16514376.8984,3831775.1612,20466549.1485,-46317.003,5.293,3.238,0.0,0.0,GPS,16,-8732907.7106,12095208.0634,21773830.2056,7575.246,4.441,2.713,0.0,0.0,GPS,27,-12236900.4883,21862842.8668,8331259.5743,110730.985,4.466,2.736,0.0,0.0*60909d2b
#BESTPOSA,USB1_1,0,69.0,FINESTEERING,2000,358350.000,00000000,7145,12778;SOL_COMPUTED,SINGLE,36.76973229679,126.93478295165,75.3222,23.3000,WGS84,1.0250,0.7396,1.8782,"",0.000,0.000,7,7,7,7,0,12,00,01*2e29fefd
#BESTXYZA,USB1_1,0,69.0,FINESTEERING,2000,358350.000,00000000,bde7,12778;SOL_COMPUTED,SINGLE,-3073878.3722,4088849.4842,3797012.9596,1.1507,1.2794,1.4711,SOL_COMPUTED,SINGLE,-4.1341e-10,-2.3458e-10,-1.3476e-10,0.0011,0.0011,0.0011,"",0.150,0.000,0.000,7,7,7,7,0,12,00,01*941e174f
#RANGEA,USB1_1,0,68.5,FINESTEERING,2000,358351.000,00000000,5103,12778;7,21,0,23776617.048,0.062,-124946965.884898,0.030,-224.776,45.3,479.700,08009c04,23,0,21833738.640,0.048,-114737078.392581,0.032,-254.811,47.4,479.938,18009c24,9,0,23196308.614,0.045,-121897426.971547,0.029,1688.896,48.0,479.780,08009c44,31,0,23024963.485,0.047,-120996994.264964,0.033,-2706.174,47.7,479.720,18009ca4,26,0,21461271.424,0.043,-112779738.112437,0.032,-1642.710,48.6,479.800,18009ce4,16,0,20469166.531,0.037,-107566197.270266,0.028,-551.517,49.7,479.730,08009d24,27,0,20393469.465,0.032,-107168416.488929,0.028,1700.677,50.9,480.010,18009d44*5a912698
#SATXYZ2A,USB1_1,0,68.5,FINESTEERING,2000,358351.000,00000000,7513,12778;7,GPS,21,-22037792.4725,-4756306.8272,14833928.6056,-119038.657,8.327,5.748,0.0,0.0,GPS,23,2394839.5052,23511549.7552,11965523.1669,-65111.144,5.697,3.656,0.0,0.0,GPS,9,10694585.4411,13996803.6989,19843648.2776,153923.296,7.978,6.150,0.0,0.0,GPS,31,-25902225.6448,6627157.8972,1731146.9622,36797.820,7.576,4.979,0.0,0.0,GPS,26,-16516134.0257,3829857.1110,20465504.0218,-46316.999,5.293,3.238,0.0,0.0,GPS,16,-8734701.5993,12093057.0587,21774342.6415,7575.245,4.441,2.713,0.0,0.0,GPS,27,-12236823.8703,21861746.2982,8334247.5110,110730.985,4.466,2.736,0.0,0.0*a842e365
#BESTPOSA,USB1_1,0,68.5,FINESTEERING,2000,358351.000,00000000,7145,12778;SOL_COMPUTED,SINGLE,36.76973229505,126.93478295974,75.3215,23.3000,WGS84,1.0227,0.7376,1.8745,"",0.000,0.000,7,7,7,7,0,12,00,01*710a3a79
#BESTXYZA,USB1_1,0,68.5,FINESTEERING,2000,358351.000,00000000,bde7,12778;SOL_COMPUTED,SINGLE,-3073878.3725,4088849.4835,3797012.9591,1.1482,1.2767,1.4681,SOL_COMPUTED,SINGLE,0.0000,0.0000,0.0000,0.0011,0.0011,0.0011,"",0.150,0.000,0.000,7,7,7,7,0,12,00,01*7c300a93
#RANGEA,USB1_1,0,68.5,FINESTEERING,2000,358352.000,00000000,5103,12778;7,21,0,23776659.509,0.064,-124947189.082680,0.028,-226.331,45.0,480.700,08009c04,23,0,21833786.857,0.048,-114737331.745675,0.029,-256.391,47.4,480.938,18009c24,9,0,23195986.948,0.045,-121895736.613044,0.028,1687.382,48.0,480.780,08009c44,31,0,23025478.164,0.046,-120999698.879550,0.029,-2707.444,47.8,480.720,18009ca4,26,0,21461583.720,0.043,-112781379.232125,0.029,-1644.056,48.5,480.800,18009ce4,16,0,20469271.163,0.037,-107566747.110738,0.027,-552.714,49.7,480.730,08009d24,27,0,20393145.553,0.032,-107166714.326476,0.027,1699.089,51.0,481.010,18009d44*0339e499
#SATXYZ2A,USB1_1,0,68.5,FINESTEERING,2000,358352.000,00000000,7513,12778;7,GPS,21,-22036174.0314,-4757014.7431,14836233.2480,-119038.654,8.327,5.748,0.0,0.0,GPS,23,2394143.0479,23512906.9743,11962890.8212,-65111.144,5.698,3.657,0.0,0.0,GPS,9,10693778.7196,13999204.1397,19842390.3278,153923.296,7.978,6.149,0.0,0.0,GPS,31,-25902482.0175,6626969.4187,1728002.8115,36797.820,7.577,4.980,0.0,0.0,GPS,26,-16517891.1700,3827939.2562,20464458.4606,-46316.995,5.294,3.239,0.0,0.0,GPS,16,-8736495.6588,12090906.1178,21774854.6053,7575.244,4.441,2.714,0.0,0.0,GPS,27,-12236747.2123,21860649.3612,8337235.2672,110730.984,4.466,2.736,0.0,0.0*1e2e2d32
#BESTPOSA,USB1_1,0,68.5,FINESTEERING,2000,358352.000,00000000,7145,12778;SOL_COMPUTED,SINGLE,36.76973229505,126.93478295974,75.3215,23.3000,WGS84,1.0227,0.7376,1.8745,"",0.000,0.000,7,7,7,7,0,12,00,01*6f60d269
#BESTXYZA,USB1_1,0,68.5,FINESTEERING,2000,358352.000,00000000,bde7,12778;SOL_COMPUTED,SINGLE,-3073878.3725,4088849.4835,3797012.9591,1.1482,1.2767,1.4681,SOL_COMPUTED,SINGLE,-8.3698e-10,-6.1117e-10,-2.5714e-10,0.0011,0.0011,0.0011,"",0.150,0.000,0.000,7,7,7,7,0,12,00,01*1c2c6df0
#RANGEA,USB1_1,0,72.0,FINESTEERING,2000,358353.000,00000000,5103,12778;7,21,0,23776702.817,0.062,-124947416.661845,0.025,-225.841,45.2,481.700,08009c04,23,0,21833835.933,0.048,-114737589.662976,0.025,-256.389,47.4,481.938,18009c24,9,0,23195666.137,0.044,-121894050.695250,0.024,1687.609,48.1,481.780,08009c44,31,0,23025993.641,0.046,-121002407.671212,0.024,-2707.020,47.9,481.720,18009ca4,26,0,21461896.788,0.043,-112783024.426556,0.024,-1643.411,48.5,481.800,18009ce4,16,0,20469376.600,0.037,-107567301.130660,0.024,-552.128,49.7,481.730,08009d24,27,0,20392822.493,0.032,-107165016.642306,0.024,1699.402,51.0,482.010,18009d44*0cd7fab2
#SATXYZ2A,USB1_1,0,72.0,FINESTEERING,2000,358353.000,00000000,7513,12778;7,GPS,21,-22034555.3638,-4757722.8239,14838537.5894,-119038.651,8.327,5.748,0.0,0.0,GPS,23,2393446.7499,23514263.9158,11960258.2188,-65111.144,5.698,3.657,0.0,0.0,GPS,9,10692972.1770,14001604.4739,19841131.9547,153923.296,7.977,6.148,0.0,0.0,GPS,31,-25902738.0187,6626780.8755,1724858.6250,36797.820,7.578,4.981,0.0,0.0,GPS,26,-16519648.3310,3826021.5968,20463412.4648,-46316.991,5.294,3.239,0.0,0.0,GPS,16,-8738289.8891,12088755.2409,21775366.0972,7575.243,4.441,2.714,0.0,0.0,GPS,27,-12236670.5144,21859552.0559,8340222.8428,110730.983,4.466,2.735,0.0,0.0*9d3e0159
#BESTPOSA,USB1_1,0,72.0,FINESTEERING,2000,358353.000,00000000,7145,12778;SOL_COMPUTED,SINGLE,36.76973229346,126.93478296756,75.3209,23.3000,WGS84,1.0205,0.7356,1.8708,"",0.000,0.000,7,7,7,7,0,12,00,01*1ee60b91
#BESTXYZA,USB1_1,0,72.0,FINESTEERING,2000,358353.000,00000000,bde7,12778;SOL_COMPUTED,SINGLE,-3073878.3728,4088849.4827,3797012.9586,1.1457,1.2740,1.4652,SOL_COMPUTED,SINGLE,0.0000,0.0000,0.0000,0.0011,0.0011,0.0011,"",0.150,0.000,0.000,7,7,7,7,0,12,00,01*96029244
#RANGEA,USB1_1,0,72.0,FINESTEERING,2000,358354.000,00000000,5103,12778;7,21,0,23776745.881,0.061,-124947643.004592,0.030,-226.705,45.4,482.700,08009c04,23,0,21833884.807,0.048,-114737846.468297,0.030,-257.341,47.4,482.938,18009c24,9,0,23195345.102,0.044,-121892363.628548,0.030,1686.784,48.3,482.780,08009c44,31,0,23026508.838,0.046,-121005114.984015,0.029,-2707.563,47.8,482.720,18009ca4,26,0,21462209.561,0.043,-112784668.056102,0.029,-1643.873,48.5,482.800,18009ce4,16,0,20469481.754,0.037,-107567853.706778,0.029,-552.717,49.7,482.730,08009d24,27,0,20392499.217,0.032,-107163317.830905,0.029,1698.400,51.0,483.010,18009d44*7c0fea7b
#SATXYZ2A,USB1_1,0,72.0,FINESTEERING,2000,358354.000,00000000,7513,12778;7,GPS,21,-22032936.4700,-4758431.0696,14840841.6300,-119038.648,8.327,5.748,0.0,0.0,GPS,23,2392750.6112,23515620.5796,11957625.3599,-65111.145,5.698,3.657,0.0,0.0,GPS,9,10692165.8132,14004004.7015,19839873.1582,153923.296,7.977,6.147,0.0,0.0,GPS,31,-25902993.6481,6626592.2675,1721714.4027,36797.820,7.579,4.982,0.0,0.0,GPS,26,-16521405.5089,3824104.1327,20462366.0344,-46316.987,5.295,3.239,0.0,0.0,GPS,16,-8740084.2902,12086604.4279,21775877.1171,7575.242,4.441,2.714,0.0,0.0,GPS,27,-12236593.7766,21858454.3822,8343210.2378,110730.982,4.465,2.735,0.0,0.0*13142dc7
#BESTPOSA,USB1_1,0,72.0,FINESTEERING,2000,358354.000,00000000,7145,12778;SOL_COMPUTED,SINGLE,36.76973229346,126.93478296756,75.3209,23.3000,WGS84,1.0205,0.7356,1.8708,"",0.000,0.000,7,7,7,7,0,12,00,01*9ec57e7e
#BESTXYZA,USB1_1,0,72.0,FINESTEERING,2000,358354.000,00000000,bde7,12778;SOL_COMPUTED,SINGLE,-3073878.3728,4088849.4827,3797012.9586,1.1457,1.2740,1.4652,SOL_COMPUTED,SINGLE,0.0000,0.0000,-6.1948e-10,0.0011,0.0011,0.0011,"",0.150,0.000,0.000,7,7,7,7,0,12,00,01*a83d5ecb
#RANGEA,USB1_1,0,71.5,FINESTEERING,2000,358355.000,00000000,5103,12778;7,21,0,23776788.938,0.062,-124947869.272063,0.034,-227.145,45.2,483.700,08009c04,23,0,21833933.688,0.048,-114738103.310904,0.034,-257.412,47.5,483.938,18009c24,9,0,23195024.056,0.044,-121890676.520869,0.034,1686.182,48.4,483.780,08009c44,31,0,23027023.978,0.046,-121007821.980738,0.033,-2707.892,47.8,483.720,18009ca4,26,0,21462522.258,0.043,-112786311.267365,0.034,-1643.682,48.4,483.800,18009ce4,16,0,20469586.850,0.037,-107568405.966456,0.034,-553.106,49.8,483.730,08009d24,27,0,20392175.948,0.032,-107161619.009585,0.033,1697.801,51.0,484.010,18009d44*0d870f4a
#SATXYZ2A,USB1_1,0,71.5,FINESTEERING,2000,358355.000,00000000,7513,12778;7,GPS,21,-22031317.3498,-4759139.4802,14843145.3695,-119038.645,8.327,5.748,0.0,0.0,GPS,23,2392054.6318,23516976.9657,11954992.2446,-65111.145,5.699,3.657,0.0,0.0,GPS,9,10691359.6281,14006404.8224,19838613.9383,153923.296,7.977,6.146,0.0,0.0,GPS,31,-25903248.9060,6626403.5946,1718570.1448,36797.820,7.580,4.983,0.0,0.0,GPS,26,-16523162.7034,3822186.8640,20461319.1695,-46316.983,5.295,3.239,0.0,0.0,GPS,16,-8741878.8620,12084453.6790,21776387.6649,7575.241,4.442,2.714,0.0,0.0,GPS,27,-12236516.9990,21857356.3402,8346197.4520,110730.981,4.465,2.735,0.0,0.0*d54bde04
#BESTPOSA,USB1_1,0,71.5,FINESTEERING,2000,358355.000,00000000,7145,12778;SOL_COMPUTED,SINGLE,36.76973229346,126.93478296756,75.3209,23.3000,WGS84,1.0205,0.7356,1.8708,"",0.000,0.000,7,7,7,7,0,12,00,01*f9d4dfe5
#BESTXYZA,USB1_1,0,71.5,FINESTEERING,2000,358355.000,00000000,bde7,12778;SOL_COMPUTED,SINGLE,-3073878.3728,4088849.4827,3797012.9586,1.1457,1.2740,1.4652,SOL_COMPUTED,SINGLE,-4.1708e-10,-2.6204e-10,-1.2191e-10,0.0011,0.0011,0.0011,"",0.150,0.000,0.000,7,7,7,7,0,12,00,01*a5928b4b
#RANGEA,USB1_1,0,71.5,FINESTEERING,2000,358356.000,00000000,5103,12778;7,21,0,23776832.436,0.062,-124948097.862695,0.036,-226.771,45.3,484.700,08009c04,23,0,21833983.037,0.048,-114738362.626542,0.035,-258.029,47.4,484.938,18009c24,9,0,23194703.460,0.043,-121888991.776990,0.036,1686.322,48.4,484.780,08009c44,31,0,23027539.512,0.046,-121010531.044318,0.035,-2707.411,47.9,484.720,18009ca4,26,0,21462835.324,0.043,-112787956.455096,0.035,-1643.648,48.4,484.800,18009ce4,16,0,20469692.343,0.037,-107568960.309583,0.035,-552.563,49.8,484.730,08009d24,27,0,20391853.130,0.032,-107159922.576451,0.035,1698.104,51.0,485.010,18009d44*da2fdd96
#SATXYZ2A,USB1_1,0,71.5,FINESTEERING,2000,358356.000,00000000,7513,12778;7,GPS,21,-22029698.0034,-4759848.0558,14845448.8080,-119038.642,8.328,5.748,0.0,0.0,GPS,23,2391358.8116,23518333.0740,11952358.8728,-65111.145,5.699,3.657,0.0,0.0,GPS,9,10690553.6219,14008804.8365,19837354.2952,153923.296,7.976,6.146,0.0,0.0,GPS,31,-25903503.7922,6626214.8568,1715425.8512,36797.820,7.581,4.984,0.0,0.0,GPS,26,-16524919.9146,3820269.7908,20460271.8701,-46316.979,5.296,3.240,0.0,0.0,GPS,16,-8743673.6045,12082302.9942,21776897.7407,7575.241,4.442,2.714,0.0,0.0,GPS,27,-12236440.1817,21856257.9298,8349184.4855,110730.981,4.465,2.735,0.0,0.0*28b77170
#BESTPOSA,USB1_1,0,71.5,FINESTEERING,2000,358356.000,00000000,7145,12778;SOL_COMPUTED,SINGLE,36.76973229250,126.93478297512,75.3203,23.3000,WGS84,1.0182,0.7337,1.8671,"",0.000,0.000,7,7,7,7,0,12,00,01*7c61110e
#BESTXYZA,USB1_1,0,71.5,FINESTEERING,2000,358356.000,00000000,bde7,12778;SOL_COMPUTED,SINGLE,-3073878.3731,4088849.4820,3797012.9581,1.1432,1.2713,1.4622,SOL_COMPUTED,SINGLE,0.0000,0.0000,0.0000,0.0011,0.0011,0.0011,"",0.150,0.000,0.000,7,7,7,7,0,12,00,01*a8395950
#RANGEA,USB1_1,0,74.0,FINESTEERING,2000,358357.000,00000000,5103,12778;7,21,0,23776875.974,0.062,-124948326.651614,0.033,-230.390,45.3,485.700,08009c04,23,0,21834032.450,0.048,-114738622.273120,0.032,-261.409,47.5,485.938,18009c24,9,0,23194382.926,0.043,-121887307.316624,0.032,1682.734,48.4,485.780,08009c44,31,0,23028055.034,0.045,-121013240.059102,0.032,-2710.537,48.1,485.720,18009ca4,26,0,21463148.377,0.044,-112789601.523516,0.032,-1646.778,48.4,485.800,18009ce4,16,0,20469797.844,0.037,-107569514.657174,0.032,-555.886,49.8,485.730,08009d24,27,0,20391530.370,0.032,-107158226.449025,0.032,1694.591,51.0,486.010,18009d44*6689c07a
#SATXYZ2A,USB1_1,0,74.0,FINESTEERING,2000,358357.000,00000000,7513,12778;7,GPS,21,-22028078.4308,-4760556.7964,14847751.9454,-119038.639,8.328,5.747,0.0,0.0,GPS,23,2390663.1505,23519688.9046,11949725.2447,-65111.145,5.699,3.657,0.0,0.0,GPS,9,10689747.7945,14011204.7438,19836094.2287,153923.297,7.976,6.145,0.0,0.0,GPS,31,-25903758.3068,6626026.0541,1712281.5220,36797.820,7.583,4.985,0.0,0.0,GPS,26,-16526677.1424,3818352.9130,20459224.1362,-46316.975,5.296,3.240,0.0,0.0,GPS,16,-8745468.5177,12080152.3735,21777407.3445,7575.240,4.442,2.714,0.0,0.0,GPS,27,-12236363.3246,21855159.1512,8352171.3381,110730.980,4.465,2.735,0.0,0.0*5d9fa1b9
#BESTPOSA,USB1_1,0,74.0,FINESTEERING,2000,358357.000,00000000,7145,12778;SOL_COMPUTED,SINGLE,36.76973229250,126.93478297512,75.3203,23.3000,WGS84,1.0183,0.7337,1.8671,"",0.000,0.000,7,7,7,7,0,12,00,01*3e1c4907
#BESTXYZA,USB1_1,0,74.0,FINESTEERING,2000,358357.000,00000000,bde7,12778;SOL_COMPUTED,SINGLE,-3073878.3731,4088849.4820,3797012.9581,1.1432,1.2713,1.4622,SOL_COMPUTED,SINGLE,-7.7202e-10,-6.7256e-10,-1.9699e-10,0.0011,0.0011,0.0011,"",0.150,0.000,0.000,7,7,7,7,0,12,00,01*9dcaf08c
#RANGEA,USB1_1,0,73.0,FINESTEERING,2000,358358.000,00000000,5103,12778;7,21,0,23776918.754,0.062,-124948551.440949,0.037,-221.221,45.3,486.700,08009c04,23,0,21834081.132,0.048,-114738878.048873,0.036,-252.432,47.4,486.938,18009c24,9,0,23194061.635,0.043,-121885618.893811,0.036,1692.026,48.6,486.780,08009c44,31,0,23028569.752,0.045,-121015944.828164,0.035,-2700.890,48.1,486.720,18009ca4,26,0,21463460.594,0.044,-112791242.257956,0.036,-1637.351,48.3,486.800,18009ce4,16,0,20469902.533,0.037,-107570064.757277,0.036,-546.240,49.8,486.730,08009d24,27,0,20391206.866,0.032,-107156526.412078,0.036,1703.657,51.0,487.010,18009d44*3e675197
#SATXYZ2A,USB1_1,0,73.0,FINESTEERING,2000,358358.000,00000000,7513,12778;7,GPS,21,-22026458.6320,-4761265.7019,14850054.7817,-119038.636,8.328,5.747,0.0,0.0,GPS,23,2389967.6487,23521044.4572,11947091.3602,-65111.145,5.699,3.657,0.0,0.0,GPS,9,10688942.1459,14013604.5443,19834833.7391,153923.297,7.976,6.144,0.0,0.0,GPS,31,-25904012.4497,6625837.1863,1709137.1573,36797.821,7.584,4.986,0.0,0.0,GPS,26,-16528434.3867,3816436.2308,20458175.9678,-46316.972,5.297,3.240,0.0,0.0,GPS,16,-8747263.6015,12078001.8171,21777916.4762,7575.239,4.442,2.714,0.0,0.0,GPS,27,-12236286.4279,21854060.0043,8355158.0098,110730.979,4.465,2.734,0.0,0.0*cbc9eb77
#BESTPOSA,USB1_1,0,73.0,FINESTEERING,2000,358358.000,00000000,7145,12778;SOL_COMPUTED,SINGLE,36.76973229198,126.93478298270,75.3198,23.3000,WGS84,1.0160,0.7318,1.8634,"",0.000,0.000,7,7,7,7,0,12,00,01*3c944f16
#BESTXYZA,USB1_1,0,73.0,FINESTEERING,2000,358358.000,00000000,bde7,12778;SOL_COMPUTED,SINGLE,-3073878.3734,4088849.4813,3797012.9578,1.1408,1.2686,1.4593,SOL_COMPUTED,SINGLE,0.0000,0.0000,0.0000,0.0011,0.0011,0.0011,"",0.150,0.000,0.000,7,7,7,7,0,12,00,01*4fd9c6c6
#RANGEA,USB1_1,0,70.5,FINESTEERING,2000,358359.000,00000000,5103,12778;7,21,0,23776961.608,0.063,-124948776.704949,0.101,-225.587,45.1,487.700,08009c04,23,0,21834129.934,0.049,-114739134.449364,0.042,-256.758,47.3,487.938,18009c24,9,0,23193740.450,0.043,-121883931.036637,0.086,1687.802,48.5,487.780,08009c44,31,0,23029084.513,0.044,-121018649.871400,0.041,-2705.144,48.1,487.720,18009ca4,26,0,21463772.844,0.044,-112792883.127366,0.042,-1641.234,48.2,487.800,18009ce4,16,0,20470007.272,0.037,-107570615.130759,0.042,-550.555,49.8,487.730,08009d24,27,0,20390883.468,0.032,-107154826.945527,0.042,1699.152,50.9,488.010,18009d44*afb06386
#SATXYZ2A,USB1_1,0,70.5,FINESTEERING,2000,358359.000,00000000,7513,12778;7,GPS,21,-22024838.6071,-4761974.7726,14852357.3168,-119038.633,8.328,5.747,0.0,0.0,GPS,23,2389272.3059,23522399.7320,11944457.2195,-65111.145,5.700,3.657,0.0,0.0,GPS,9,10688136.6760,14016004.2377,19833572.8262,153923.297,7.975,6.143,0.0,0.0,GPS,31,-25904266.2211,6625648.2535,1705992.7573,36797.821,7.585,4.986,0.0,0.0,GPS,26,-16530191.6475,3814519.7441,20457127.3650,-46316.968,5.297,3.240,0.0,0.0,GPS,16,-8749058.8558,12075851.3249,21778425.1359,7575.238,4.442,2.714,0.0,0.0,GPS,27,-12236209.4916,21852960.4890,8358144.5005,110730.978,4.465,2.734,0.0,0.0*c29ad222
#BESTPOSA,USB1_1,0,70.5,FINESTEERING,2000,358359.000,00000000,7145,12778;SOL_COMPUTED,SINGLE,36.76973229198,126.93478298270,75.3198,23.3000,WGS84,1.0160,0.7318,1.8634,"",0.000,0.000,7,7,7,7,0,12,00,01*5b85ee8d
#BESTXYZA,USB1_1,0,70.5,FINESTEERING,2000,358359.000,00000000,bde7,12778;SOL_COMPUTED,SINGLE,-3073878.3734,4088849.4813,3797012.9578,1.1408,1.2686,1.4593,SOL_COMPUTED,SINGLE,0.0000,0.0000,-4.0755e-10,0.0011,0.0011,0.0011,"",0.150,0.000,0.000,7,7,7,7,0,12,00,01*1691cfc6
#RANGEA,USB1_1,0,70.5,FINESTEERING,2000,358360.000,00000000,5103,12778;7,21,0,23777004.832,0.063,-124949003.889586,0.067,-227.496,45.1,488.700,08009c04,23,0,21834179.109,0.049,-114739392.866893,0.036,-258.499,47.3,488.938,18009c24,9,0,23193419.646,0.044,-121882245.143536,0.058,1685.680,48.3,488.780,08009c44,31,0,23029599.592,0.044,-121021356.553485,0.036,-2706.700,48.2,488.720,18009ca4,26,0,21464085.396,0.044,-112794525.595069,0.036,-1642.578,48.3,488.800,18009ce4,16,0,20470112.336,0.037,-107571167.181672,0.036,-552.125,49.8,488.730,08009d24,27,0,20390560.443,0.032,-107153129.453685,0.036,1697.393,50.9,489.010,18009d44*777b6bf7
#SATXYZ2A,USB1_1,0,70.5,FINESTEERING,2000,358360.000,00000000,7513,12778;7,GPS,21,-22023218.3561,-4762684.0082,14854659.5507,-119038.630,8.328,5.747,0.0,0.0,GPS,23,2388577.1223,23523754.7288,11941822.8227,-65111.146,5.700,3.657,0.0,0.0,GPS,9,10687331.3850,14018403.8242,19832311.4901,153923.297,7.975,6.142,0.0,0.0,GPS,31,-25904519.6208,6625459.2556,1702848.3218,36797.821,7.586,4.987,0.0,0.0,GPS,26,-16531948.9248,3812603.4530,20456078.3278,-46316.964,5.298,3.241,0.0,0.0,GPS,16,-8750854.2807,12073700.8971,21778933.3235,7575.237,4.442,2.714,0.0,0.0,GPS,27,-12236132.5157,21851860.6056,8361130.8102,110730.977,4.464,2.734,0.0,0.0*aada632f
#BESTPOSA,USB1_1,0,70.5,FINESTEERING,2000,358360.000,00000000,7145,12778;SOL_COMPUTED,SINGLE,36.76973229198,126.93478298270,75.3198,23.3000,WGS84,1.0160,0.7318,1.8634,"",0.000,0.000,7,7,7,7,0,12,00,01*1d380c71
#BESTXYZA,USB1_1,0,70.5,FINESTEERING,2000,358360.000,00000000,bde7,12778;SOL_COMPUTED,SINGLE,-3073878.3734,4088849.4813,3797012.9578,1.1408,1.2686,1.4593,SOL_COMPUTED,SINGLE,-3.8627e-10,-2.3362e-10,-1.0612e-10,0.0011,0.0011,0.0011,"",0.150,0.000,0.000,7,7,7,7,0,12,00,01*e2601114
#RANGEA,USB1_1,0,70.0,FINESTEERING,2000,358361.000,00000000,5103,12778;7,21,0,23777047.661,0.063,-124949228.963610,0.047,-224.217,45.1,489.700,08009c04,23,0,21834227.918,0.049,-114739649.337722,0.035,-255.872,47.3,489.938,18009c24,9,0,23193098.451,0.044,-121880557.209657,0.044,1688.928,48.2,489.780,08009c44,31,0,23030114.226,0.044,-121024060.900145,0.034,-2702.987,48.3,489.720,18009ca4,26,0,21464397.480,0.044,-112796165.600894,0.104,-1639.636,48.3,489.800,18009ce4,16,0,20470216.954,0.037,-107571716.904525,0.034,-548.736,49.7,489.730,08009d24,27,0,20390237.041,0.032,-107151429.950305,0.035,1700.349,50.9,490.010,18009d44*d5c4dedd
#SATXYZ2A,USB1_1,0,70.0,FINESTEERING,2000,358361.000,00000000,7513,12778;7,GPS,21,-22021597.8792,-4763393.4089,14856961.4833,-119038.627,8.328,5.747,0.0,0.0,GPS,23,2387882.0978,23525109.4476,11939188.1696,-65111.146,5.700,3.657,0.0,0.0,GPS,9,10686526.2727,14020803.3036,19831049.7308,153923.297,7.975,6.141,0.0,0.0,GPS,31,-25904772.6490,6625270.1925,1699703.8511,36797.821,7.587,4.988,0.0,0.0,GPS,26,-16533706.2184,3810687.3575,20455028.8562,-46316.960,5.298,3.241,0.0,0.0,GPS,16,-8752649.8761,12071550.5337,21779441.0390,7575.236,4.443,2.714,0.0,0.0,GPS,27,-12236055.5003,21850760.3538,8364116.9387,110730.977,4.464,2.734,0.0,0.0*29f41dc2
#BESTPOSA,USB1_1,0,70.0,FINESTEERING,2000,358361.000,00000000,7145,12778;SOL_COMPUTED,SINGLE,36.76973229152,126.93478299098,75.3192,23.3000,WGS84,1.0138,0.7299,1.8598,"",0.000,0.000,7,7,7,7,0,12,00,01*d5d51f56
#BESTXYZA,USB1_1,0,70.0,FINESTEERING,2000,358361.000,00000000,bde7,12778;SOL_COMPUTED,SINGLE,-3073878.3738,4088849.4805,3797012.9574,1.1383,1.2660,1.4564,SOL_COMPUTED,SINGLE,0.0000,0.0000,-8.2329e-10,0.0011,0.0011,0.0011,"",0.150,0.000,0.000,7,7,7,7,0,12,00,01*4021e852
#RANGEA,USB1_1,0,70.0,FINESTEERING,2000,358362.000,00000000,5103,12778;7,21,0,23777090.895,0.064,-124949456.168593,0.035,-230.015,45.0,490.700,08009c04,23,0,21834277.153,0.050,-114739908.046487,0.029,-261.369,47.1,490.938,18009c24,9,0,23192777.669,0.045,-121878871.433759,0.033,1683.164,48.1,490.780,08009c44,31,0,23030629.216,0.044,-121026767.125914,0.028,-2708.833,48.2,490.720,18009ca4,26,0,21464709.903,0.044,-112797807.408189,0.066,-1644.094,48.3,490.800,18009ce4,16,0,20470321.927,0.038,-107572268.528706,0.027,-554.282,49.7,490.730,08009d24,27,0,20389914.062,0.033,-107149732.655610,0.028,1694.497,50.8,491.010,18009d44*486c9db8
#SATXYZ2A,USB1_1,0,70.0,FINESTEERING,2000,358362.000,00000000,7513,12778;7,GPS,21,-22019977.1763,-4764102.9748,14859263.1147,-119038.624,8.328,5.747,0.0,0.0,GPS,23,2387187.2322,23526463.8884,11936553.2605,-65111.146,5.701,3.658,0.0,0.0,GPS,9,10685721.3392,14023202.6758,19829787.5484,153923.297,7.974,6.141,0.0,0.0,GPS,31,-25905025.3055,6625081.0642,1696559.3451,36797.821,7.588,4.989,0.0,0.0,GPS,26,-16535463.5283,3808771.4577,20453978.9502,-46316.956,5.299,3.241,0.0,0.0,GPS,16,-8754445.6420,12069400.2348,21779948.2824,7575.235,4.443,2.714,0.0,0.0,GPS,27,-12235978.4455,21849659.7338,8367102.8861,110730.976,4.464,2.734,0.0,0.0*8cf8b740
#BESTPOSA,USB1_1,0,70.0,FINESTEERING,2000,358362.000,00000000,7145,12778;SOL_COMPUTED,SINGLE,36.76973229152,126.93478299098,75.3192,23.3000,WGS84,1.0138,0.7299,1.8598,"",0.000,0.000,7,7,7,7,0,12,00,01*cbbff746
#BESTXYZA,USB1_1,0,70.0,FINESTEERING,2000,358362.000,00000000,bde7,12778;SOL_COMPUTED,SINGLE,-3073878.3738,4088849.4805,3797012.9574,1.1383,1.2660,1.4564,SOL_COMPUTED,SINGLE,-8.2165e-10,-7.0883e-10,-2.1437e-10,0.0011,0.0011,0.0011,"",0.150,0.000,0.000,7,7,7,7,0,12,00,01*79db7ff6
#RANGEA,USB1_1,0,70.5,FINESTEERING,2000,358363.000,00000000,5103,12778;7,21,0,23777134.681,0.064,-124949686.247330,0.032,-230.650,45.0,491.700,08009c04,23,0,21834326.958,0.051,-114740169.777852,0.030,-262.342,47.0,491.938,18009c24,9,0,23192457.452,0.045,-121877188.628939,0.030,1682.265,48.0,491.780,08009c44,31,0,23031144.706,0.044,-121029475.973338,0.029,-2709.167,48.3,491.720,18009ca4,26,0,21465022.814,0.044,-112799451.757558,0.046,-1644.685,48.3,491.800,18009ce4,16,0,20470427.409,0.037,-107572822.800452,0.029,-554.589,49.7,491.730,08009d24,27,0,20389591.639,0.033,-107148038.309579,0.029,1693.930,50.8,492.010,18009d44*8664b94e
#SATXYZ2A,USB1_1,0,70.5,FINESTEERING,2000,358363.000,00000000,7513,12778;7,GPS,21,-22018356.2476,-4764812.7057,14861564.4447,-119038.621,8.328,5.747,0.0,0.0,GPS,23,2386492.5258,23527818.0510,11933918.0953,-65111.146,5.701,3.658,0.0,0.0,GPS,9,10684916.5846,14025601.9408,19828524.9429,153923.297,7.974,6.140,0.0,0.0,GPS,31,-25905277.5904,6624891.8706,1693414.8039,36797.821,7.589,4.990,0.0,0.0,GPS,26,-16537220.8545,3806855.7535,20452928.6099,-46316.952,5.299,3.241,0.0,0.0,GPS,16,-8756241.5783,12067250.0004,21780455.0537,7575.234,4.443,2.714,0.0,0.0,GPS,27,-12235901.3514,21848558.7456,8370088.6523,110730.975,4.464,2.733,0.0,0.0*3bf73bbe
#BESTPOSA,USB1_1,0,70.5,FINESTEERING,2000,358363.000,00000000,7145,12778;SOL_COMPUTED,SINGLE,36.76973229126,126.93478299896,75.3188,23.3000,WGS84,1.0116,0.7280,1.8562,"",0.000,0.000,7,7,7,7,0,12,00,01*d24abac9
#BESTXYZA,USB1_1,0,70.5,FINESTEERING,2000,358363.000,00000000,bde7,12778;SOL_COMPUTED,SINGLE,-3073878.3741,4088849.4798,3797012.9571,1.1359,1.2633,1.4535,SOL_COMPUTED,SINGLE,0.0000,0.0000,0.0000,0.0011,0.0011,0.0011,"",0.150,0.000,0.000,7,7,7,7,0,12,00,01*399763c5
#RANGEA,USB1_1,0,70.0,FINESTEERING,2000,358364.000,00000000,5103,12778;7,21,0,23777178.676,0.064,-124949917.445069,0.029,-231.901,44.9,492.700,08009c04,23,0,21834377.003,0.050,-114740432.755435,0.028,-263.388,47.1,492.938,18009c24,9,0,23192137.454,0.046,-121875506.986642,0.028,1681.272,47.9,492.780,08009c44,31,0,23031660.367,0.044,-121032185.718432,0.028,-2709.980,48.4,492.720,18009ca4,26,0,21465335.871,0.043,-112801096.886929,0.035,-1645.185,48.5,492.800,18009ce4,16,0,20470533.066,0.037,-107573377.968846,0.027,-555.495,49.7,492.730,08009d24,27,0,20389269.448,0.033,-107146345.191539,0.027,1692.789,50.8,493.010,18009d44*e398daea
#SATXYZ2A,USB1_1,0,70.0,FINESTEERING,2000,358364.000,00000000,7513,12778;7,GPS,21,-22016735.0930,-4765522.6018,14863865.4733,-119038.618,8.328,5.747,0.0,0.0,GPS,23,2385797.9782,23529171.9355,11931282.6742,-65111.146,5.701,3.658,0.0,0.0,GPS,9,10684112.0087,14028001.0986,19827261.9143,153923.298,7.974,6.139,0.0,0.0,GPS,31,-25905529.5038,6624702.6117,1690270.2277,36797.821,7.590,4.991,0.0,0.0,GPS,26,-16538978.1969,3804940.2451,20451877.8352,-46316.948,5.300,3.242,0.0,0.0,GPS,16,-8758037.6850,12065099.8306,21780961.3530,7575.233,4.443,2.714,0.0,0.0,GPS,27,-12235824.2179,21847457.3891,8373074.2371,110730.974,4.464,2.733,0.0,0.0*de4c18b1
#BESTPOSA,USB1_1,0,70.0,FINESTEERING,2000,358364.000,00000000,7145,12778;SOL_COMPUTED,SINGLE,36.76973229126,126.93478299896,75.3188,23.3000,WGS84,1.0117,0.7280,1.8562,"",0.000,0.000,7,7,7,7,0,12,00,01*be740c01
#BESTXYZA,USB1_1,0,70.0,FINESTEERING,2000,358364.000,00000000,bde7,12778;SOL_COMPUTED,SINGLE,-3073878.3741,4088849.4798,3797012.9571,1.1359,1.2633,1.4535,SOL_COMPUTED,SINGLE,0.0000,0.0000,-2.7384e-10,0.0011,0.0011,0.0011,"",0.150,0.000,0.000,7,7,7,7,0,12,00,01*7a475b4d
