#RANGEA,USB1_1,0,66.0,FINESTEERING,2000,455692.000,00000000,5103,12778;10,1,0,21521603.777,0.047,-113096711.985812,0.031,2982.403,47.7,338.100,08009c04,16,0,24148241.221,0.877,-126899911.840035,0.077,-2753.236,36.7,7.870,08009c24,30,0,22090578.703,0.044,-116086781.863629,0.028,1809.909,48.2,310.500,08009c44,18,0,20332211.005,0.034,-106846412.888902,0.027,1644.880,50.4,330.890,08009c64,22,0,24922622.806,0.161,-130969289.414315,0.048,2742.044,37.0,267.230,18009ca4,7,0,20897425.424,0.032,-109816632.957852,0.027,133.655,51.0,344.890,08009cc4,8,0,20725047.182,0.030,-108910781.625596,0.027,-1005.641,51.6,347.850,08009ce4,27,0,22648193.024,0.082,-119017060.039594,0.030,-2624.406,42.8,311.560,08009d04,10,0,24626310.835,0.062,-129412065.067813,0.028,225.795,45.2,344.208,18009d24,11,0,20839597.243,0.037,-109512745.297254,0.027,1976.646,49.8,340.610,08009d44*899da4b7
#SATXYZ2A,USB1_1,0,66.0,FINESTEERING,2000,455692.000,00000000,7513,12778;10,GPS,1,-13659417.9603,22565714.9724,775441.8280,-14074.784,5.997,3.513,0.0,0.0,GPS,16,-26688446.6127,-698916.5191,2084764.6934,7543.265,9.753,8.062,0.0,0.0,GPS,30,5436296.2602,17369528.0027,19295109.7858,22613.142,6.715,3.985,0.0,0.0,GPS,18,-16607943.8740,18424778.1168,8777378.5632,2288.907,4.685,2.689,0.0,0.0,GPS,22,-21247595.4832,10317918.8327,-11896213.7588,-116215.276,12.081,17.354,0.0,0.0,GPS,7,-2271790.8430,22558562.3072,13664129.1068,58084.464,5.184,2.984,0.0,0.0,GPS,8,-11138502.0572,10458175.6837,21759905.3685,-30239.315,4.734,2.728,0.0,0.0,GPS,27,-17471210.8261,-3497871.4090,19706797.9919,110706.466,7.502,4.815,0.0,0.0,GPS,10,-17859929.0464,-11245413.5689,16263181.5311,55220.764,10.908,12.338,0.0,0.0,GPS,11,-9390392.4918,23007334.7617,9024875.7041,-220773.742,4.854,2.786,0.0,0.0*a19a9533
#BESTPOSA,USB1_1,0,66.0,FINESTEERING,2000,455692.000,00000000,7145,12778;SOL_COMPUTED,SINGLE,36.76834053126,126.93455795599,76.3793,23.3000,WGS84,1.0002,1.1273,2.1220,"",0.000,0.000,10,10,10,10,0,12,00,01*46f4b65b
#BESTXYZA,USB1_1,0,66.0,FINESTEERING,2000,455692.000,00000000,bde7,12778;SOL_COMPUTED,SINGLE,-3073918.3798,4088936.1318,3796889.8685,1.7301,1.2303,1.5057,SOL_COMPUTED,SINGLE,0.0000,0.0000,0.0000,0.0011,0.0011,0.0011,"",0.150,0.000,0.000,10,10,10,10,0,12,00,01*1382f422
#RANGEA,USB1_1,0,64.5,FINESTEERING,2000,455693.000,00000000,5103,12778;10,1,0,21521036.177,0.048,-113093729.221589,0.030,2979.271,47.6,339.100,08009c04,16,0,24148765.059,0.775,-126902665.630147,0.055,-2756.897,37.4,8.870,08009c24,30,0,22090234.233,0.045,-116084971.706008,0.028,1806.817,48.1,311.500,08009c44,18,0,20331897.947,0.034,-106844767.776894,0.027,1641.916,50.4,331.890,08009c64,22,0,24922101.013,0.157,-130966547.330953,0.102,2738.447,37.2,268.230,18009ca4,7,0,20897399.923,0.032,-109816498.943637,0.028,130.883,51.0,345.890,08009cc4,8,0,20725238.479,0.030,-108911786.865182,0.028,-1008.144,51.6,348.850,08009ce4,27,0,22648692.303,0.081,-119019684.004296,0.029,-2627.012,43.0,312.560,08009d04,10,0,24626267.851,0.064,-129411839.156382,0.029,222.536,44.9,345.208,18009d24,11,0,20839221.054,0.037,-109510768.399371,0.027,1973.876,49.9,341.610,08009d44*6a31a443
#SATXYZ2A,USB1_1,0,64.5,FINESTEERING,2000,455693.000,00000000,7513,12778;10,GPS,1,-13659598.2408,22565475.7594,778657.9615,-14074.785,5.996,3.513,0.0,0.0,GPS,16,-26688712.9711,-699100.9919,2081574.5530,7543.265,9.753,8.063,0.0,0.0,GPS,30,5434836.2016,17371513.5444,19293717.2686,22613.140,6.715,3.985,0.0,0.0,GPS,18,-16607679.3990,18423580.0790,8780263.4917,2288.907,4.684,2.688,0.0,0.0,GPS,22,-21249170.1444,10317682.6589,-11893657.6430,-116215.280,12.079,17.344,0.0,0.0,GPS,7,-2272884.6821,22559910.8126,13661637.6456,58084.462,5.184,2.984,0.0,0.0,GPS,8,-11139948.6536,10455836.0845,21760304.7750,-30239.315,4.734,2.728,0.0,0.0,GPS,27,-17472403.7002,-3500076.9584,19705379.7313,110706.466,7.502,4.816,0.0,0.0,GPS,10,-17857879.3640,-11245605.1887,16265289.9606,55220.765,10.908,12.337,0.0,0.0,GPS,11,-9390680.3912,23006071.3802,9027612.1202,-220773.743,4.854,2.786,0.0,0.0*c510680c
#BESTPOSA,USB1_1,0,64.5,FINESTEERING,2000,455693.000,00000000,7145,12778;SOL_COMPUTED,SINGLE,36.76834053126,126.93455795599,76.3793,23.3000,WGS84,1.0002,1.1273,2.1220,"",0.000,0.000,10,10,10,10,0,12,00,01*81e4bcc7
#BESTXYZA,USB1_1,0,64.5,FINESTEERING,2000,455693.000,00000000,bde7,12778;SOL_COMPUTED,SINGLE,-3073918.3798,4088936.1318,3796889.8685,1.7301,1.2303,1.5057,SOL_COMPUTED,SINGLE,0.0000,0.0000,0.0000,0.0011,0.0011,0.0011,"",0.150,0.000,0.000,10,10,10,10,0,12,00,01*74e83cac
#RANGEA,USB1_1,0,64.5,FINESTEERING,2000,455694.000,00000000,5103,12778;10,1,0,21520468.688,0.047,-113090747.066813,0.031,2983.864,47.6,340.100,08009c04,16,0,24149289.416,0.698,-126905419.749902,0.085,-2752.499,37.9,9.870,08009c24,30,0,22089889.905,0.045,-116083162.252366,0.030,1811.050,48.1,312.500,08009c44,18,0,20331585.037,0.035,-106843123.463704,0.029,1645.794,50.3,332.890,08009c64,22,0,24921579.224,0.166,-130963805.300048,0.101,2743.576,36.7,269.230,18009ca4,7,0,20897374.585,0.032,-109816365.780059,0.030,134.508,51.0,346.890,08009cc4,8,0,20725429.860,0.030,-108912792.516608,0.030,-1004.092,51.6,349.850,08009ce4,27,0,22649191.621,0.081,-119022308.193564,0.031,-2622.336,43.0,313.560,08009d04,10,0,24626225.005,0.063,-129411613.960189,0.031,226.611,45.1,346.208,18009d24,11,0,20838844.984,0.037,-109508792.145484,0.029,1977.662,49.8,342.610,08009d44*15b676fc
#SATXYZ2A,USB1_1,0,64.5,FINESTEERING,2000,455694.000,00000000,7513,12778;10,GPS,1,-13659778.3325,22565236.2032,781874.0781,-14074.787,5.995,3.512,0.0,0.0,GPS,16,-26688978.9442,-699285.4152,2078384.3694,7543.266,9.752,8.062,0.0,0.0,GPS,30,5433376.3455,17373499.0205,19292324.3393,22613.139,6.714,3.984,0.0,0.0,GPS,18,-16607414.8236,18422381.6974,8783148.2280,2288.908,4.684,2.688,0.0,0.0,GPS,22,-21250744.4952,10317446.5473,-11891101.2708,-116215.285,12.078,17.334,0.0,0.0,GPS,7,-2273978.2877,22561259.1127,13659145.8908,58084.460,5.184,2.984,0.0,0.0,GPS,8,-11141395.4143,10453496.5302,21760703.7201,-30239.316,4.734,2.728,0.0,0.0,GPS,27,-17473596.6175,-3502282.2782,19703961.0520,110706.465,7.503,4.817,0.0,0.0,GPS,10,-17855829.4283,-11245796.9304,16267398.0472,55220.766,10.908,12.337,0.0,0.0,GPS,11,-9390968.3222,23004807.6667,9030348.3415,-220773.743,4.854,2.786,0.0,0.0*6aef42bc
#BESTPOSA,USB1_1,0,64.5,FINESTEERING,2000,455694.000,00000000,7145,12778;SOL_COMPUTED,SINGLE,36.76834056417,126.93455793599,76.3749,23.3000,WGS84,0.9964,1.1232,2.1148,"",0.000,0.000,10,10,10,10,0,12,00,01*6bd56220
#BESTXYZA,USB1_1,0,64.5,FINESTEERING,2000,455694.000,00000000,bde7,12778;SOL_COMPUTED,SINGLE,-3073918.3749,4088936.1283,3796889.8688,1.7246,1.2256,1.5001,SOL_COMPUTED,SINGLE,0.0000,0.0000,0.0000,0.0011,0.0011,0.0011,"",0.150,0.000,0.000,10,10,10,10,0,12,00,01*a7ea3fec
#RANGEA,USB1_1,0,69.0,FINESTEERING,2000,455695.000,00000000,5103,12778;10,1,0,21519900.937,0.047,-113087763.522979,0.032,2986.434,47.6,341.100,08009c04,16,0,24149812.854,0.655,-126908172.148576,0.061,-2748.543,37.7,10.870,08009c24,30,0,22089545.339,0.045,-116081351.540507,0.030,1813.043,48.0,313.500,08009c44,18,0,20331271.900,0.035,-106841477.948584,0.029,1647.658,50.3,333.890,08009c64,22,0,24921057.021,0.166,-130961061.258115,0.087,2747.346,36.8,270.230,18009ca4,7,0,20897349.029,0.032,-109816231.452174,0.029,136.575,51.0,347.890,08009cc4,8,0,20725620.934,0.030,-108913796.586360,0.030,-1001.679,51.5,350.850,08009ce4,27,0,22649690.601,0.082,-119024930.609145,0.031,-2619.530,42.9,314.560,08009d04,10,0,24626181.888,0.065,-129411387.423131,0.030,228.970,44.9,347.208,18009d24,11,0,20838468.662,0.037,-109506814.549964,0.030,1979.861,49.8,343.610,08009d44*be7347a6
#SATXYZ2A,USB1_1,0,69.0,FINESTEERING,2000,455695.000,00000000,7513,12778;10,GPS,1,-13659958.2356,22564996.3037,785090.1778,-14074.788,5.994,3.511,0.0,0.0,GPS,16,-26689244.5322,-699469.7888,2075194.1427,7543.266,9.752,8.062,0.0,0.0,GPS,30,5431916.6917,17375484.4307,19290930.9979,22613.137,6.713,3.984,0.0,0.0,GPS,18,-16607150.1480,18421182.9721,8786032.7721,2288.908,4.684,2.688,0.0,0.0,GPS,22,-21252318.5355,10317210.4978,-11888544.6424,-116215.289,12.076,17.323,0.0,0.0,GPS,7,-2275071.6600,22562607.2075,13656653.8424,58084.458,5.184,2.984,0.0,0.0,GPS,8,-11142842.3391,10451157.0208,21761102.2038,-30239.316,4.734,2.728,0.0,0.0,GPS,27,-17474789.5779,-3504487.3681,19702541.9537,110706.465,7.504,4.818,0.0,0.0,GPS,10,-17853779.2393,-11245988.7939,16269505.7910,55220.767,10.907,12.336,0.0,0.0,GPS,11,-9391256.2850,23003543.6213,9033084.3680,-220773.743,4.853,2.785,0.0,0.0*c977f2f1
#BESTPOSA,USB1_1,0,69.0,FINESTEERING,2000,455695.000,00000000,7145,12778;SOL_COMPUTED,SINGLE,36.76834056417,126.93455793599,76.3749,23.3000,WGS84,0.9964,1.1232,2.1148,"",0.000,0.000,10,10,10,10,0,12,00,01*ca09b8c8
#BESTXYZA,USB1_1,0,69.0,FINESTEERING,2000,455695.000,00000000,bde7,12778;SOL_COMPUTED,SINGLE,-3073918.3749,4088936.1283,3796889.8688,1.7246,1.2256,1.5001,SOL_COMPUTED,SINGLE,0.0000,0.0000,0.0000,0.0011,0.0011,0.0011,"",0.150,0.000,0.000,10,10,10,10,0,12,00,01*5543b6a1
#RANGEA,USB1_1,0,64.5,FINESTEERING,2000,455696.000,00000000,5103,12778;10,1,0,21519332.704,0.049,-113084777.406428,0.072,2985.250,47.4,342.100,08009c04,16,0,24150336.470,0.595,-126910921.742743,0.086,-2750.260,38.0,11.870,08009c24,30,0,22089200.295,0.045,-116079538.352513,0.071,1812.381,48.0,314.500,08009c44,18,0,20330958.309,0.035,-106839830.056765,0.029,1647.109,50.2,334.890,08009c64,22,0,24920534.281,0.159,-130958314.151433,0.088,2746.771,37.1,271.230,18009ca4,7,0,20897323.027,0.032,-109816094.778623,0.030,135.906,51.0,348.890,08009cc4,8,0,20725811.483,0.030,-108914797.880973,0.030,-1001.847,51.5,351.850,08009ce4,27,0,22650189.024,0.080,-119027550.036473,0.077,-2619.856,43.1,315.560,08009d04,10,0,24626138.319,0.064,-129411158.429555,0.031,228.149,45.0,348.208,18009d24,11,0,20838091.849,0.037,-109504834.399087,0.081,1979.435,49.7,344.610,08009d44*d355f6b7
#SATXYZ2A,USB1_1,0,64.5,FINESTEERING,2000,455696.000,00000000,7513,12778;10,GPS,1,-13660137.9499,22564756.0610,788306.2604,-14074.790,5.993,3.511,0.0,0.0,GPS,16,-26689509.7349,-699654.1130,2072003.8728,7543.266,9.763,8.086,0.0,0.0,GPS,30,5430457.2404,17377469.7752,19289537.2444,22613.136,6.713,3.984,0.0,0.0,GPS,18,-16606885.3721,18419983.9030,8788917.1239,2288.909,4.684,2.688,0.0,0.0,GPS,22,-21253892.2653,10316974.5103,-11885987.7577,-116215.293,12.075,17.313,0.0,0.0,GPS,7,-2276164.7989,22563955.0969,13654161.5006,58084.455,5.184,2.984,0.0,0.0,GPS,8,-11144289.4282,10448817.5565,21761500.2260,-30239.316,4.734,2.728,0.0,0.0,GPS,27,-17475982.5815,-3506692.2283,19701122.4367,110706.465,7.504,4.819,0.0,0.0,GPS,10,-17851728.7970,-11246180.7793,16271613.1919,55220.768,10.907,12.336,0.0,0.0,GPS,11,-9391544.2795,23002279.2440,9035820.1996,-220773.743,4.853,2.785,0.0,0.0*1e76ab18
#BESTPOSA,USB1_1,0,64.5,FINESTEERING,2000,455696.000,00000000,7145,12778;SOL_COMPUTED,SINGLE,36.76834056417,126.93455793599,76.3749,23.3000,WGS84,0.9964,1.1232,2.1148,"",0.000,0.000,10,10,10,10,0,12,00,01*888cd2ae
#BESTXYZA,USB1_1,0,64.5,FINESTEERING,2000,455696.000,00000000,bde7,12778;SOL_COMPUTED,SINGLE,-3073918.3749,4088936.1283,3796889.8688,1.7246,1.2256,1.5001,SOL_COMPUTED,SINGLE,6.7857e-10,-7.6522e-10,8.0962e-10,0.0011,0.0011,0.0011,"",0.150,0.000,0.000,10,10,10,10,0,12,00,01*894eccd3
#RANGEA,USB1_1,0,64.5,FINESTEERING,2000,455697.000,00000000,5103,12778;10,1,0,21518764.699,0.048,-113081792.536490,0.050,2984.266,47.6,343.100,08009c04,16,0,24150860.211,0.567,-126913672.278697,0.084,-2751.198,37.7,12.870,08009c24,30,0,22088855.514,0.045,-116077726.536422,0.049,1810.683,48.1,315.500,08009c44,18,0,20330645.001,0.035,-106838183.630792,0.031,1645.657,50.2,335.890,08009c64,22,0,24920011.682,0.160,-130955567.768636,0.095,2745.376,37.0,272.230,18009ca4,7,0,20897297.305,0.032,-109815959.589391,0.031,134.482,51.0,349.890,08009cc4,8,0,20726002.235,0.030,-108915800.226634,0.031,-1002.690,51.5,352.850,08009ce4,27,0,22650687.633,0.080,-119030170.347016,0.053,-2620.918,43.1,316.560,08009d04,10,0,24626095.006,0.065,-129410930.769988,0.030,226.710,44.8,349.208,18009d24,11,0,20837715.285,0.038,-109502855.556775,0.055,1978.212,49.6,345.610,08009d44*6b57d329
#SATXYZ2A,USB1_1,0,64.5,FINESTEERING,2000,455697.000,00000000,7513,12778;10,GPS,1,-13660317.4757,22564515.4749,791522.3259,-14074.791,5.992,3.510,0.0,0.0,GPS,16,-26689774.5524,-699838.3877,2068813.5600,7543.267,9.764,8.088,0.0,0.0,GPS,30,5428997.9916,17379455.0538,19288143.0789,22613.135,6.712,3.983,0.0,0.0,GPS,18,-16606620.4960,18418784.4902,8791801.2833,2288.909,4.683,2.688,0.0,0.0,GPS,22,-21255465.6845,10316738.5849,-11883430.6168,-116215.298,12.073,17.303,0.0,0.0,GPS,7,-2277257.7044,22565302.7809,13651668.8653,58084.453,5.184,2.984,0.0,0.0,GPS,8,-11145736.6815,10446478.1372,21761897.7867,-30239.317,4.735,2.728,0.0,0.0,GPS,27,-17477175.6282,-3508896.8585,19699702.5009,110706.465,7.505,4.819,0.0,0.0,GPS,10,-17849678.1015,-11246372.8866,16273720.2499,55220.769,10.907,12.336,0.0,0.0,GPS,11,-9391832.3057,23001014.5348,9038555.8363,-220773.744,4.852,2.785,0.0,0.0*d37e993c
#BESTPOSA,USB1_1,0,64.5,FINESTEERING,2000,455697.000,00000000,7145,12778;SOL_COMPUTED,SINGLE,36.76834060055,126.93455791472,76.3707,23.3000,WGS84,0.9924,1.1189,2.1074,"",0.000,0.000,10,10,10,10,0,12,00,01*1e70f5d6
#BESTXYZA,USB1_1,0,64.5,FINESTEERING,2000,455697.000,00000000,bde7,12778;SOL_COMPUTED,SINGLE,-3073918.3699,4088936.1248,3796889.8695,1.7189,1.2208,1.4944,SOL_COMPUTED,SINGLE,0.0000,0.0000,0.0000,0.0011,0.0011,0.0011,"",0.150,0.000,0.000,10,10,10,10,0,12,00,01*9e8ad2c8
#RANGEA,USB1_1,0,66.0,FINESTEERING,2000,455698.000,00000000,5103,12778;10,1,0,21518196.634,0.048,-113078807.318465,0.038,2986.304,47.5,344.100,08009c04,16,0,24151383.749,0.528,-126916422.132457,0.080,-2748.297,37.7,13.870,08009c24,30,0,22088510.682,0.045,-116075914.459754,0.039,1813.042,48.0,316.500,08009c44,18,0,20330331.654,0.036,-106836537.015597,0.029,1647.618,50.1,336.890,08009c64,22,0,24919488.883,0.176,-130952820.445018,0.065,2748.388,36.3,273.230,18009ca4,7,0,20897271.559,0.032,-109815824.269463,0.030,136.290,50.9,350.890,08009cc4,8,0,20726192.882,0.031,-108916802.048045,0.030,-1000.699,51.4,353.850,08009ce4,27,0,22651186.076,0.082,-119032789.892514,0.041,-2618.180,42.9,317.560,08009d04,10,0,24626051.640,0.065,-129410702.836928,0.031,228.940,44.8,350.208,18009d24,11,0,20837338.657,0.039,-109500876.382304,0.041,1980.178,49.4,346.610,08009d44*4e02d7c1
#SATXYZ2A,USB1_1,0,66.0,FINESTEERING,2000,455698.000,00000000,7513,12778;10,GPS,1,-13660496.8129,22564274.5456,794738.3742,-14074.793,5.991,3.510,0.0,0.0,GPS,16,-26690038.9847,-700022.6130,2065623.2041,7543.267,9.764,8.090,0.0,0.0,GPS,30,5427538.9452,17381440.2664,19286748.5014,22613.133,6.712,3.983,0.0,0.0,GPS,18,-16606355.5198,18417584.7336,8794685.2503,2288.910,4.683,2.688,0.0,0.0,GPS,22,-21257038.7932,10316502.7216,-11880873.2198,-116215.302,12.072,17.293,0.0,0.0,GPS,7,-2278350.3766,22566650.2593,13649175.9366,58084.451,5.184,2.984,0.0,0.0,GPS,8,-11147184.0989,10444138.7631,21762294.8859,-30239.317,4.735,2.729,0.0,0.0,GPS,27,-17478368.7179,-3511101.2589,19698282.1463,110706.465,7.506,4.820,0.0,0.0,GPS,10,-17847627.1528,-11246565.1158,16275826.9650,55220.770,10.906,12.335,0.0,0.0,GPS,11,-9392120.3637,22999749.4937,9041291.2779,-220773.744,4.852,2.785,0.0,0.0*733525a1
#BESTPOSA,USB1_1,0,66.0,FINESTEERING,2000,455698.000,00000000,7145,12778;SOL_COMPUTED,SINGLE,36.76834060055,126.93455791472,76.3707,23.3000,WGS84,0.9925,1.1189,2.1074,"",0.000,0.000,10,10,10,10,0,12,00,01*62a75662
#BESTXYZA,USB1_1,0,66.0,FINESTEERING,2000,455698.000,00000000,bde7,12778;SOL_COMPUTED,SINGLE,-3073918.3699,4088936.1248,3796889.8695,1.7189,1.2208,1.4944,SOL_COMPUTED,SINGLE,0.0000,0.0000,0.0000,0.0011,0.0011,0.0011,"",0.150,0.000,0.000,10,10,10,10,0,12,00,01*270cdce7
#RANGEA,USB1_1,0,65.0,FINESTEERING,2000,455699.000,00000000,5103,12778;10,1,0,21517628.726,0.047,-113075822.967488,0.034,2984.556,47.6,345.100,08009c04,16,0,24151907.282,0.480,-126919172.629851,0.058,-2750.585,37.9,14.870,08009c24,30,0,22088166.039,0.045,-116074103.394298,0.034,1811.182,48.1,317.500,08009c44,18,0,20330018.522,0.035,-106834891.504126,0.030,1645.655,50.2,337.890,08009c64,22,0,24918966.144,0.164,-130950073.491383,0.051,2746.625,36.9,274.230,18009ca4,7,0,20897246.025,0.032,-109815690.083735,0.030,134.274,51.0,351.890,08009cc4,8,0,20726383.657,0.030,-108917804.552012,0.030,-1002.123,51.5,354.850,08009ce4,27,0,22651684.618,0.082,-119035409.943448,0.036,-2619.739,42.9,318.560,08009d04,10,0,24626008.460,0.065,-129410475.891360,0.032,226.923,44.8,351.208,18009d24,11,0,20836962.211,0.038,-109498898.167003,0.035,1978.283,49.4,347.610,08009d44*a39d64e7
#SATXYZ2A,USB1_1,0,65.0,FINESTEERING,2000,455699.000,00000000,7513,12778;10,GPS,1,-13660675.9615,22564033.2729,797954.4053,-14074.794,5.991,3.509,0.0,0.0,GPS,16,-26690303.0317,-700206.7890,2062432.8054,7543.268,9.765,8.092,0.0,0.0,GPS,30,5426080.1013,17383425.4131,19285353.5120,22613.132,6.711,3.982,0.0,0.0,GPS,18,-16606090.4435,18416384.6334,8797569.0249,2288.910,4.683,2.687,0.0,0.0,GPS,22,-21258611.5913,10316266.9201,-11878315.5668,-116215.306,12.071,17.282,0.0,0.0,GPS,7,-2279442.8154,22567997.5322,13646682.7145,58084.449,5.184,2.984,0.0,0.0,GPS,8,-11148631.6804,10441799.4342,21762691.5237,-30239.317,4.735,2.729,0.0,0.0,GPS,27,-17479561.8505,-3513305.4293,19696861.3731,110706.464,7.506,4.821,0.0,0.0,GPS,10,-17845575.9510,-11246757.4669,16277933.3370,55220.771,10.906,12.335,0.0,0.0,GPS,11,-9392408.4536,22998484.1209,9044026.5244,-220773.744,4.852,2.784,0.0,0.0*c8b33521
#BESTPOSA,USB1_1,0,65.0,FINESTEERING,2000,455699.000,00000000,7145,12778;SOL_COMPUTED,SINGLE,36.76834064378,126.93455788188,76.3676,23.3000,WGS84,0.9885,1.1146,2.1000,"",0.000,0.000,10,10,10,10,0,12,00,01*cc479ced
#BESTXYZA,USB1_1,0,65.0,FINESTEERING,2000,455699.000,00000000,bde7,12778;SOL_COMPUTED,SINGLE,-3073918.3644,4088936.1223,3796889.8715,1.7132,1.2159,1.4886,SOL_COMPUTED,SINGLE,0.0000,0.0000,0.0000,0.0011,0.0011,0.0011,"",0.150,0.000,0.000,10,10,10,10,0,12,00,01*a6981a96
#RANGEA,USB1_1,0,65.0,FINESTEERING,2000,455700.000,00000000,5103,12778;10,1,0,21517061.419,0.048,-113072841.738446,0.032,2980.230,47.5,346.100,08009c04,16,0,24152431.425,0.463,-126921925.941026,0.101,-2753.943,37.6,15.870,08009c24,30,0,22087822.004,0.045,-116072295.526502,0.031,1807.000,48.1,318.500,08009c44,18,0,20329706.005,0.035,-106833249.260642,0.028,1641.335,50.2,338.890,08009c64,22,0,24918443.901,0.168,-130947329.011853,0.097,2743.469,36.6,275.230,18009ca4,7,0,20897221.127,0.032,-109815559.221198,0.028,130.085,51.1,352.890,08009cc4,8,0,20726574.989,0.030,-108918809.964232,0.029,-1005.930,51.5,355.850,08009ce4,27,0,22652183.685,0.087,-119038032.719939,0.032,-2623.600,42.4,319.560,08009d04,10,0,24625965.876,0.067,-129410252.127311,0.030,222.839,44.6,352.208,18009d24,11,0,20836586.354,0.039,-109496923.063651,0.031,1974.314,49.4,348.610,08009d44*c0633fa6
#SATXYZ2A,USB1_1,0,65.0,FINESTEERING,2000,455700.000,00000000,7513,12778;10,GPS,1,-13660854.9217,22563791.6568,801170.4191,-14074.796,5.990,3.509,0.0,0.0,GPS,16,-26690566.6935,-700390.9157,2059242.3639,7543.268,9.766,8.095,0.0,0.0,GPS,30,5424621.4599,17385410.4936,19283958.1106,22613.130,6.711,3.982,0.0,0.0,GPS,18,-16605825.2672,18415184.1893,8800452.6068,2288.910,4.682,2.687,0.0,0.0,GPS,22,-21260184.0786,10316031.1806,-11875757.6577,-116215.311,12.069,17.272,0.0,0.0,GPS,7,-2280535.0209,22569344.5995,13644189.1992,58084.447,5.184,2.984,0.0,0.0,GPS,8,-11150079.4260,10439460.1506,21763087.7000,-30239.318,4.735,2.729,0.0,0.0,GPS,27,-17480755.0261,-3515509.3696,19695440.1811,110706.464,7.507,4.822,0.0,0.0,GPS,10,-17843524.4962,-11246949.9401,16280039.3659,55220.771,10.906,12.334,0.0,0.0,GPS,11,-9392696.5754,22997218.4162,9046761.5758,-220773.744,4.851,2.784,0.0,0.0*788fc020
#BESTPOSA,USB1_1,0,65.0,FINESTEERING,2000,455700.000,00000000,7145,12778;SOL_COMPUTED,SINGLE,36.76834064378,126.93455788188,76.3676,23.3000,WGS84,0.9885,1.1146,2.1000,"",0.000,0.000,10,10,10,10,0,12,00,01*7219de2f
#BESTXYZA,USB1_1,0,65.0,FINESTEERING,2000,455700.000,00000000,bde7,12778;SOL_COMPUTED,SINGLE,-3073918.3644,4088936.1223,3796889.8715,1.7132,1.2159,1.4886,SOL_COMPUTED,SINGLE,0.0000,0.0000,0.0000,0.0011,0.0011,0.0011,"",0.150,0.000,0.000,10,10,10,10,0,12,00,01*b5ae4dd5
#RANGEA,USB1_1,0,66.5,FINESTEERING,2000,455701.000,00000000,5103,12778;10,1,0,21516493.160,0.047,-113069855.471009,0.033,2982.000,47.7,347.100,08009c04,16,0,24152954.473,0.450,-126924673.946254,0.068,-2751.451,37.3,16.870,08009c24,30,0,22087477.044,0.046,-116070482.774060,0.030,1808.421,47.9,319.500,08009c44,18,0,20329392.574,0.035,-106831602.214118,0.029,1642.570,50.2,339.890,08009c64,22,0,24917920.600,0.153,-130944579.009545,0.071,2747.084,37.4,276.230,18009ca4,7,0,20897195.317,0.032,-109815423.598741,0.029,131.066,51.1,353.890,08009cc4,8,0,20726765.329,0.030,-108919810.191499,0.029,-1004.644,51.5,356.850,08009ce4,27,0,22652681.717,0.088,-119040650.073462,0.031,-2621.482,42.3,320.560,08009d04,10,0,24625922.359,0.065,-129410023.460484,0.030,224.435,44.8,353.208,18009d24,11,0,20836209.566,0.038,-109494943.016738,0.030,1975.602,49.6,349.610,08009d44*297f1106
#SATXYZ2A,USB1_1,0,66.5,FINESTEERING,2000,455701.000,00000000,7513,12778;10,GPS,1,-13661033.6934,22563549.6974,804386.4155,-14074.797,5.989,3.508,0.0,0.0,GPS,16,-26690829.9699,-700574.9932,2056051.8796,7543.269,9.767,8.097,0.0,0.0,GPS,30,5423163.0209,17387395.5081,19282562.2972,22613.129,6.710,3.982,0.0,0.0,GPS,18,-16605559.9909,18413983.4016,8803335.9962,2288.911,4.682,2.687,0.0,0.0,GPS,22,-21261756.2553,10315795.5030,-11873199.4927,-116215.315,12.068,17.262,0.0,0.0,GPS,7,-2281626.9930,22570691.4611,13641695.3906,58084.445,5.184,2.984,0.0,0.0,GPS,8,-11151527.3357,10437120.9123,21763483.4147,-30239.318,4.735,2.729,0.0,0.0,GPS,27,-17481948.2446,-3517713.0800,19694018.5705,110706.464,7.508,4.822,0.0,0.0,GPS,10,-17841472.7883,-11247142.5353,16282145.0518,55220.772,10.905,12.334,0.0,0.0,GPS,11,-9392984.7292,22995952.3797,9049496.4321,-220773.745,4.851,2.784,0.0,0.0*33c449f4
#BESTPOSA,USB1_1,0,66.5,FINESTEERING,2000,455701.000,00000000,7145,12778;SOL_COMPUTED,SINGLE,36.76834064378,126.93455788188,76.3676,23.3000,WGS84,0.9885,1.1146,2.1000,"",0.000,0.000,10,10,10,10,0,12,00,01*40ed5836
#BESTXYZA,USB1_1,0,66.5,FINESTEERING,2000,455701.000,00000000,bde7,12778;SOL_COMPUTED,SINGLE,-3073918.3644,4088936.1223,3796889.8715,1.7132,1.2159,1.4886,SOL_COMPUTED,SINGLE,0.0000,-5.6583e-10,0.0000,0.0011,0.0011,0.0011,"",0.150,0.000,0.000,10,10,10,10,0,12,00,01*9eca5e4a
#RANGEA,USB1_1,0,64.5,FINESTEERING,2000,455702.000,00000000,5103,12778;10,1,0,21515925.361,0.047,-113066871.614055,0.032,2983.484,47.7,348.100,08009c04,16,0,24153477.942,0.497,-126927424.117267,0.078,-2750.143,36.0,17.870,08009c24,30,0,22087132.567,0.045,-116068672.541753,0.029,1809.639,48.0,320.500,08009c44,18,0,20329079.649,0.035,-106829957.804795,0.029,1643.634,50.1,340.890,08009c64,22,0,24917397.626,0.161,-130941830.888410,0.098,2748.209,37.0,277.230,18009ca4,7,0,20897170.008,0.032,-109815290.608182,0.028,132.074,51.1,354.890,08009cc4,8,0,20726956.090,0.031,-108920812.629390,0.029,-1003.246,51.4,357.850,08009ce4,27,0,22653180.157,0.089,-119043269.474446,0.070,-2619.423,42.1,321.560,08009d04,10,0,24625879.331,0.067,-129409797.281796,0.030,225.889,44.6,354.208,18009d24,11,0,20835833.241,0.037,-109492965.438126,0.030,1976.647,49.7,350.610,08009d44*fe442716
#SATXYZ2A,USB1_1,0,64.5,FINESTEERING,2000,455702.000,00000000,7513,12778;10,GPS,1,-13661212.2768,22563307.3945,807602.3944,-14074.799,5.988,3.508,0.0,0.0,GPS,16,-26691092.8612,-700759.0214,2052861.3527,7543.269,9.768,8.099,0.0,0.0,GPS,30,5421704.7845,17389380.4563,19281166.0720,22613.128,6.709,3.981,0.0,0.0,GPS,18,-16605294.6147,18412782.2701,8806219.1929,2288.911,4.682,2.687,0.0,0.0,GPS,22,-21263328.1213,10315559.8872,-11870641.0719,-116215.319,12.066,17.251,0.0,0.0,GPS,7,-2282718.7319,22572038.1169,13639201.2889,58084.442,5.184,2.984,0.0,0.0,GPS,8,-11152975.4093,10434781.7194,21763878.6680,-30239.318,4.735,2.729,0.0,0.0,GPS,27,-17483141.5058,-3519916.5603,19692596.5413,110706.464,7.509,4.823,0.0,0.0,GPS,10,-17839420.8274,-11247335.2525,16284250.3945,55220.773,10.905,12.333,0.0,0.0,GPS,11,-9393272.9149,22994686.0114,9052231.0930,-220773.745,4.851,2.784,0.0,0.0*d1b42418
#BESTPOSA,USB1_1,0,64.5,FINESTEERING,2000,455702.000,00000000,7145,12778;SOL_COMPUTED,SINGLE,36.76834069264,126.93455784071,76.3655,23.3000,WGS84,0.9845,1.1102,2.0925,"",0.000,0.000,10,10,10,10,0,12,00,01*75cdf5f4
#BESTXYZA,USB1_1,0,64.5,FINESTEERING,2000,455702.000,00000000,bde7,12778;SOL_COMPUTED,SINGLE,-3073918.3584,4088936.1205,3796889.8746,1.7074,1.2111,1.4827,SOL_COMPUTED,SINGLE,0.0000,0.0000,0.0000,0.0011,0.0011,0.0011,"",0.150,0.000,0.000,10,10,10,10,0,12,00,01*ea733822
#RANGEA,USB1_1,0,64.5,FINESTEERING,2000,455703.000,00000000,5103,12778;10,1,0,21515357.525,0.047,-113063887.613017,0.032,2984.438,47.6,349.100,08009c04,16,0,24154001.170,0.437,-126930173.802440,0.091,-2748.706,36.9,18.870,08009c24,30,0,22086788.077,0.045,-116066862.264588,0.029,1810.811,48.0,321.500,08009c44,18,0,20328766.732,0.035,-106828313.410138,0.029,1644.725,50.2,341.890,08009c64,22,0,24916874.504,0.153,-130939082.046964,0.066,2750.122,37.5,278.230,18009ca4,7,0,20897144.717,0.032,-109815157.689988,0.028,133.255,51.1,355.890,08009cc4,8,0,20727146.792,0.031,-108921814.702550,0.029,-1001.599,51.4,358.850,08009ce4,27,0,22653678.461,0.093,-119045888.330083,0.050,-2618.209,41.8,322.560,08009d04,10,0,24625836.293,0.065,-129409571.042794,0.030,226.896,44.8,355.208,18009d24,11,0,20835456.896,0.037,-109490987.709655,0.029,1978.200,49.7,351.610,08009d44*1cea383b
#SATXYZ2A,USB1_1,0,64.5,FINESTEERING,2000,455703.000,00000000,7513,12778;10,GPS,1,-13661390.6718,22563064.7482,810818.3558,-14074.800,5.987,3.507,0.0,0.0,GPS,16,-26691355.3671,-700943.0006,2049670.7831,7543.270,9.769,8.101,0.0,0.0,GPS,30,5420246.7506,17391365.3383,19279769.4349,22613.126,6.709,3.981,0.0,0.0,GPS,18,-16605029.1386,18411580.7949,8809102.1969,2288.912,4.681,2.687,0.0,0.0,GPS,22,-21264899.6766,10315324.3332,-11868082.3951,-116215.324,12.065,17.241,0.0,0.0,GPS,7,-2283810.2374,22573384.5670,13636706.8940,58084.440,5.184,2.984,0.0,0.0,GPS,8,-11154423.6470,10432442.5720,21764273.4597,-30239.318,4.735,2.729,0.0,0.0,GPS,27,-17484334.8098,-3522119.8105,19691174.0935,110706.464,7.509,4.824,0.0,0.0,GPS,10,-17837368.6137,-11247528.0919,16286355.3940,55220.774,10.905,12.333,0.0,0.0,GPS,11,-9393561.1326,22993419.3114,9054965.5587,-220773.745,4.850,2.784,0.0,0.0*66125bf2
#BESTPOSA,USB1_1,0,64.5,FINESTEERING,2000,455703.000,00000000,7145,12778;SOL_COMPUTED,SINGLE,36.76834069264,126.93455784071,76.3655,23.3000,WGS84,0.9845,1.1103,2.0925,"",0.000,0.000,10,10,10,10,0,12,00,01*7ba8b620
#BESTXYZA,USB1_1,0,64.5,FINESTEERING,2000,455703.000,00000000,bde7,12778;SOL_COMPUTED,SINGLE,-3073918.3584,4088936.1205,3796889.8746,1.7074,1.2111,1.4827,SOL_COMPUTED,SINGLE,0.0000,-5.9293e-10,0.0000,0.0011,0.0011,0.0011,"",0.150,0.000,0.000,10,10,10,10,0,12,00,01*a09649bb
#RANGEA,USB1_1,0,67.0,FINESTEERING,2000,455704.000,00000000,5103,12778;10,1,0,21514789.922,0.046,-113060904.785340,0.028,2984.258,47.8,350.100,08009c04,16,0,24154524.630,0.449,-126932924.365834,0.098,-2749.210,36.4,19.870,08009c24,30,0,22086443.830,0.045,-116065053.265639,0.026,1810.800,48.0,322.500,08009c44,18,0,20328454.074,0.035,-106826670.395512,0.025,1644.920,50.2,342.890,08009c64,22,0,24916351.552,0.145,-130936333.842734,0.047,2750.085,37.9,279.230,18009ca4,7,0,20897119.693,0.032,-109815026.190270,0.025,133.341,51.1,356.890,08009cc4,8,0,20727337.670,0.030,-108922817.745288,0.025,-1000.947,51.5,359.850,08009ce4,27,0,22654176.943,0.095,-119048507.958682,0.037,-2617.387,41.6,323.560,08009d04,10,0,24625793.484,0.065,-129409346.064849,0.027,226.656,44.9,356.208,18009d24,11,0,20835080.781,0.037,-109489011.230212,0.025,1978.327,49.8,352.610,08009d44*c94e9a14
#SATXYZ2A,USB1_1,0,67.0,FINESTEERING,2000,455704.000,00000000,7513,12778;10,GPS,1,-13661568.8785,22562821.7584,814034.2997,-14074.802,5.986,3.507,0.0,0.0,GPS,16,-26691617.4877,-701126.9307,2046480.1709,7543.270,9.769,8.103,0.0,0.0,GPS,30,5418788.9193,17393350.1540,19278372.3860,22613.125,6.708,3.980,0.0,0.0,GPS,18,-16604763.5627,18410378.9760,8811985.0080,2288.912,4.681,2.687,0.0,0.0,GPS,22,-21266470.9210,10315088.8409,-11865523.4626,-116215.328,12.064,17.231,0.0,0.0,GPS,7,-2284901.5097,22574730.8112,13634212.2060,58084.438,5.184,2.984,0.0,0.0,GPS,8,-11155872.0486,10430103.4701,21764667.7900,-30239.319,4.735,2.729,0.0,0.0,GPS,27,-17485528.1566,-3524322.8305,19689751.2272,110706.464,7.510,4.825,0.0,0.0,GPS,10,-17835316.1471,-11247721.0534,16288460.0503,55220.775,10.904,12.332,0.0,0.0,GPS,11,-9393849.3824,22992152.2796,9057699.8289,-220773.745,4.850,2.783,0.0,0.0*8d13e587
#BESTPOSA,USB1_1,0,67.0,FINESTEERING,2000,455704.000,00000000,7145,12778;SOL_COMPUTED,SINGLE,36.76834074222,126.93455780071,76.3633,23.3000,WGS84,0.9806,1.1059,2.0850,"",0.000,0.000,10,10,10,10,0,12,00,01*63b5e481
#BESTXYZA,USB1_1,0,67.0,FINESTEERING,2000,455704.000,00000000,bde7,12778;SOL_COMPUTED,SINGLE,-3073918.3525,4088936.1186,3796889.8776,1.7017,1.2062,1.4769,SOL_COMPUTED,SINGLE,0.0000,0.0000,0.0000,0.0011,0.0011,0.0011,"",0.150,0.000,0.000,10,10,10,10,0,12,00,01*45bcb4c6
#RANGEA,USB1_1,0,69.0,FINESTEERING,2000,455705.000,00000000,5103,12778;10,1,0,21514222.281,0.047,-113057921.757438,0.033,2983.416,47.8,351.100,08009c04,16,0,24155047.993,0.465,-126935674.460927,0.135,-2749.259,35.8,20.870,08009c24,30,0,22086099.582,0.045,-116063244.231650,0.032,1809.338,48.0,323.500,08009c44,18,0,20328141.418,0.035,-106825027.402364,0.031,1642.861,50.2,343.890,08009c64,22,0,24915828.432,0.156,-130933584.936118,0.109,2749.445,37.3,280.230,18009ca4,7,0,20897094.676,0.032,-109814894.749553,0.031,131.272,51.0,357.890,08009cc4,8,0,20727528.478,0.030,-108923820.428815,0.031,-1002.773,51.5,360.850,08009ce4,27,0,22654675.331,0.097,-119051127.051551,0.037,-2618.126,41.4,324.560,08009d04,10,0,24625750.659,0.063,-129409121.019919,0.110,225.403,45.1,357.208,18009d24,11,0,20834704.646,0.037,-109487034.618527,0.032,1976.869,49.8,353.610,08009d44*1278b788
#SATXYZ2A,USB1_1,0,69.0,FINESTEERING,2000,455705.000,00000000,7513,12778;10,GPS,1,-13661746.8970,22562578.4251,817250.2258,-14074.803,5.985,3.506,0.0,0.0,GPS,16,-26691879.2230,-701310.8117,2043289.5163,7543.271,9.770,8.106,0.0,0.0,GPS,30,5417331.2905,17395334.9034,19276974.9253,22613.123,6.708,3.980,0.0,0.0,GPS,18,-16604497.8870,18409176.8134,8814867.6263,2288.913,4.681,2.686,0.0,0.0,GPS,22,-21268041.8546,10314853.4104,-11862964.2744,-116215.332,12.062,17.221,0.0,0.0,GPS,7,-2285992.5486,22576076.8496,13631717.2250,58084.436,5.184,2.984,0.0,0.0,GPS,8,-11157320.6142,10427764.4137,21765061.6586,-30239.319,4.735,2.729,0.0,0.0,GPS,27,-17486721.5460,-3526525.6203,19688327.9423,110706.463,7.511,4.826,0.0,0.0,GPS,10,-17833263.4276,-11247914.1370,16290564.3633,55220.776,10.904,12.332,0.0,0.0,GPS,11,-9394137.6643,22990884.9162,9060433.9037,-220773.746,4.850,2.783,0.0,0.0*1c05df7a
#BESTPOSA,USB1_1,0,69.0,FINESTEERING,2000,455705.000,00000000,7145,12778;SOL_COMPUTED,SINGLE,36.76834074222,126.93455780071,76.3633,23.3000,WGS84,0.9806,1.1059,2.0850,"",0.000,0.000,10,10,10,10,0,12,00,01*81316037
#BESTXYZA,USB1_1,0,69.0,FINESTEERING,2000,455705.000,00000000,bde7,12778;SOL_COMPUTED,SINGLE,-3073918.3525,4088936.1186,3796889.8776,1.7017,1.2062,1.4769,SOL_COMPUTED,SINGLE,0.0000,0.0000,0.0000,0.0011,0.0011,0.0011,"",0.150,0.000,0.000,10,10,10,10,0,12,00,01*d4b0020e
#RANGEA,USB1_1,0,69.0,FINESTEERING,2000,455706.000,00000000,5103,12778;10,1,0,21513654.716,0.047,-113054939.144313,0.029,2983.522,47.7,352.100,08009c04,16,0,24155571.342,0.448,-126938424.796204,0.073,-2749.955,35.9,21.870,08009c24,30,0,22085755.428,0.044,-116061435.683888,0.028,1809.429,48.2,324.500,08009c44,18,0,20327828.868,0.035,-106823384.979737,0.027,1643.304,50.3,344.890,08009c64,22,0,24915305.271,0.142,-130930835.826207,0.078,2750.214,38.1,281.230,18009ca4,7,0,20897069.784,0.032,-109814763.926373,0.028,131.475,51.0,358.890,08009cc4,8,0,20727719.335,0.030,-108924823.320533,0.028,-1001.881,51.5,361.850,08009ce4,27,0,22655173.690,0.099,-119053746.139193,0.033,-2618.247,41.2,325.560,08009d04,10,0,24625707.920,0.062,-129408896.419284,0.070,225.589,45.3,358.208,18009d24,11,0,20834328.587,0.037,-109485058.414805,0.029,1976.986,49.8,354.610,08009d44*626ea3b3
#SATXYZ2A,USB1_1,0,69.0,FINESTEERING,2000,455706.000,00000000,7513,12778;10,GPS,1,-13661924.7273,22562334.7483,820466.1343,-14074.805,5.985,3.506,0.0,0.0,GPS,16,-26692140.5730,-701494.6438,2040098.8193,7543.271,9.771,8.108,0.0,0.0,GPS,30,5415873.8643,17397319.5863,19275577.0529,22613.122,6.707,3.980,0.0,0.0,GPS,18,-16604232.1116,18407974.3070,8817750.0516,2288.913,4.681,2.686,0.0,0.0,GPS,22,-21269612.4774,10314618.0415,-11860404.8305,-116215.337,12.061,17.210,0.0,0.0,GPS,7,-2287083.3544,22577422.6819,13629221.9510,58084.434,5.184,2.984,0.0,0.0,GPS,8,-11158769.3437,10425425.4030,21765455.0658,-30239.319,4.735,2.729,0.0,0.0,GPS,27,-17487914.9779,-3528728.1799,19686904.2390,110706.463,7.511,4.826,0.0,0.0,GPS,10,-17831210.4554,-11248107.3429,16292668.3330,55220.777,10.904,12.332,0.0,0.0,GPS,11,-9394425.9784,22989617.2210,9063167.7831,-220773.746,4.849,2.783,0.0,0.0*26044cc7
#BESTPOSA,USB1_1,0,69.0,FINESTEERING,2000,455706.000,00000000,7145,12778;SOL_COMPUTED,SINGLE,36.76834074222,126.93455780071,76.3633,23.3000,WGS84,0.9806,1.1060,2.0850,"",0.000,0.000,10,10,10,10,0,12,00,01*9f285ed8
#BESTXYZA,USB1_1,0,69.0,FINESTEERING,2000,455706.000,00000000,bde7,12778;SOL_COMPUTED,SINGLE,-3073918.3525,4088936.1186,3796889.8776,1.7017,1.2062,1.4770,SOL_COMPUTED,SINGLE,0.0000,-2.5642e-10,0.0000,0.0011,0.0011,0.0011,"",0.150,0.000,0.000,10,10,10,10,0,12,00,01*015138a5
#RANGEA,USB1_1,0,66.5,FINESTEERING,2000,455707.000,00000000,5103,12778;10,1,0,21513087.098,0.046,-113051956.302144,0.026,2983.406,47.8,353.100,08009c04,16,0,24156094.602,0.477,-126941174.443671,0.080,-2749.280,35.2,22.870,08009c24,30,0,22085411.247,0.045,-116059627.035527,0.025,1809.252,48.1,325.500,08009c44,18,0,20327516.321,0.035,-106821742.540112,0.024,1643.019,50.3,345.890,08009c64,22,0,24914781.967,0.146,-130928085.964278,0.081,2750.573,37.8,282.230,18009ca4,7,0,20897044.890,0.032,-109814633.125983,0.024,131.448,50.9,359.890,08009cc4,8,0,20727910.107,0.030,-108925825.794919,0.025,-1001.734,51.6,362.850,08009ce4,27,0,22655671.943,0.095,-119056364.608275,0.029,-2617.565,41.6,326.560,08009d04,10,0,24625665.172,0.062,-129408671.696528,0.046,225.581,45.2,359.208,18009d24,11,0,20833952.494,0.037,-109483082.051198,0.027,1977.198,49.8,355.610,08009d44*333e3e44
#SATXYZ2A,USB1_1,0,66.5,FINESTEERING,2000,455707.000,00000000,7513,12778;10,GPS,1,-13662102.3694,22562090.7280,823682.0249,-14074.806,5.984,3.505,0.0,0.0,GPS,16,-26692401.5377,-701678.4269,2036908.0799,7543.272,9.772,8.110,0.0,0.0,GPS,30,5414416.6406,17399304.2026,19274178.7686,22613.121,6.706,3.979,0.0,0.0,GPS,18,-16603966.2365,18406771.4570,8820632.2840,2288.914,4.680,2.686,0.0,0.0,GPS,22,-21271182.7893,10314382.7343,-11857845.1310,-116215.341,12.059,17.200,0.0,0.0,GPS,7,-2288173.9268,22578768.3082,13626726.3841,58084.431,5.184,2.984,0.0,0.0,GPS,8,-11160218.2370,10423086.4380,21765848.0114,-30239.320,4.735,2.729,0.0,0.0,GPS,27,-17489108.4525,-3530930.5092,19685480.1172,110706.463,7.512,4.827,0.0,0.0,GPS,10,-17829157.2305,-11248300.6709,16294771.9593,55220.778,10.904,12.331,0.0,0.0,GPS,11,-9394714.3247,22988349.1942,9065901.4668,-220773.746,4.849,2.783,0.0,0.0*8016e6d5
#BESTPOSA,USB1_1,0,66.5,FINESTEERING,2000,455707.000,00000000,7145,12778;SOL_COMPUTED,SINGLE,36.76834079164,126.93455776231,76.3610,23.3000,WGS84,0.9767,1.1017,2.0776,"",0.000,0.000,10,10,10,10,0,12,00,01*05c4a438
#BESTXYZA,USB1_1,0,66.5,FINESTEERING,2000,455707.000,00000000,bde7,12778;SOL_COMPUTED,SINGLE,-3073918.3467,4088936.1166,3796889.8807,1.6960,1.2014,1.4712,SOL_COMPUTED,SINGLE,0.0000,0.0000,0.0000,0.0011,0.0011,0.0011,"",0.150,0.000,0.000,10,10,10,10,0,12,00,01*18c1e43e
#RANGEA,USB1_1,0,65.0,FINESTEERING,2000,455708.000,00000000,5103,12778;10,1,0,21512519.473,0.047,-113048973.407506,0.026,2984.046,47.8,354.100,08009c04,16,0,24156617.858,0.459,-126943923.781827,0.102,-2747.596,35.4,23.870,08009c24,30,0,22085067.084,0.045,-116057818.439877,0.023,1809.776,48.0,326.500,08009c44,18,0,20327203.803,0.035,-106820100.245814,0.023,1643.474,50.3,346.890,08009c64,22,0,24914258.561,0.148,-130925335.507583,0.055,2751.704,37.7,283.230,18009ca4,7,0,20897020.026,0.033,-109814502.490407,0.023,131.746,50.8,360.890,08009cc4,8,0,20728100.831,0.030,-108926828.032710,0.024,-1000.866,51.5,363.850,08009ce4,27,0,22656170.111,0.095,-119058982.631032,0.028,-2616.671,41.6,327.560,08009d04,10,0,24625622.417,0.062,-129408447.028174,0.034,226.097,45.3,360.208,18009d24,11,0,20833576.397,0.037,-109481105.668311,0.024,1977.573,49.8,356.610,08009d44*14f2b7e8
#SATXYZ2A,USB1_1,0,65.0,FINESTEERING,2000,455708.000,00000000,7513,12778;10,GPS,1,-13662279.8234,22561846.3641,826897.8977,-14074.808,5.983,3.505,0.0,0.0,GPS,16,-26692662.1170,-701862.1612,2033717.2982,7543.272,9.773,8.112,0.0,0.0,GPS,30,5412959.6196,17401288.7525,19272780.0727,22613.119,6.706,3.979,0.0,0.0,GPS,18,-16603700.2619,18405568.2632,8823514.3233,2288.914,4.680,2.686,0.0,0.0,GPS,22,-21272752.7903,10314147.4886,-11855285.1759,-116215.345,12.058,17.190,0.0,0.0,GPS,7,-2289264.2661,22580113.7285,13624230.5244,58084.429,5.184,2.984,0.0,0.0,GPS,8,-11161667.2943,10420747.5188,21766240.4954,-30239.320,4.736,2.730,0.0,0.0,GPS,27,-17490301.9696,-3533132.6081,19684055.5769,110706.463,7.513,4.828,0.0,0.0,GPS,10,-17827103.7529,-11248494.1213,16296875.2422,55220.779,10.903,12.331,0.0,0.0,GPS,11,-9395002.7031,22987080.8358,9068634.9550,-220773.747,4.848,2.783,0.0,0.0*784b12d8
#BESTPOSA,USB1_1,0,65.0,FINESTEERING,2000,455708.000,00000000,7145,12778;SOL_COMPUTED,SINGLE,36.76834079164,126.93455776231,76.3610,23.3000,WGS84,0.9767,1.1017,2.0776,"",0.000,0.000,10,10,10,10,0,12,00,01*f22f3b48
#BESTXYZA,USB1_1,0,65.0,FINESTEERING,2000,455708.000,00000000,bde7,12778;SOL_COMPUTED,SINGLE,-3073918.3467,4088936.1166,3796889.8807,1.6960,1.2014,1.4712,SOL_COMPUTED,SINGLE,0.0000,-7.5454e-10,0.0000,0.0011,0.0011,0.0011,"",0.150,0.000,0.000,10,10,10,10,0,12,00,01*3b801024
#RANGEA,USB1_1,0,65.0,FINESTEERING,2000,455709.000,00000000,5103,12778;10,1,0,21511951.913,0.045,-113045990.884477,0.027,2982.534,48.0,355.100,08009c04,16,0,24157141.316,0.452,-126946673.248094,0.095,-2748.980,35.3,24.870,08009c24,30,0,22084723.010,0.045,-116056010.344436,0.025,1808.010,48.0,327.500,08009c44,18,0,20326891.380,0.035,-106818458.497992,0.023,1641.460,50.2,347.890,08009c64,22,0,24913735.109,0.144,-130922584.891908,0.042,2750.353,37.9,284.230,18009ca4,7,0,20896995.280,0.033,-109814372.482539,0.024,129.757,50.9,361.890,08009cc4,8,0,20728291.591,0.030,-108927830.452971,0.024,-1002.377,51.5,364.850,08009ce4,27,0,22656668.280,0.098,-119061600.629592,0.028,-2617.711,41.3,328.560,08009d04,10,0,24625579.765,0.063,-129408222.825593,0.029,224.213,45.1,361.208,18009d24,11,0,20833200.381,0.037,-109479129.706960,0.024,1975.892,49.8,357.610,08009d44*7b154c0e
#SATXYZ2A,USB1_1,0,65.0,FINESTEERING,2000,455709.000,00000000,7513,12778;10,GPS,1,-13662457.0894,22561601.6567,830113.7525,-14074.809,5.982,3.504,0.0,0.0,GPS,16,-26692922.3110,-702045.8467,2030526.4742,7543.273,9.774,8.115,0.0,0.0,GPS,30,5411502.8012,17403273.2357,19271380.9651,22613.118,6.705,3.978,0.0,0.0,GPS,18,-16603434.1877,18404364.7258,8826396.1694,2288.915,4.680,2.686,0.0,0.0,GPS,22,-21274322.4803,10313912.3045,-11852724.9653,-116215.350,12.056,17.180,0.0,0.0,GPS,7,-2290354.3721,22581458.9425,13621734.3718,58084.427,5.184,2.984,0.0,0.0,GPS,8,-11163116.5153,10418408.6453,21766632.5179,-30239.320,4.736,2.730,0.0,0.0,GPS,27,-17491495.5291,-3535334.4768,19682630.6183,110706.463,7.513,4.829,0.0,0.0,GPS,10,-17825050.0227,-11248687.6939,16298978.1816,55220.780,10.903,12.331,0.0,0.0,GPS,11,-9395291.1139,22985812.1457,9071368.2474,-220773.747,4.848,2.782,0.0,0.0*bb6989f2
#BESTPOSA,USB1_1,0,65.0,FINESTEERING,2000,455709.000,00000000,7145,12778;SOL_COMPUTED,SINGLE,36.76834084326,126.93455771829,76.3592,23.3000,WGS84,0.9728,1.0974,2.0703,"",0.000,0.000,10,10,10,10,0,12,00,01*a1828d83
#BESTXYZA,USB1_1,0,65.0,FINESTEERING,2000,455709.000,00000000,bde7,12778;SOL_COMPUTED,SINGLE,-3073918.3406,4088936.1150,3796889.8842,1.6903,1.1967,1.4655,SOL_COMPUTED,SINGLE,0.0000,0.0000,0.0000,0.0011,0.0011,0.0011,"",0.150,0.000,0.000,10,10,10,10,0,12,00,01*b4631108
#RANGEA,USB1_1,0,65.5,FINESTEERING,2000,455710.000,00000000,5103,12778;10,1,0,21511384.779,0.046,-113043010.556094,0.027,2981.543,47.8,356.100,08009c04,16,0,24157665.021,0.446,-126949424.646022,0.097,-2749.891,35.3,25.870,08009c24,30,0,22084379.368,0.045,-116054204.531234,0.026,1807.322,48.0,328.500,08009c44,18,0,20326579.418,0.035,-106816819.140794,0.024,1640.808,50.2,348.890,08009c64,22,0,24913211.977,0.147,-130919835.889169,0.038,2749.597,37.8,285.230,18009ca4,7,0,20896971.000,0.033,-109814244.883134,0.024,129.138,50.9,362.890,08009cc4,8,0,20728482.728,0.031,-108928834.860520,0.025,-1002.673,51.4,365.850,08009ce4,27,0,22657166.798,0.099,-119064220.459435,0.075,-2618.098,41.2,329.560,08009d04,10,0,24625537.553,0.063,-129408000.904799,0.026,223.303,45.2,362.208,18009d24,11,0,20832824.791,0.036,-109477155.983388,0.026,1975.391,49.9,358.610,08009d44*c7f95965
#SATXYZ2A,USB1_1,0,65.5,FINESTEERING,2000,455710.000,00000000,7513,12778;10,GPS,1,-13662634.1673,22561356.6056,833329.5893,-14074.811,5.981,3.504,0.0,0.0,GPS,16,-26693182.1196,-702229.4834,2027335.6082,7543.273,9.774,8.117,0.0,0.0,GPS,30,5410046.1854,17405257.6522,19269981.4459,22613.116,6.705,3.978,0.0,0.0,GPS,18,-16603168.0140,18403160.8446,8829277.8224,2288.915,4.679,2.686,0.0,0.0,GPS,22,-21275891.8593,10313677.1820,-11850164.4993,-116215.354,12.055,17.170,0.0,0.0,GPS,7,-2291444.2449,22582803.9504,13619237.9265,58084.425,5.184,2.984,0.0,0.0,GPS,8,-11164565.9001,10416069.8178,21767024.0788,-30239.321,4.736,2.730,0.0,0.0,GPS,27,-17492689.1310,-3537536.1149,19681205.2413,110706.463,7.514,4.830,0.0,0.0,GPS,10,-17822996.0400,-11248881.3889,16301080.7776,55220.780,10.903,12.330,0.0,0.0,GPS,11,-9395579.5570,22984543.1241,9074101.3442,-220773.747,4.848,2.782,0.0,0.0*9f963ed8
#BESTPOSA,USB1_1,0,65.5,FINESTEERING,2000,455710.000,00000000,7145,12778;SOL_COMPUTED,SINGLE,36.76834084326,126.93455771828,76.3592,23.3000,WGS84,0.9728,1.0975,2.0703,"",0.000,0.000,10,10,10,10,0,12,00,01*33cf54d3
#BESTXYZA,USB1_1,0,65.5,FINESTEERING,2000,455710.000,00000000,bde7,12778;SOL_COMPUTED,SINGLE,-3073918.3406,4088936.1150,3796889.8842,1.6903,1.1967,1.4655,SOL_COMPUTED,SINGLE,0.0000,-8.3012e-10,0.0000,0.0011,0.0011,0.0011,"",0.150,0.000,0.000,10,10,10,10,0,12,00,01*710b8a40
#RANGEA,USB1_1,0,62.5,FINESTEERING,2000,455711.000,00000000,5103,12778;10,1,0,21510817.914,0.046,-113040031.656564,0.028,2980.177,47.9,357.100,08009c04,16,0,24158188.806,0.433,-126952177.171147,0.109,-2750.648,35.3,26.870,08009c24,30,0,22084036.034,0.044,-116052400.297229,0.027,1805.563,48.2,329.500,08009c44,18,0,20326267.770,0.035,-106815181.437104,0.027,1638.926,50.3,349.890,08009c64,22,0,24912689.014,0.145,-130917087.745843,0.034,2750.107,37.9,286.230,18009ca4,7,0,20896947.037,0.033,-109814118.971810,0.027,127.108,50.8,363.890,08009cc4,8,0,20728674.101,0.031,-108929840.527486,0.026,-1004.283,51.4,366.850,08009ce4,27,0,22657665.513,0.101,-119066841.350285,0.052,-2619.388,41.1,330.560,08009d04,10,0,24625495.635,0.062,-129407780.524341,0.028,221.567,45.3,363.208,18009d24,11,0,20832449.480,0.036,-109475183.741767,0.027,1973.544,49.9,359.610,08009d44*8331f7de
#SATXYZ2A,USB1_1,0,62.5,FINESTEERING,2000,455711.000,00000000,7513,12778;10,GPS,1,-13662811.0573,22561111.2109,836545.4081,-14074.812,5.980,3.503,0.0,0.0,GPS,16,-26693441.5429,-702413.0715,2024144.7000,7543.274,9.775,8.119,0.0,0.0,GPS,30,5408589.7722,17407242.0020,19268581.5150,22613.115,6.704,3.978,0.0,0.0,GPS,18,-16602901.7408,18401956.6198,8832159.2821,2288.916,4.679,2.685,0.0,0.0,GPS,22,-21277460.9274,10313442.1208,-11847603.7779,-116215.358,12.054,17.160,0.0,0.0,GPS,7,-2292533.8844,22584148.7521,13616741.1884,58084.423,5.184,2.984,0.0,0.0,GPS,8,-11166015.4487,10413731.0362,21767415.1782,-30239.321,4.736,2.730,0.0,0.0,GPS,27,-17493882.7752,-3539737.5227,19679779.4459,110706.462,7.515,4.830,0.0,0.0,GPS,10,-17820941.8047,-11249075.2063,16303183.0299,55220.781,10.902,12.330,0.0,0.0,GPS,11,-9395868.0324,22983273.7709,9076834.2451,-220773.747,4.847,2.782,0.0,0.0*4d432a58
#BESTPOSA,USB1_1,0,62.5,FINESTEERING,2000,455711.000,00000000,7145,12778;SOL_COMPUTED,SINGLE,36.76834084326,126.93455771828,76.3592,23.3000,WGS84,0.9728,1.0975,2.0703,"",0.000,0.000,10,10,10,10,0,12,00,01*e64f21cc
#BESTXYZA,USB1_1,0,62.5,FINESTEERING,2000,455711.000,00000000,bde7,12778;SOL_COMPUTED,SINGLE,-3073918.3406,4088936.1150,3796889.8842,1.6903,1.1967,1.4655,SOL_COMPUTED,SINGLE,0.0000,-2.1615e-10,0.0000,0.0011,0.0011,0.0011,"",0.150,0.000,0.000,10,10,10,10,0,12,00,01*f42a5a10
#RANGEA,USB1_1,0,62.5,FINESTEERING,2000,455712.000,00000000,5103,12778;10,1,0,21510250.805,0.046,-113037051.440595,0.028,2980.397,47.9,358.100,08009c04,16,0,24158712.479,0.389,-126954928.139792,0.075,-2751.324,36.1,27.870,08009c24,30,0,22083692.463,0.044,-116050594.863059,0.027,1805.569,48.3,330.500,08009c44,18,0,20325955.910,0.035,-106813542.625031,0.027,1638.912,50.3,350.890,08009c64,22,0,24912165.703,0.142,-130914337.773471,0.037,2750.418,38.0,287.230,18009ca4,7,0,20896922.873,0.033,-109813991.993844,0.027,126.985,50.8,364.890,08009cc4,8,0,20728865.197,0.030,-108930844.699967,0.026,-1003.901,51.6,367.850,08009ce4,27,0,22658163.921,0.099,-119069460.516147,0.039,-2618.755,41.2,331.560,08009d04,10,0,24625453.466,0.064,-129407558.892154,0.028,221.797,45.0,364.208,18009d24,11,0,20832073.934,0.036,-109473210.238530,0.027,1973.493,49.9,360.610,08009d44*83d1c423
#SATXYZ2A,USB1_1,0,62.5,FINESTEERING,2000,455712.000,00000000,7513,12778;10,GPS,1,-13662987.7593,22560865.4725,839761.2086,-14074.814,5.979,3.502,0.0,0.0,GPS,16,-26693700.5808,-702596.6108,2020953.7498,7543.274,9.776,8.121,0.0,0.0,GPS,30,5407133.5617,17409226.2850,19267181.1725,22613.114,6.703,3.977,0.0,0.0,GPS,18,-16602635.3682,18400752.0512,8835040.5485,2288.916,4.679,2.685,0.0,0.0,GPS,22,-21279029.6843,10313207.1211,-11845042.8011,-116215.363,12.052,17.150,0.0,0.0,GPS,7,-2293623.2908,22585493.3474,13614244.1577,58084.421,5.184,2.984,0.0,0.0,GPS,8,-11167465.1610,10411392.3006,21767805.8159,-30239.321,4.736,2.730,0.0,0.0,GPS,27,-17495076.4618,-3541938.7000,19678353.2323,110706.462,7.515,4.831,0.0,0.0,GPS,10,-17818887.3170,-11249269.1460,16305284.9387,55220.782,10.902,12.329,0.0,0.0,GPS,11,-9396156.5403,22982004.0861,9079566.9502,-220773.748,4.847,2.782,0.0,0.0*b8abfd85
#BESTPOSA,USB1_1,0,62.5,FINESTEERING,2000,455712.000,00000000,7145,12778;SOL_COMPUTED,SINGLE,36.76834089631,126.93455767062,76.3578,23.3000,WGS84,0.9690,1.0933,2.0630,"",0.000,0.000,10,10,10,10,0,12,00,01*80128cea
#BESTXYZA,USB1_1,0,62.5,FINESTEERING,2000,455712.000,00000000,bde7,12778;SOL_COMPUTED,SINGLE,-3073918.3344,4088936.1139,3796889.8880,1.6847,1.1919,1.4599,SOL_COMPUTED,SINGLE,0.0000,-4.8451e-10,0.0000,0.0011,0.0011,0.0011,"",0.150,0.000,0.000,10,10,10,10,0,12,00,01*4cbc4082
#RANGEA,USB1_1,0,65.5,FINESTEERING,2000,455713.000,00000000,5103,12778;10,1,0,21509683.880,0.046,-113034072.168708,0.026,2981.552,47.9,359.100,08009c04,16,0,24159236.178,0.400,-126957679.683953,0.055,-2749.473,35.7,28.870,08009c24,30,0,22083349.090,0.044,-116048790.472518,0.025,1806.687,48.3,331.500,08009c44,18,0,20325644.268,0.035,-106811904.962848,0.025,1639.815,50.3,351.890,08009c64,22,0,24911642.490,0.146,-130911588.234456,0.107,2751.973,37.9,288.230,18009ca4,7,0,20896898.931,0.033,-109813866.181842,0.025,127.883,50.8,365.890,08009cc4,8,0,20729056.426,0.031,-108931849.602113,0.024,-1002.581,51.4,368.850,08009ce4,27,0,22658662.433,0.099,-119072080.251601,0.032,-2617.350,41.2,332.560,08009d04,10,0,24625411.494,0.066,-129407338.302155,0.026,222.966,44.8,365.208,18009d24,11,0,20831698.574,0.037,-109471237.717103,0.025,1974.661,49.8,361.610,08009d44*b46567c6
#SATXYZ2A,USB1_1,0,65.5,FINESTEERING,2000,455713.000,00000000,7513,12778;10,GPS,1,-13663164.2735,22560619.3904,842976.9910,-14074.815,5.979,3.502,0.0,0.0,GPS,16,-26693959.2333,-702780.1016,2017762.7577,7543.275,9.777,8.123,0.0,0.0,GPS,30,5405677.5538,17411210.5011,19265780.4185,22613.112,6.703,3.977,0.0,0.0,GPS,18,-16602368.8963,18399547.1390,8837921.6215,2288.917,4.678,2.685,0.0,0.0,GPS,22,-21280598.1302,10312972.1828,-11842481.5691,-116215.367,12.051,17.139,0.0,0.0,GPS,7,-2294712.4641,22586837.7363,13611746.8343,58084.418,5.184,2.984,0.0,0.0,GPS,8,-11168915.0370,10409053.6111,21768195.9921,-30239.321,4.736,2.730,0.0,0.0,GPS,27,-17496270.1906,-3544139.6467,19676926.6004,110706.462,7.516,4.832,0.0,0.0,GPS,10,-17816832.5768,-11249463.2082,16307386.5039,55220.783,10.902,12.329,0.0,0.0,GPS,11,-9396445.0806,22980734.0698,9082299.4593,-220773.748,4.847,2.782,0.0,0.0*e8e141cb
#BESTPOSA,USB1_1,0,65.5,FINESTEERING,2000,455713.000,00000000,7145,12778;SOL_COMPUTED,SINGLE,36.76834089631,126.93455767062,76.3578,23.3000,WGS84,0.9690,1.0933,2.0630,"",0.000,0.000,10,10,10,10,0,12,00,01*5592f9f5
#BESTXYZA,USB1_1,0,65.5,FINESTEERING,2000,455713.000,00000000,bde7,12778;SOL_COMPUTED,SINGLE,-3073918.3344,4088936.1139,3796889.8880,1.6847,1.1920,1.4599,SOL_COMPUTED,SINGLE,0.0000,-8.6772e-11,0.0000,0.0011,0.0011,0.0011,"",0.150,0.000,0.000,10,10,10,10,0,12,00,01*bb310a76
#RANGEA,USB1_1,0,67.5,FINESTEERING,2000,455714.000,00000000,5103,12778;10,1,0,21509116.539,0.046,-113031090.769357,0.028,2982.019,47.8,360.100,08009c04,16,0,24159759.368,0.407,-126960428.836835,0.085,-2748.460,35.5,29.870,08009c24,30,0,22083005.346,0.043,-116046984.088284,0.027,1806.825,48.4,332.500,08009c44,18,0,20325332.261,0.034,-106810265.349170,0.026,1640.076,50.4,352.890,08009c64,22,0,24911118.761,0.149,-130908835.955439,0.087,2753.446,37.7,289.230,18009ca4,7,0,20896874.625,0.033,-109813738.480170,0.026,128.239,50.8,366.890,08009cc4,8,0,20729247.219,0.031,-108932852.204057,0.026,-1001.954,51.4,369.850,08009ce4,27,0,22659160.465,0.095,-119074697.471549,0.030,-2616.774,41.6,333.560,08009d04,10,0,24625369.149,0.066,-129407115.720849,0.027,222.837,44.8,366.208,18009d24,11,0,20831322.824,0.037,-109469263.121423,0.026,1975.081,49.9,362.610,08009d44*baab840a
#SATXYZ2A,USB1_1,0,67.5,FINESTEERING,2000,455714.000,00000000,7513,12778;10,GPS,1,-13663340.5998,22560372.9646,846192.7551,-14074.817,5.978,3.501,0.0,0.0,GPS,16,-26694217.5004,-702963.5439,2014571.7236,7543.275,9.778,8.126,0.0,0.0,GPS,30,5404221.7486,17413194.6503,19264379.2530,22613.111,6.702,3.976,0.0,0.0,GPS,18,-16602102.3251,18398341.8831,8840802.5011,2288.917,4.678,2.685,0.0,0.0,GPS,22,-21282166.2650,10312737.3059,-11839920.0819,-116215.371,12.049,17.129,0.0,0.0,GPS,7,-2295801.4041,22588181.9188,13609249.2184,58084.416,5.184,2.984,0.0,0.0,GPS,8,-11170365.0767,10406714.9678,21768585.7066,-30239.322,4.736,2.730,0.0,0.0,GPS,27,-17497463.9616,-3546340.3629,19675499.5502,110706.462,7.517,4.833,0.0,0.0,GPS,10,-17814777.5843,-11249657.3928,16309487.7254,55220.784,10.901,12.328,0.0,0.0,GPS,11,-9396733.6533,22979463.7219,9085031.7725,-220773.748,4.846,2.781,0.0,0.0*54a57e45
#BESTPOSA,USB1_1,0,67.5,FINESTEERING,2000,455714.000,00000000,7145,12778;SOL_COMPUTED,SINGLE,36.76834095137,126.93455761902,76.3568,23.3000,WGS84,0.9652,1.0891,2.0558,"",0.000,0.000,10,10,10,10,0,12,00,01*12b8b5a5
#BESTXYZA,USB1_1,0,67.5,FINESTEERING,2000,455714.000,00000000,bde7,12778;SOL_COMPUTED,SINGLE,-3073918.3281,4088936.1131,3796889.8924,1.6792,1.1873,1.4543,SOL_COMPUTED,SINGLE,0.0000,0.0000,0.0000,0.0011,0.0011,0.0011,"",0.150,0.000,0.000,10,10,10,10,0,12,00,01*83e690c3
#RANGEA,USB1_1,0,65.0,FINESTEERING,2000,455715.000,00000000,5103,12778;10,1,0,21508549.626,0.046,-113028111.585256,0.027,2979.471,47.8,361.100,08009c04,16,0,24160283.005,0.398,-126963179.999785,0.104,-2752.136,35.5,30.870,08009c24,30,0,22082662.041,0.041,-116045180.021296,0.025,1804.441,48.9,333.500,08009c44,18,0,20325020.711,0.034,-106808628.137294,0.025,1637.646,50.4,353.890,08009c64,22,0,24910595.331,0.145,-130906085.415790,0.060,2750.828,37.9,290.230,18009ca4,7,0,20896850.789,0.032,-109813613.237275,0.025,125.696,51.0,367.890,08009cc4,8,0,20729438.396,0.031,-108933856.831727,0.024,-1003.925,51.4,370.850,08009ce4,27,0,22659658.844,0.092,-119077316.528752,0.029,-2618.760,41.8,334.560,08009d04,10,0,24625327.234,0.063,-129406895.396001,0.026,220.462,45.1,367.208,18009d24,11,0,20830947.491,0.037,-109467290.776662,0.025,1972.852,49.8,363.610,08009d44*737c5ef3
#SATXYZ2A,USB1_1,0,65.0,FINESTEERING,2000,455715.000,00000000,7513,12778;10,GPS,1,-13663516.7384,22560126.1951,849408.5008,-14074.818,5.977,3.501,0.0,0.0,GPS,16,-26694475.3820,-703146.9376,2011380.6478,7543.276,9.779,8.128,0.0,0.0,GPS,30,5402766.1462,17415178.7324,19262977.6759,22613.109,6.702,3.976,0.0,0.0,GPS,18,-16601835.6547,18397136.2835,8843683.1872,2288.918,4.678,2.685,0.0,0.0,GPS,22,-21283734.0886,10312502.4902,-11837358.3395,-116215.375,12.048,17.119,0.0,0.0,GPS,7,-2296890.1110,22589525.8949,13606751.3101,58084.414,5.184,2.984,0.0,0.0,GPS,8,-11171815.2800,10404376.3706,21768974.9596,-30239.322,4.736,2.730,0.0,0.0,GPS,27,-17498657.7747,-3548540.8484,19674072.0818,110706.462,7.517,4.833,0.0,0.0,GPS,10,-17812722.3395,-11249851.7000,16311588.6031,55220.785,10.901,12.328,0.0,0.0,GPS,11,-9397022.2586,22978193.0426,9087763.8896,-220773.748,4.846,2.781,0.0,0.0*a0bd0c1a
#BESTPOSA,USB1_1,0,65.0,FINESTEERING,2000,455715.000,00000000,7145,12778;SOL_COMPUTED,SINGLE,36.76834117698,126.93455743701,76.3542,23.3000,WGS84,0.9851,1.1067,2.0803,"",0.000,0.000,10,10,10,10,0,02,00,01*319a8718
#BESTXYZA,USB1_1,0,65.0,FINESTEERING,2000,455715.000,00000000,bde7,12778;SOL_COMPUTED,SINGLE,-3073918.3048,4088936.1092,3796889.9108,1.6995,1.2057,1.4768,SOL_COMPUTED,SINGLE,-0.0017,-0.0013,0.0025,0.1915,0.1903,0.2000,"",0.150,0.000,0.000,10,10,10,10,0,02,00,01*f3d118fc
#RANGEA,USB1_1,0,65.0,FINESTEERING,2000,455716.000,00000000,5103,12778;10,1,0,21507983.218,0.045,-113025135.083354,0.030,2976.282,48.1,362.100,08009c04,16,0,24160807.068,0.421,-126965933.509126,0.122,-2753.642,34.9,31.870,08009c24,30,0,22082319.268,0.042,-116043378.743161,0.029,1800.868,48.8,334.500,08009c44,18,0,20324709.710,0.034,-106806993.813834,0.029,1633.722,50.4,354.890,08009c64,22,0,24910072.296,0.134,-130903336.965852,0.047,2748.202,38.6,291.230,18009ca4,7,0,20896827.506,0.032,-109813490.898084,0.029,121.926,51.0,368.890,08009cc4,8,0,20729630.045,0.030,-108934863.937476,0.029,-1007.362,51.5,371.850,08009ce4,27,0,22660157.653,0.094,-119079937.874629,0.031,-2621.808,41.7,335.560,08009d04,10,0,24625285.852,0.063,-129406677.868245,0.030,217.157,45.1,368.208,18009d24,11,0,20830572.686,0.036,-109465321.145743,0.030,1969.176,49.9,364.610,08009d44*70c0bdea
#SATXYZ2A,USB1_1,0,65.0,FINESTEERING,2000,455716.000,00000000,7513,12778;10,GPS,1,-13663692.6892,22559879.0819,852624.2281,-14074.820,5.976,3.500,0.0,0.0,GPS,16,-26694732.8783,-703330.2829,2008189.5301,7543.276,9.779,8.130,0.0,0.0,GPS,30,5401310.7464,17417162.7476,19261575.6874,22613.108,6.701,3.976,0.0,0.0,GPS,18,-16601568.8851,18395930.3402,8846563.6797,2288.918,4.678,2.685,0.0,0.0,GPS,22,-21285301.6010,10312267.7358,-11834796.3419,-116215.380,12.046,17.109,0.0,0.0,GPS,7,-2297978.5848,22590869.6643,13604253.1092,58084.412,5.184,2.984,0.0,0.0,GPS,8,-11173265.6469,10402037.8196,21769363.7509,-30239.322,4.736,2.730,0.0,0.0,GPS,27,-17499851.6300,-3550741.1033,19672644.1953,110706.461,7.518,4.834,0.0,0.0,GPS,10,-17810666.8424,-11250046.1297,16313689.1371,55220.786,10.901,12.328,0.0,0.0,GPS,11,-9397310.8965,22976922.0319,9090495.8106,-220773.749,4.845,2.781,0.0,0.0*4eaa1ad9
#BESTPOSA,USB1_1,0,65.0,FINESTEERING,2000,455716.000,00000000,7145,12778;SOL_COMPUTED,SINGLE,36.76834117579,126.93455743601,76.3539,23.3000,WGS84,0.9743,1.0951,2.0570,"",0.000,0.000,10,10,10,10,0,12,00,01*afcce023
#BESTXYZA,USB1_1,0,65.0,FINESTEERING,2000,455716.000,00000000,bde7,12778;SOL_COMPUTED,SINGLE,-3073918.3047,4088936.1092,3796889.9106,1.6813,1.1925,1.4597,SOL_COMPUTED,SINGLE,0.0000,0.0000,0.0000,0.0011,0.0011,0.0011,"",0.150,0.000,0.000,10,10,10,10,0,12,00,01*d88f51b0
#RANGEA,USB1_1,0,68.0,FINESTEERING,2000,455717.000,00000000,5103,12778;10,1,0,21507417.033,0.045,-113022159.754027,0.030,2975.570,48.1,363.100,08009c04,16,0,24161331.298,0.372,-126968687.847386,0.121,-2753.809,35.8,32.870,08009c24,30,0,22081976.740,0.041,-116041578.750382,0.029,1800.328,48.8,335.500,08009c44,18,0,20324398.968,0.034,-106805360.849330,0.029,1633.298,50.4,355.890,08009c64,22,0,24909549.410,0.141,-130900589.085997,0.040,2748.575,38.1,292.230,18009ca4,7,0,20896804.490,0.032,-109813369.969800,0.029,121.275,51.0,369.890,08009cc4,8,0,20729821.874,0.030,-108935872.010821,0.029,-1007.638,51.5,372.850,08009ce4,27,0,22660656.606,0.094,-119082559.964963,0.032,-2621.344,41.6,336.560,08009d04,10,0,24625244.708,0.064,-129406461.594230,0.031,216.659,45.0,369.208,18009d24,11,0,20830198.109,0.036,-109463352.741683,0.030,1968.814,50.0,365.610,08009d44*d8ec1cef
#SATXYZ2A,USB1_1,0,68.0,FINESTEERING,2000,455717.000,00000000,7513,12778;10,GPS,1,-13663868.4524,22559631.6248,855839.9369,-14074.821,5.975,3.500,0.0,0.0,GPS,16,-26694989.9892,-703513.5799,2004998.3708,7543.277,9.780,8.132,0.0,0.0,GPS,30,5399855.5493,17419146.6956,19260173.2874,22613.107,6.701,3.975,0.0,0.0,GPS,18,-16601302.0164,18394724.0533,8849443.9785,2288.919,4.677,2.684,0.0,0.0,GPS,22,-21286868.8022,10312033.0426,-11832234.0894,-116215.384,12.045,17.099,0.0,0.0,GPS,7,-2299066.8254,22592213.2272,13601754.6160,58084.410,5.184,2.984,0.0,0.0,GPS,8,-11174716.1774,10399699.3150,21769752.0806,-30239.323,4.736,2.730,0.0,0.0,GPS,27,-17501045.5272,-3552941.1275,19671215.8906,110706.461,7.519,4.835,0.0,0.0,GPS,10,-17808611.0930,-11250240.6819,16315789.3272,55220.787,10.900,12.327,0.0,0.0,GPS,11,-9397599.5670,22975650.6896,9093227.5354,-220773.749,4.845,2.781,0.0,0.0*fb7bd0db
#BESTPOSA,USB1_1,0,68.0,FINESTEERING,2000,455717.000,00000000,7145,12778;SOL_COMPUTED,SINGLE,36.76834117579,126.93455743601,76.3539,23.3000,WGS84,0.9697,1.0899,2.0473,"",0.000,0.000,10,10,10,10,0,12,00,01*4d360d33
#BESTXYZA,USB1_1,0,68.0,FINESTEERING,2000,455717.000,00000000,bde7,12778;SOL_COMPUTED,SINGLE,-3073918.3047,4088936.1092,3796889.9106,1.6734,1.1869,1.4528,SOL_COMPUTED,SINGLE,0.0000,0.0000,0.0000,0.0011,0.0011,0.0011,"",0.150,0.000,0.000,10,10,10,10,0,12,00,01*330f24dc
#RANGEA,USB1_1,0,69.0,FINESTEERING,2000,455718.000,00000000,5103,12778;10,1,0,21506850.667,0.045,-113019183.471528,0.029,2975.963,48.1,364.100,08009c04,16,0,24161855.131,0.387,-126971441.087426,0.152,-2754.073,35.3,33.870,08009c24,30,0,22081634.052,0.041,-116039777.939750,0.029,1800.303,48.9,336.500,08009c44,18,0,20324088.086,0.034,-106803727.141360,0.029,1633.025,50.5,356.890,08009c64,22,0,24909026.257,0.138,-130897839.792312,0.038,2749.141,38.3,293.230,18009ca4,7,0,20896781.334,0.032,-109813248.331838,0.028,120.989,51.0,370.890,08009cc4,8,0,20730013.493,0.031,-108936878.955218,0.028,-1007.510,51.4,373.850,08009ce4,27,0,22661155.309,0.091,-119085180.793609,0.031,-2621.106,41.9,337.560,08009d04,10,0,24625203.407,0.064,-129406244.483113,0.030,216.706,45.0,370.208,18009d24,11,0,20829823.361,0.036,-109461383.438037,0.029,1968.761,50.1,366.610,08009d44*164e728b
#SATXYZ2A,USB1_1,0,69.0,FINESTEERING,2000,455718.000,00000000,7513,12778;10,GPS,1,-13664044.0279,22559383.8240,859055.6271,-14074.823,5.974,3.499,0.0,0.0,GPS,16,-26695246.7146,-703696.8285,2001807.1699,7543.277,9.781,8.135,0.0,0.0,GPS,30,5398400.5550,17421130.5764,19258770.4760,22613.105,6.700,3.975,0.0,0.0,GPS,18,-16601035.0485,18393517.4227,8852324.0836,2288.919,4.677,2.684,0.0,0.0,GPS,22,-21288435.6922,10311798.4106,-11829671.5818,-116215.388,12.044,17.089,0.0,0.0,GPS,7,-2300154.8329,22593556.5834,13599255.8304,58084.407,5.183,2.984,0.0,0.0,GPS,8,-11176166.8715,10397360.8568,21770139.9487,-30239.323,4.736,2.731,0.0,0.0,GPS,27,-17502239.4665,-3555140.9210,19669787.1678,110706.461,7.519,4.836,0.0,0.0,GPS,10,-17806555.0916,-11250435.3568,16317889.1735,55220.788,10.900,12.327,0.0,0.0,GPS,11,-9397888.2701,22974379.0160,9095959.0640,-220773.749,4.845,2.781,0.0,0.0*8006dd84
