#RANGEA,USB1_1,0,62.5,FINESTEERING,2000,364269.000,00000000,5103,12778;8,27,0,20419827.895,0.031,-107306907.801601,0.029,-1533.276,51.4,508.530,08009c04,26,0,23798254.806,0.089,-125060661.071844,0.035,-2473.906,42.1,506.440,08009c44,11,0,23859930.438,0.567,-125384760.782053,0.079,3713.499,33.7,21.910,08009c64,21,0,25580940.797,0.110,-134428593.162329,0.054,-2709.727,40.3,433.410,18009c84,7,0,22620417.909,0.039,-118871106.291100,0.030,2952.506,50.0,113.000,18009cc4,8,0,20605809.524,0.030,-108284248.707169,0.029,950.744,51.6,522.450,18009ce4,18,0,23302455.320,0.212,-122455237.317782,0.058,3807.885,37.6,67.940,18009d24,16,0,21853796.487,0.042,-114842464.414089,0.029,-1811.639,48.8,515.060,18009d44*bd5b8e63
#SATXYZ2A,USB1_1,0,62.5,FINESTEERING,2000,364269.000,00000000,7513,12778;7,GPS,27,-12762103.3048,10003219.6233,20904377.7931,110726.720,0.000,0.000,0.0,0.0,GPS,26,-25180184.8069,-3579393.6797,7879195.8877,-46293.422,0.000,0.000,0.0,0.0,GPS,11,-7239318.0909,24921036.4145,-6570104.3739,-220793.240,0.000,0.000,0.0,0.0,GPS,7,6629324.6907,14082244.7251,21693979.8353,58250.407,0.000,0.000,0.0,0.0,GPS,8,-6105345.0225,21850288.7620,13731639.6778,-30204.493,0.000,0.000,0.0,0.0,GPS,18,-15456949.2944,20303876.9851,-7465180.0032,2162.277,0.000,0.000,0.0,0.0,GPS,16,-20580533.5324,2106052.5161,16739368.1223,7571.818,0.000,0.000,0.0,0.0*a64d12e2
#BESTPOSA,USB1_1,0,62.5,FINESTEERING,2000,364269.000,00000000,7145,12778;SOL_COMPUTED,PSRDIFF,36.76971046545,126.93477849559,78.4089,23.3000,WGS84,1.5297,1.2480,2.5287,"0",1.200,0.000,8,7,7,7,0,1a,00,01*24cf35ea
#BESTXYZA,USB1_1,0,62.5,FINESTEERING,2000,364269.000,00000000,bde7,12778;SOL_COMPUTED,PSRDIFF,-3073880.4115,4088852.8589,3797012.8666,1.9306,1.8946,1.7248,SOL_COMPUTED,PSRDIFF,-5.4729e-12,-3.2041e-11,6.8157e-11,0.0008,0.0008,0.0008,"0",0.150,1.200,0.000,8,7,7,7,0,1a,00,01*065638e8
#RANGEA,USB1_1,0,57.0,FINESTEERING,2000,364270.000,00000000,5103,12778;8,27,0,20420119.974,0.031,-107308442.700054,0.031,-1535.180,51.3,509.530,08009c04,26,0,23798726.035,0.089,-125063137.397154,0.033,-2476.583,42.1,507.440,08009c44,11,0,23859224.140,0.524,-125381048.464821,0.091,3712.391,34.1,22.910,08009c64,21,0,25581456.727,0.110,-134431304.249489,0.043,-2711.291,40.3,434.410,18009c84,7,0,22619856.365,0.039,-118868155.364569,0.032,2950.695,50.0,114.000,18009cc4,8,0,20605628.917,0.030,-108283299.613176,0.031,948.872,51.6,523.450,18009ce4,18,0,23301730.888,0.216,-122451430.627016,0.074,3806.434,37.3,68.940,18009d24,16,0,21854141.501,0.042,-114844277.512384,0.031,-1813.296,48.8,516.060,18009d44*1e3601b2
#SATXYZ2A,USB1_1,0,57.0,FINESTEERING,2000,364270.000,00000000,7513,12778;7,GPS,27,-12762578.6996,10000587.7456,20905368.5889,110726.720,0.000,0.000,0.0,0.0,GPS,26,-25181024.3221,-3579997.4096,7876255.4538,-46293.418,0.000,0.000,0.0,0.0,GPS,11,-7240038.6358,24921526.7453,-6567218.0401,-220793.239,0.000,0.000,0.0,0.0,GPS,7,6627133.4594,14083840.0515,21693565.0966,58250.406,0.000,0.000,0.0,0.0,GPS,8,-6105820.2207,21848601.9849,13734135.5430,-30204.494,0.000,0.000,0.0,0.0,GPS,18,-15457826.8617,20304227.0882,-7462211.3829,2162.279,0.000,0.000,0.0,0.0,GPS,16,-20582394.4227,2105004.0091,16737272.5338,7571.818,0.000,0.000,0.0,0.0*a7ce8455
#BESTPOSA,USB1_1,0,57.0,FINESTEERING,2000,364270.000,00000000,7145,12778;SOL_COMPUTED,PSRDIFF,36.76971197294,126.93477896568,78.5392,23.3000,WGS84,1.4455,1.1870,2.4252,"0",1.000,0.000,8,7,7,7,0,1a,00,01*04534ea0
#BESTXYZA,USB1_1,0,57.0,FINESTEERING,2000,364270.000,00000000,bde7,12778;SOL_COMPUTED,PSRDIFF,-3073880.4475,4088852.8371,3797013.0786,1.8571,1.8208,1.6173,SOL_COMPUTED,PSRDIFF,0.0000,0.0000,0.0000,0.0009,0.0009,0.0009,"0",0.150,1.000,0.000,8,7,7,7,0,1a,00,01*ef04b61a
#RANGEA,USB1_1,0,57.0,FINESTEERING,2000,364271.000,00000000,5103,12778;8,27,0,20420411.839,0.031,-107309976.457991,0.032,-1529.890,51.3,510.530,08009c04,26,0,23799197.014,0.090,-125065612.368689,0.034,-2471.098,42.0,508.440,08009c44,11,0,23858517.483,0.542,-125377334.706524,0.092,3717.984,33.7,23.910,08009c64,21,0,25581972.391,0.113,-134434014.054321,0.037,-2706.457,40.1,435.410,18009c84,7,0,22619294.593,0.039,-118865203.220488,0.032,2955.893,50.1,115.000,18009cc4,8,0,20605448.111,0.030,-108282349.475746,0.032,954.013,51.6,524.450,18009ce4,18,0,23301006.296,0.218,-122447622.553070,0.055,3811.394,37.2,69.940,18009d24,16,0,21854486.273,0.042,-114846089.271633,0.032,-1807.916,48.7,517.060,18009d44*21e75716
#SATXYZ2A,USB1_1,0,57.0,FINESTEERING,2000,364271.000,00000000,7513,12778;7,GPS,27,-12763054.2716,9997955.7751,20906358.9347,110726.719,0.000,0.000,0.0,0.0,GPS,26,-25181863.5274,-3580600.9605,7873314.8536,-46293.414,0.000,0.000,0.0,0.0,GPS,11,-7240758.9973,24922016.7959,-6564331.5697,-220793.238,0.000,0.000,0.0,0.0,GPS,7,6624942.3573,14085435.4774,21693149.9037,58250.404,0.000,0.000,0.0,0.0,GPS,8,-6106295.5669,21846914.9263,13736631.1145,-30204.494,0.000,0.000,0.0,0.0,GPS,18,-15458704.1323,20304576.9965,-7459242.6044,2162.280,0.000,0.000,0.0,0.0,GPS,16,-20584255.1402,2103955.7401,16735176.5913,7571.818,0.000,0.000,0.0,0.0*17e23afb
#BESTPOSA,USB1_1,0,57.0,FINESTEERING,2000,364271.000,00000000,7145,12778;SOL_COMPUTED,PSRDIFF,36.76971197294,126.93477896568,78.5392,23.3000,WGS84,1.4528,1.1929,2.4374,"0",1.400,0.000,8,7,7,7,0,1a,00,01*34ad802c
#BESTXYZA,USB1_1,0,57.0,FINESTEERING,2000,364271.000,00000000,bde7,12778;SOL_COMPUTED,PSRDIFF,-3073880.4475,4088852.8371,3797013.0786,1.8665,1.8300,1.6254,SOL_COMPUTED,PSRDIFF,1.7776e-10,-6.6231e-10,-3.2169e-10,0.0008,0.0008,0.0008,"0",0.150,1.400,0.000,8,7,7,7,0,1a,00,01*2f689847
#RANGEA,USB1_1,0,59.0,FINESTEERING,2000,364272.000,00000000,5103,12778;8,27,0,20420703.379,0.031,-107311508.509005,0.034,-1534.278,51.3,511.530,08009c04,26,0,23799667.615,0.092,-125068085.320406,0.036,-2475.162,41.8,509.440,08009c44,11,0,23857810.704,0.512,-125373619.016764,0.094,3713.716,34.0,24.910,08009c64,21,0,25582487.682,0.115,-134436721.991139,0.083,-2710.174,40.0,436.410,18009c84,7,0,22618732.478,0.039,-118862249.274300,0.034,2951.788,50.0,116.000,18009cc4,8,0,20605266.984,0.030,-108281397.672808,0.034,949.551,51.5,525.450,18009ce4,18,0,23300281.290,0.213,-122443812.532549,0.046,3808.067,37.3,70.940,18009d24,16,0,21854830.670,0.041,-114847899.114853,0.034,-1812.112,48.9,518.060,18009d44*e8ac2aeb
#SATXYZ2A,USB1_1,0,59.0,FINESTEERING,2000,364272.000,00000000,7513,12778;7,GPS,27,-12763530.0205,9995323.7121,20907348.8305,110726.718,0.000,0.000,0.0,0.0,GPS,26,-25182702.4229,-3581204.3325,7870374.0871,-46293.409,0.000,0.000,0.0,0.0,GPS,11,-7241479.1754,24922506.5662,-6561444.9629,-220793.237,0.000,0.000,0.0,0.0,GPS,7,6622751.3843,14087031.0028,21692734.2565,58250.403,0.000,0.000,0.0,0.0,GPS,8,-6106771.0611,21845227.5863,13739126.3924,-30204.495,0.000,0.000,0.0,0.0,GPS,18,-15459581.1062,20304926.7101,-7456273.6677,2162.282,0.000,0.000,0.0,0.0,GPS,16,-20586115.6846,2102907.7092,16733080.2947,7571.818,0.000,0.000,0.0,0.0*6d005545
#BESTPOSA,USB1_1,0,59.0,FINESTEERING,2000,364272.000,00000000,7145,12778;SOL_COMPUTED,PSRDIFF,36.76971324428,126.93477938910,78.6546,23.3000,WGS84,1.3810,1.1423,2.3346,"0",1.200,0.000,8,7,7,7,0,1a,00,01*84da4cd2
#BESTXYZA,USB1_1,0,59.0,FINESTEERING,2000,364272.000,00000000,bde7,12778;SOL_COMPUTED,PSRDIFF,-3073880.4826,4088852.8207,3797013.2607,1.7945,1.7585,1.5329,SOL_COMPUTED,PSRDIFF,0.0000,0.0000,0.0000,0.0009,0.0009,0.0009,"0",0.150,1.200,0.000,8,7,7,7,0,1a,00,01*8d3862a8
#RANGEA,USB1_1,0,58.0,FINESTEERING,2000,364273.000,00000000,5103,12778;8,27,0,20420995.287,0.031,-107313042.491112,0.033,-1532.453,51.3,512.530,08009c04,26,0,23800138.545,0.095,-125070559.982639,0.082,-2473.618,41.6,510.440,08009c44,11,0,23857103.889,0.517,-125369905.057671,0.124,3714.976,33.8,25.910,08009c64,21,0,25583003.321,0.113,-134439431.750353,0.058,-2707.966,40.1,437.410,18009c84,7,0,22618170.715,0.038,-118859297.179171,0.034,2953.739,50.0,117.000,18009cc4,8,0,20605086.239,0.030,-108280447.869473,0.033,951.212,51.5,526.450,18009ce4,18,0,23299556.603,0.210,-122440004.154360,0.096,3809.958,37.4,71.940,18009d24,16,0,21855175.398,0.041,-114849710.653606,0.034,-1809.930,49.0,519.060,18009d44*9978b68e
#SATXYZ2A,USB1_1,0,58.0,FINESTEERING,2000,364273.000,00000000,7513,12778;7,GPS,27,-12764005.9465,9992691.5564,20908338.2762,110726.718,0.000,0.000,0.0,0.0,GPS,26,-25183541.0085,-3581807.5256,7867433.1543,-46293.405,0.000,0.000,0.0,0.0,GPS,11,-7242199.1701,24922996.0562,-6558558.2197,-220793.236,0.000,0.000,0.0,0.0,GPS,7,6620560.5406,14088626.6278,21692318.1550,58250.402,0.000,0.000,0.0,0.0,GPS,8,-6107246.7033,21843539.9650,13741621.3767,-30204.495,0.000,0.000,0.0,0.0,GPS,18,-15460457.7834,20305276.2288,-7453304.5727,2162.283,0.000,0.000,0.0,0.0,GPS,16,-20587976.0560,2101859.9164,16730983.6443,7571.818,0.000,0.000,0.0,0.0*3c6e2732
#BESTPOSA,USB1_1,0,58.0,FINESTEERING,2000,364273.000,00000000,7145,12778;SOL_COMPUTED,PSRDIFF,36.76971324428,126.93477938910,78.6546,23.3000,WGS84,1.3954,1.1542,2.3589,"0",1.000,0.000,8,7,7,7,0,1a,00,01*bc498b4a
#BESTXYZA,USB1_1,0,58.0,FINESTEERING,2000,364273.000,00000000,bde7,12778;SOL_COMPUTED,PSRDIFF,-3073880.4826,4088852.8207,3797013.2607,1.8132,1.7768,1.5489,SOL_COMPUTED,PSRDIFF,9.5757e-11,-5.8519e-10,-3.0842e-10,0.0008,0.0008,0.0008,"0",0.150,1.000,0.000,8,7,7,7,0,1a,00,01*b9c90ff3
#RANGEA,USB1_1,0,58.0,FINESTEERING,2000,364274.000,00000000,5103,12778;8,27,0,20421287.176,0.031,-107314576.359673,0.029,-1537.773,51.4,513.530,08009c04,26,0,23800609.405,0.095,-125073034.247091,0.056,-2478.003,41.6,511.440,08009c44,11,0,23856397.304,0.536,-125366190.618965,0.128,3710.427,33.3,26.910,08009c64,21,0,25583518.918,0.116,-134442141.230043,0.044,-2713.138,39.9,438.410,18009c84,7,0,22617608.910,0.038,-118856344.880331,0.030,2948.381,50.0,118.000,18009cc4,8,0,20604905.486,0.030,-108279498.029034,0.029,945.898,51.6,527.450,18009ce4,18,0,23298831.818,0.203,-122436195.398520,0.103,3805.047,37.6,72.940,18009d24,16,0,21855520.060,0.040,-114851521.883520,0.030,-1815.151,49.1,520.060,18009d44*48a23240
#SATXYZ2A,USB1_1,0,58.0,FINESTEERING,2000,364274.000,00000000,7513,12778;7,GPS,27,-12764482.0496,9990059.3083,20909327.2719,110726.717,0.000,0.000,0.0,0.0,GPS,26,-25184379.2841,-3582410.5399,7864492.0554,-46293.401,0.000,0.000,0.0,0.0,GPS,11,-7242918.9815,24923485.2658,-6555671.3403,-220793.235,0.000,0.000,0.0,0.0,GPS,7,6618369.8262,14090222.3522,21691901.5992,58250.400,0.000,0.000,0.0,0.0,GPS,8,-6107722.4937,21841852.0623,13744116.0672,-30204.496,0.000,0.000,0.0,0.0,GPS,18,-15461334.1640,20305625.5527,-7450335.3197,2162.285,0.000,0.000,0.0,0.0,GPS,16,-20589836.2543,2100812.3615,16728886.6400,7571.818,0.000,0.000,0.0,0.0*c90a2f79
#BESTPOSA,USB1_1,0,58.0,FINESTEERING,2000,364274.000,00000000,7145,12778;SOL_COMPUTED,PSRDIFF,36.76971330831,126.93477941145,78.6606,23.3000,WGS84,1.3991,1.1574,2.3670,"0",1.400,0.000,8,7,7,7,0,1a,00,01*219c2fa9
#BESTXYZA,USB1_1,0,58.0,FINESTEERING,2000,364274.000,00000000,bde7,12778;SOL_COMPUTED,PSRDIFF,-3073880.4845,4088852.8200,3797013.2700,1.8195,1.7829,1.5526,SOL_COMPUTED,PSRDIFF,-9.5737e-10,0.0000,0.0000,0.0008,0.0008,0.0008,"0",0.150,1.400,0.000,8,7,7,7,0,1a,00,01*b5b1cadd
#RANGEA,USB1_1,0,57.0,FINESTEERING,2000,364275.000,00000000,5103,12778;8,27,0,20421579.046,0.031,-107316110.133190,0.032,-1532.692,51.4,514.530,08009c04,26,0,23801080.178,0.101,-125075508.181694,0.044,-2472.663,41.0,512.440,08009c44,11,0,23855690.593,0.504,-125362475.853117,0.116,3716.557,33.7,27.910,08009c64,21,0,25584034.459,0.119,-134444850.475426,0.111,-2707.818,39.7,439.410,18009c84,7,0,22617047.076,0.039,-118853392.410658,0.033,2953.449,49.9,119.000,18009cc4,8,0,20604724.730,0.030,-108278548.164332,0.032,950.971,51.5,528.450,18009ce4,18,0,23298106.936,0.203,-122432386.292994,0.112,3810.305,37.6,73.940,18009d24,16,0,21855864.665,0.041,-114853332.792261,0.094,-1809.700,49.0,521.060,18009d44*c035be39
#SATXYZ2A,USB1_1,0,57.0,FINESTEERING,2000,364275.000,00000000,7513,12778;7,GPS,27,-12764958.3298,9987426.9678,20910315.8175,110726.717,0.000,0.000,0.0,0.0,GPS,26,-25185217.2498,-3583013.3752,7861550.7904,-46293.397,0.000,0.000,0.0,0.0,GPS,11,-7243638.6095,24923974.1950,-6552784.3245,-220793.234,0.000,0.000,0.0,0.0,GPS,7,6616179.2411,14091818.1760,21691484.5892,58250.399,0.000,0.000,0.0,0.0,GPS,8,-6108198.4322,21840163.8785,13746610.4639,-30204.496,0.000,0.000,0.0,0.0,GPS,18,-15462210.2479,20305974.6817,-7447365.9086,2162.286,0.000,0.000,0.0,0.0,GPS,16,-20591696.2794,2099765.0447,16726789.2818,7571.817,0.000,0.000,0.0,0.0*84868c51
#BESTPOSA,USB1_1,0,57.0,FINESTEERING,2000,364275.000,00000000,7145,12778;SOL_COMPUTED,PSRDIFF,36.76971330831,126.93477941145,78.6606,23.3000,WGS84,1.4027,1.1604,2.3731,"0",1.200,0.000,8,7,7,7,0,1a,00,01*fe3d3799
#BESTXYZA,USB1_1,0,57.0,FINESTEERING,2000,364275.000,00000000,bde7,12778;SOL_COMPUTED,PSRDIFF,-3073880.4845,4088852.8200,3797013.2700,1.8242,1.7875,1.5566,SOL_COMPUTED,PSRDIFF,-4.1405e-11,-2.0221e-10,4.3873e-10,0.0008,0.0008,0.0008,"0",0.150,1.200,0.000,8,7,7,7,0,1a,00,01*3b41c1e8
#RANGEA,USB1_1,0,57.0,FINESTEERING,2000,364276.000,00000000,5103,12778;8,27,0,20421871.207,0.031,-107317645.455763,0.030,-1537.886,51.4,515.530,08009c04,26,0,23801551.221,0.100,-125077983.393986,0.037,-2478.122,41.2,513.440,08009c44,11,0,23854984.098,0.512,-125358762.405607,0.093,3711.228,33.4,28.910,08009c64,21,0,25584550.277,0.118,-134447561.143065,0.072,-2713.029,39.7,440.410,18009c84,7,0,22616485.516,0.039,-118850441.393528,0.031,2948.540,49.9,120.000,18009cc4,8,0,20604544.278,0.030,-108277599.919094,0.030,945.672,51.5,529.450,18009ce4,18,0,23297382.360,0.193,-122428578.494659,0.074,3805.261,37.9,74.940,18009d24,16,0,21856209.533,0.041,-114855145.064728,0.061,-1814.672,49.0,522.060,18009d44*97de2162
#SATXYZ2A,USB1_1,0,57.0,FINESTEERING,2000,364276.000,00000000,7513,12778;7,GPS,27,-12765434.7870,9984794.5349,20911303.9130,110726.716,0.000,0.000,0.0,0.0,GPS,26,-25186054.9054,-3583616.0318,7858609.3593,-46293.393,0.000,0.000,0.0,0.0,GPS,11,-7244358.0543,24924462.8437,-6549897.1726,-220793.233,0.000,0.000,0.0,0.0,GPS,7,6613988.7855,14093414.0991,21691067.1249,58250.398,0.000,0.000,0.0,0.0,GPS,8,-6108674.5188,21838475.4134,13749104.5667,-30204.497,0.000,0.000,0.0,0.0,GPS,18,-15463086.0351,20306323.6156,-7444396.3394,2162.288,0.000,0.000,0.0,0.0,GPS,16,-20593556.1313,2098717.9659,16724691.5698,7571.817,0.000,0.000,0.0,0.0*61f25f1f
#BESTPOSA,USB1_1,0,57.0,FINESTEERING,2000,364276.000,00000000,7145,12778;SOL_COMPUTED,PSRDIFF,36.76971330831,126.93477941145,78.6606,23.3000,WGS84,1.4045,1.1619,2.3761,"0",1.000,0.000,8,7,7,7,0,1a,00,01*0ae95257
#BESTXYZA,USB1_1,0,57.0,FINESTEERING,2000,364276.000,00000000,bde7,12778;SOL_COMPUTED,PSRDIFF,-3073880.4845,4088852.8200,3797013.2700,1.8265,1.7898,1.5586,SOL_COMPUTED,PSRDIFF,-1.7907e-12,-8.7453e-12,1.8975e-11,0.0008,0.0008,0.0008,"0",0.150,1.000,0.000,8,7,7,7,0,1a,00,01*d3ebe5ff
#RANGEA,USB1_1,0,58.0,FINESTEERING,2000,364277.000,00000000,5103,12778;8,27,0,20422163.728,0.031,-107319182.652498,0.026,-1537.111,51.3,516.530,08009c04,26,0,23802022.532,0.101,-125080460.219690,0.033,-2476.751,41.1,514.440,08009c44,11,0,23854277.883,0.519,-125355050.533745,0.096,3712.549,33.1,29.910,08009c64,21,0,25585066.416,0.114,-134450273.493830,0.049,-2712.116,40.0,441.410,18009c84,7,0,22615924.300,0.038,-118847492.177450,0.026,2949.247,49.9,121.000,18009cc4,8,0,20604364.194,0.030,-108276653.601660,0.025,946.415,51.5,530.450,18009ce4,18,0,23296658.069,0.199,-122424772.283377,0.051,3806.400,37.6,75.940,18009d24,16,0,21856554.717,0.041,-114856958.988321,0.041,-1813.802,49.0,523.060,18009d44*c2437b59
#SATXYZ2A,USB1_1,0,58.0,FINESTEERING,2000,364277.000,00000000,7513,12778;7,GPS,27,-12765911.4213,9982162.0097,20912291.5584,110726.715,0.000,0.000,0.0,0.0,GPS,26,-25186892.2510,-3584218.5097,7855667.7622,-46293.389,0.000,0.000,0.0,0.0,GPS,11,-7245077.3158,24924951.2120,-6547009.8846,-220793.232,0.000,0.000,0.0,0.0,GPS,7,6611798.4593,14095010.1216,21690649.2064,58250.397,0.000,0.000,0.0,0.0,GPS,8,-6109150.7537,21836786.6671,13751598.3757,-30204.498,0.000,0.000,0.0,0.0,GPS,18,-15463961.5257,20306672.3546,-7441426.6124,2162.289,0.000,0.000,0.0,0.0,GPS,16,-20595415.8099,2097671.1252,16722593.5041,7571.817,0.000,0.000,0.0,0.0*4d3c46b1
#BESTPOSA,USB1_1,0,58.0,FINESTEERING,2000,364277.000,00000000,7145,12778;SOL_COMPUTED,PSRDIFF,36.76971337770,126.93477943540,78.6675,23.3000,WGS84,1.4019,1.1599,2.3736,"0",1.400,0.000,8,7,7,7,0,1a,00,01*5b6fb660
#BESTXYZA,USB1_1,0,58.0,FINESTEERING,2000,364277.000,00000000,bde7,12778;SOL_COMPUTED,PSRDIFF,-3073880.4867,4088852.8194,3797013.2803,1.8246,1.7879,1.5553,SOL_COMPUTED,PSRDIFF,-2.1309e-10,0.0000,0.0000,0.0008,0.0008,0.0008,"0",0.150,1.400,0.000,8,7,7,7,0,1a,00,01*99f9d1d8
#RANGEA,USB1_1,0,58.5,FINESTEERING,2000,364278.000,00000000,5103,12778;8,27,0,20422456.126,0.031,-107320719.199125,0.026,-1538.077,51.3,517.530,08009c04,26,0,23802493.666,0.105,-125082936.127455,0.034,-2477.018,40.7,515.440,08009c44,11,0,23853571.697,0.581,-125351337.873211,0.129,3711.412,32.7,30.910,08009c64,21,0,25585582.414,0.119,-134452985.101357,0.038,-2712.898,39.7,442.410,18009c84,7,0,22615362.945,0.039,-118844542.241856,0.027,2948.534,49.8,122.000,18009cc4,8,0,20604184.005,0.030,-108275706.723843,0.027,945.322,51.5,531.450,18009ce4,18,0,23295933.620,0.202,-122420965.156241,0.041,3806.120,37.4,76.940,18009d24,16,0,21856899.736,0.041,-114858772.065540,0.033,-1814.273,48.9,524.060,18009d44*935b78ac
#SATXYZ2A,USB1_1,0,58.5,FINESTEERING,2000,364278.000,00000000,7513,12778;7,GPS,27,-12766388.2327,9979529.3923,20913278.7536,110726.715,0.000,0.000,0.0,0.0,GPS,26,-25187729.2864,-3584820.8088,7852725.9992,-46293.385,0.000,0.000,0.0,0.0,GPS,11,-7245796.3940,24925439.2998,-6544122.4605,-220793.231,0.000,0.000,0.0,0.0,GPS,7,6609608.2626,14096606.2433,21690230.8336,58250.395,0.000,0.000,0.0,0.0,GPS,8,-6109627.1367,21835097.6398,13754091.8907,-30204.498,0.000,0.000,0.0,0.0,GPS,18,-15464836.7197,20307020.8985,-7438456.7275,2162.291,0.000,0.000,0.0,0.0,GPS,16,-20597275.3152,2096624.5224,16720495.0847,7571.817,0.000,0.000,0.0,0.0*201648e4
#BESTXYZA,USB1_1,0,58.5,FINESTEERING,2000,364278.000,00000000,bde7,12778;SOL_COMPUTED,PSRDIFF,-3073880.4867,4088852.8194,3797013.2803,1.8252,1.7884,1.5558,SOL_COMPUTED,PSRDIFF,-9.2161e-12,-4.4581e-11,1.0029e-10,0.0008,0.0008,0.0008,"0",0.150,1.200,0.000,8,7,7,7,0,1a,00,01*940752fd
#BESTPOSA,USB1_1,0,58.5,FINESTEERING,2000,364278.000,00000000,7145,12778;SOL_COMPUTED,PSRDIFF,36.76971337770,126.93477943540,78.6675,23.3000,WGS84,1.4024,1.1603,2.3744,"0",1.200,0.000,8,7,7,7,0,1a,00,01*8959dc0b
#RANGEA,USB1_1,0,58.5,FINESTEERING,2000,364279.000,00000000,5103,12778;8,27,0,20422749.022,0.031,-107322258.385174,0.030,-1539.627,51.3,518.530,08009c04,26,0,23802965.286,0.097,-125085414.423107,0.036,-2478.301,41.3,516.440,08009c44,11,0,23852865.688,0.556,-125347627.444222,0.145,3710.611,32.7,31.910,08009c64,21,0,25586098.891,0.117,-134455699.168236,0.036,-2714.540,39.8,443.410,18009c84,7,0,22614802.073,0.039,-118841594.852236,0.030,2946.885,49.8,123.000,18009cc4,8,0,20604004.335,0.030,-108274762.571623,0.030,943.679,51.5,532.450,18009ce4,18,0,23295209.637,0.194,-122417160.443745,0.037,3803.742,37.7,77.940,18009d24,16,0,21857245.222,0.041,-114860587.570976,0.032,-1816.059,48.9,525.060,18009d44*e26c2524
#SATXYZ2A,USB1_1,0,58.5,FINESTEERING,2000,364279.000,00000000,7513,12778;7,GPS,27,-12766865.2212,9976896.6827,20914265.4987,110726.714,0.000,0.000,0.0,0.0,GPS,26,-25188566.0117,-3585422.9292,7849784.0703,-46293.381,0.000,0.000,0.0,0.0,GPS,11,-7246515.2891,24925927.1070,-6541234.9003,-220793.230,0.000,0.000,0.0,0.0,GPS,7,6607418.1955,14098202.4642,21689812.0066,58250.394,0.000,0.000,0.0,0.0,GPS,8,-6110103.6681,21833408.3314,13756585.1117,-30204.499,0.000,0.000,0.0,0.0,GPS,18,-15465711.6170,20307369.2472,-7435486.6848,2162.292,0.000,0.000,0.0,0.0,GPS,16,-20599134.6470,2095578.1576,16718396.3117,7571.817,0.000,0.000,0.0,0.0*d2be3553
#BESTPOSA,USB1_1,0,58.5,FINESTEERING,2000,364279.000,00000000,7145,12778;SOL_COMPUTED,PSRDIFF,36.76971345412,126.93477946237,78.6750,23.3000,WGS84,1.3992,1.1578,2.3708,"0",1.000,0.000,8,7,7,7,0,1a,00,01*ca10119a
#BESTXYZA,USB1_1,0,58.5,FINESTEERING,2000,364279.000,00000000,bde7,12778;SOL_COMPUTED,PSRDIFF,-3073880.4893,4088852.8188,3797013.2916,1.8225,1.7857,1.5519,SOL_COMPUTED,PSRDIFF,0.0000,0.0000,0.0000,0.0008,0.0008,0.0008,"0",0.150,1.000,0.000,8,7,7,7,0,1a,00,01*abf483b2
#RANGEA,USB1_1,0,58.5,FINESTEERING,2000,364280.000,00000000,5103,12778;8,27,0,20423041.684,0.031,-107323796.340220,0.034,-1536.504,51.3,519.530,08009c04,26,0,23803436.606,0.095,-125087891.263546,0.035,-2474.984,41.6,517.440,08009c44,11,0,23852159.543,0.636,-125343915.610355,0.131,3712.594,32.7,32.910,08009c64,21,0,25586615.094,0.124,-134458411.901012,0.037,-2711.364,39.3,444.410,18009c84,7,0,22614240.950,0.038,-118838646.162573,0.033,2950.286,49.8,124.000,18009cc4,8,0,20603824.441,0.030,-108273817.240831,0.033,946.733,51.5,533.450,18009ce4,18,0,23294485.367,0.186,-122413354.231739,0.099,3807.150,38.0,78.940,18009d24,16,0,21857590.436,0.041,-114862401.636376,0.034,-1812.482,48.9,526.060,18009d44*06f3947b
#SATXYZ2A,USB1_1,0,58.5,FINESTEERING,2000,364280.000,00000000,7513,12778;7,GPS,27,-12767342.3868,9974263.8811,20915251.7936,110726.714,0.000,0.000,0.0,0.0,GPS,26,-25189402.4269,-3586024.8709,7846841.9757,-46293.377,0.000,0.000,0.0,0.0,GPS,11,-7247234.0009,24926414.6336,-6538347.2042,-220793.229,0.000,0.000,0.0,0.0,GPS,7,6605228.2579,14099798.7844,21689392.7254,58250.393,0.000,0.000,0.0,0.0,GPS,8,-6110580.3477,21831718.7420,13759078.0386,-30204.499,0.000,0.000,0.0,0.0,GPS,18,-15466586.2178,20307717.4008,-7432516.4843,2162.294,0.000,0.000,0.0,0.0,GPS,16,-20600993.8053,2094532.0308,16716297.1850,7571.817,0.000,0.000,0.0,0.0*e984651d
#BESTPOSA,USB1_1,0,58.5,FINESTEERING,2000,364280.000,00000000,7145,12778;SOL_COMPUTED,PSRDIFF,36.76971345412,126.93477946237,78.6750,23.3000,WGS84,1.3993,1.1579,2.3710,"0",1.400,0.000,8,7,7,7,0,1a,00,01*96218cbd
#BESTXYZA,USB1_1,0,58.5,FINESTEERING,2000,364280.000,00000000,bde7,12778;SOL_COMPUTED,PSRDIFF,-3073880.4893,4088852.8188,3797013.2916,1.8227,1.7858,1.5520,SOL_COMPUTED,PSRDIFF,-5.2027e-11,-2.4000e-10,5.3570e-10,0.0008,0.0008,0.0008,"0",0.150,1.400,0.000,8,7,7,7,0,1a,00,01*f13849ab
#RANGEA,USB1_1,0,58.0,FINESTEERING,2000,364281.000,00000000,5103,12778;8,27,0,20423334.308,0.031,-107325334.097342,0.030,-1539.581,51.3,520.530,08009c04,26,0,23803907.861,0.093,-125090367.643454,0.033,-2477.828,41.7,518.440,08009c44,11,0,23851453.248,0.607,-125340203.274298,0.107,3710.091,32.6,33.910,08009c64,21,0,25587131.236,0.126,-134461124.262331,0.103,-2713.937,39.1,445.410,18009c84,7,0,22613679.778,0.039,-118835697.185207,0.030,2947.297,49.7,125.000,18009cc4,8,0,20603644.525,0.031,-108272871.787787,0.030,943.607,51.4,534.450,18009ce4,18,0,23293761.001,0.192,-122409547.533503,0.081,3805.505,37.7,79.940,18009d24,16,0,21857935.565,0.041,-114864215.298822,0.031,-1815.348,48.8,527.060,18009d44*20cd5500
#SATXYZ2A,USB1_1,0,58.0,FINESTEERING,2000,364281.000,00000000,7513,12778;7,GPS,27,-12767819.7295,9971630.9874,20916237.6383,110726.713,0.000,0.000,0.0,0.0,GPS,26,-25190238.5318,-3586626.6340,7843899.7153,-46293.373,0.000,0.000,0.0,0.0,GPS,11,-7247952.5297,24926901.8796,-6535459.3722,-220793.228,0.000,0.000,0.0,0.0,GPS,7,6603038.4500,14101395.2036,21688972.9899,58250.391,0.000,0.000,0.0,0.0,GPS,8,-6111057.1757,21830028.8716,13761570.6715,-30204.500,0.000,0.000,0.0,0.0,GPS,18,-15467460.5220,20308065.3592,-7429546.1262,2162.296,0.000,0.000,0.0,0.0,GPS,16,-20602852.7901,2093486.1420,16714197.7048,7571.817,0.000,0.000,0.0,0.0*b3ee8728
#BESTPOSA,USB1_1,0,58.0,FINESTEERING,2000,364281.000,00000000,7145,12778;SOL_COMPUTED,PSRDIFF,36.76971345412,126.93477946237,78.6750,23.3000,WGS84,1.3993,1.1579,2.3711,"0",1.200,0.000,8,7,7,7,0,1a,00,01*fea54897
#BESTXYZA,USB1_1,0,58.0,FINESTEERING,2000,364281.000,00000000,bde7,12778;SOL_COMPUTED,PSRDIFF,-3073880.4893,4088852.8188,3797013.2916,1.8227,1.7859,1.5521,SOL_COMPUTED,PSRDIFF,-2.2501e-12,-1.0380e-11,2.3169e-11,0.0008,0.0008,0.0008,"0",0.150,1.200,0.000,8,7,7,7,0,1a,00,01*7547d62d
#RANGEA,USB1_1,0,58.0,FINESTEERING,2000,364282.000,00000000,5103,12778;8,27,0,20423627.585,0.031,-107326875.268616,0.024,-1544.391,51.4,521.530,08009c04,26,0,23804379.702,0.089,-125092847.167648,0.029,-2482.882,42.1,519.440,08009c44,11,0,23850747.558,0.589,-125336494.111914,0.102,3705.323,32.4,34.910,08009c64,21,0,25587648.018,0.132,-134463839.909657,0.067,-2719.041,38.7,446.410,18009c84,7,0,22613119.239,0.038,-118832751.548945,0.023,2942.225,49.7,126.000,18009cc4,8,0,20603465.273,0.030,-108271929.822041,0.024,938.789,51.5,535.450,18009ce4,18,0,23293037.239,0.181,-122405744.019028,0.055,3800.152,38.2,80.940,18009d24,16,0,21858281.297,0.041,-114866032.153225,0.024,-1820.045,48.8,528.060,18009d44*1f6ae191
#SATXYZ2A,USB1_1,0,58.0,FINESTEERING,2000,364282.000,00000000,7513,12778;7,GPS,27,-12768297.2493,9968998.0018,20917223.0328,110726.712,0.000,0.000,0.0,0.0,GPS,26,-25191074.3264,-3587228.2186,7840957.2892,-46293.369,0.000,0.000,0.0,0.0,GPS,11,-7248670.8753,24927388.8449,-6532571.4044,-220793.227,0.000,0.000,0.0,0.0,GPS,7,6600848.7718,14102991.7219,21688552.8002,58250.390,0.000,0.000,0.0,0.0,GPS,8,-6111534.1520,21828338.7204,13764063.0101,-30204.500,0.000,0.000,0.0,0.0,GPS,18,-15468334.5296,20308413.1222,-7426575.6105,2162.297,0.000,0.000,0.0,0.0,GPS,16,-20604711.6013,2092440.4911,16712097.8711,7571.816,0.000,0.000,0.0,0.0*2acf901e
#BESTPOSA,USB1_1,0,58.0,FINESTEERING,2000,364282.000,00000000,7145,12778;SOL_COMPUTED,PSRDIFF,36.76971353450,126.93477949017,78.6830,23.3000,WGS84,1.3960,1.1553,2.3671,"0",1.000,0.000,8,7,7,7,0,1a,00,01*745bc51f
#BESTXYZA,USB1_1,0,58.0,FINESTEERING,2000,364282.000,00000000,bde7,12778;SOL_COMPUTED,PSRDIFF,-3073880.4918,4088852.8181,3797013.3035,1.8198,1.7829,1.5480,SOL_COMPUTED,PSRDIFF,-2.5079e-10,0.0000,0.0000,0.0008,0.0008,0.0008,"0",0.150,1.000,0.000,8,7,7,7,0,1a,00,01*3216f460
#RANGEA,USB1_1,0,57.5,FINESTEERING,2000,364283.000,00000000,5103,12778;8,27,0,20423921.105,0.031,-107328417.720926,0.023,-1542.842,51.3,522.530,08009c04,26,0,23804851.744,0.087,-125095327.731556,0.029,-2480.778,42.4,520.440,08009c44,11,0,23850041.958,0.587,-125332786.006590,0.084,3707.360,31.9,35.910,08009c64,21,0,25588164.992,0.134,-134466556.685783,0.046,-2717.153,38.6,447.410,18009c84,7,0,22612558.916,0.039,-118829807.108614,0.023,2944.064,49.4,127.000,18009cc4,8,0,20603286.276,0.031,-108270989.220896,0.023,940.096,51.4,536.450,18009ce4,18,0,23292313.659,0.179,-122401941.559746,0.040,3801.779,38.2,81.940,18009d24,16,0,21858627.241,0.042,-114867850.107824,0.023,-1818.276,48.7,529.060,18009d44*78150e9d
#SATXYZ2A,USB1_1,0,57.5,FINESTEERING,2000,364283.000,00000000,7513,12778;7,GPS,27,-12768774.9462,9966364.9244,20918207.9770,110726.712,0.000,0.000,0.0,0.0,GPS,26,-25191909.8108,-3587829.6246,7838014.6975,-46293.365,0.000,0.000,0.0,0.0,GPS,11,-7249389.0378,24927875.5296,-6529683.3008,-220793.226,0.000,0.000,0.0,0.0,GPS,7,6598659.2233,14104588.3393,21688132.1564,58250.389,0.000,0.000,0.0,0.0,GPS,8,-6112011.2768,21826648.2883,13766555.0546,-30204.501,0.000,0.000,0.0,0.0,GPS,18,-15469208.2407,20308760.6899,-7423604.9371,2162.299,0.000,0.000,0.0,0.0,GPS,16,-20606570.2388,2091395.0782,16709997.6839,7571.816,0.000,0.000,0.0,0.0*6f753f95
#BESTPOSA,USB1_1,0,57.5,FINESTEERING,2000,364283.000,00000000,7145,12778;SOL_COMPUTED,PSRDIFF,36.76971353450,126.93477949017,78.6830,23.3000,WGS84,1.3960,1.1553,2.3672,"0",1.400,0.000,8,7,7,7,0,1a,00,01*bf580495
#BESTXYZA,USB1_1,0,57.5,FINESTEERING,2000,364283.000,00000000,bde7,12778;SOL_COMPUTED,PSRDIFF,-3073880.4918,4088852.8181,3797013.3035,1.8198,1.7830,1.5480,SOL_COMPUTED,PSRDIFF,-1.0846e-11,-5.2433e-11,1.1773e-10,0.0008,0.0008,0.0008,"0",0.150,1.400,0.000,8,7,7,7,0,1a,00,01*6a68bd6b
#RANGEA,USB1_1,0,57.5,FINESTEERING,2000,364284.000,00000000,5103,12778;8,27,0,20424214.563,0.030,-107329959.869680,0.026,-1541.458,51.5,523.530,08009c04,26,0,23805323.677,0.080,-125097807.690050,0.030,-2478.778,43.0,521.440,08009c44,11,0,23849336.191,0.658,-125329077.282126,0.095,3709.345,32.4,36.910,08009c64,21,0,25588681.908,0.129,-134469273.015501,0.037,-2715.650,38.9,448.410,18009c84,7,0,22611998.540,0.038,-118826862.298100,0.025,2945.304,49.6,128.000,18009cc4,8,0,20603107.234,0.030,-108270048.382265,0.026,941.294,51.5,537.450,18009ce4,18,0,23291589.976,0.172,-122398138.448601,0.037,3803.711,38.5,82.940,18009d24,16,0,21858973.088,0.041,-114869667.548447,0.026,-1816.884,48.8,530.060,18009d44*b9da0ae0
#SATXYZ2A,USB1_1,0,57.5,FINESTEERING,2000,364284.000,00000000,7513,12778;7,GPS,27,-12769252.8203,9963731.7551,20919192.4710,110726.711,0.000,0.000,0.0,0.0,GPS,26,-25192744.9848,-3588430.8520,7835071.9403,-46293.361,0.000,0.000,0.0,0.0,GPS,11,-7250107.0172,24928361.9334,-6526795.0615,-220793.225,0.000,0.000,0.0,0.0,GPS,7,6596469.8046,14106185.0557,21687711.0583,58250.388,0.000,0.000,0.0,0.0,GPS,8,-6112488.5500,21824957.5754,13769046.8048,-30204.501,0.000,0.000,0.0,0.0,GPS,18,-15470081.6552,20309108.0623,-7420634.1063,2162.300,0.000,0.000,0.0,0.0,GPS,16,-20608428.7026,2090349.9033,16707897.1433,7571.816,0.000,0.000,0.0,0.0*0f5f7647
#BESTPOSA,USB1_1,0,57.5,FINESTEERING,2000,364284.000,00000000,7145,12778;SOL_COMPUTED,PSRDIFF,36.76971361606,126.93477951758,78.6910,23.3000,WGS84,1.3926,1.1526,2.3633,"0",1.200,0.000,8,7,7,7,0,1a,00,01*84184b3f
#BESTXYZA,USB1_1,0,57.5,FINESTEERING,2000,364284.000,00000000,bde7,12778;SOL_COMPUTED,PSRDIFF,-3073880.4944,4088852.8174,3797013.3156,1.8169,1.7800,1.5439,SOL_COMPUTED,PSRDIFF,0.0000,0.0000,0.0000,0.0008,0.0008,0.0008,"0",0.150,1.200,0.000,8,7,7,7,0,1a,00,01*b9c13cd3
#RANGEA,USB1_1,0,58.5,FINESTEERING,2000,364285.000,00000000,5103,12778;8,27,0,20424507.765,0.030,-107331500.658295,0.029,-1544.061,51.5,524.530,08009c04,26,0,23805795.321,0.077,-125100286.064177,0.034,-2480.977,43.4,522.440,08009c44,11,0,23848630.270,0.652,-125325366.943596,0.135,3706.530,31.8,37.910,08009c64,21,0,25589198.530,0.130,-134471987.852718,0.034,-2718.595,38.8,449.410,18009c84,7,0,22611437.877,0.038,-118823916.038368,0.028,2942.932,49.6,129.000,18009cc4,8,0,20602927.953,0.030,-108269106.268894,0.029,938.654,51.5,538.450,18009ce4,18,0,23290865.998,0.164,-122394333.805529,0.037,3801.199,38.8,83.940,18009d24,16,0,21859318.645,0.041,-114871483.421534,0.029,-1819.404,49.0,531.060,18009d44*07f0c9f8
#SATXYZ2A,USB1_1,0,58.5,FINESTEERING,2000,364285.000,00000000,7513,12778;7,GPS,27,-12769730.8715,9961098.4941,20920176.5147,110726.711,0.000,0.000,0.0,0.0,GPS,26,-25193579.8484,-3589031.9010,7832129.0176,-46293.357,0.000,0.000,0.0,0.0,GPS,11,-7250824.8136,24928848.0565,-6523906.6865,-220793.224,0.000,0.000,0.0,0.0,GPS,7,6594280.5157,14107781.8710,21687289.5060,58250.386,0.000,0.000,0.0,0.0,GPS,8,-6112965.9716,21823266.5817,13771538.2606,-30204.502,0.000,0.000,0.0,0.0,GPS,18,-15470954.7731,20309455.2392,-7417663.1181,2162.302,0.000,0.000,0.0,0.0,GPS,16,-20610286.9926,2089304.9663,16705796.2493,7571.816,0.000,0.000,0.0,0.0*8ebd6783
#BESTPOSA,USB1_1,0,58.5,FINESTEERING,2000,364285.000,00000000,7145,12778;SOL_COMPUTED,PSRDIFF,36.76971361606,126.93477951758,78.6910,23.3000,WGS84,1.3926,1.1526,2.3633,"0",1.000,0.000,8,7,7,7,0,1a,00,01*3cd1c1e4
#BESTXYZA,USB1_1,0,58.5,FINESTEERING,2000,364285.000,00000000,bde7,12778;SOL_COMPUTED,PSRDIFF,-3073880.4944,4088852.8174,3797013.3156,1.8169,1.7800,1.5439,SOL_COMPUTED,PSRDIFF,-4.9166e-11,-2.5352e-10,5.7792e-10,0.0008,0.0008,0.0008,"0",0.150,1.000,0.000,8,7,7,7,0,1a,00,01*305f267d
#RANGEA,USB1_1,0,58.0,FINESTEERING,2000,364286.000,00000000,5103,12778;8,27,0,20424800.503,0.030,-107333038.983692,0.028,-1538.053,51.5,525.530,08009c04,26,0,23806266.432,0.079,-125102761.733833,0.032,-2475.355,43.2,523.440,08009c44,11,0,23847923.601,0.667,-125321653.928976,0.142,3713.700,31.0,38.910,08009c64,21,0,25589714.624,0.136,-134474700.051348,0.036,-2711.574,38.4,450.410,18009c84,7,0,22610876.728,0.038,-118820967.229986,0.028,2949.042,49.6,130.000,18009cc4,8,0,20602748.209,0.031,-108268161.743668,0.028,944.715,51.4,539.450,18009ce4,18,0,23290141.502,0.158,-122390526.370619,0.036,3808.112,39.1,84.940,18009d24,16,0,21859663.684,0.040,-114873296.604860,0.028,-1812.914,49.0,532.060,18009d44*20b505ea
#SATXYZ2A,USB1_1,0,58.0,FINESTEERING,2000,364286.000,00000000,7513,12778;7,GPS,27,-12770209.0998,9958465.1414,20921160.1081,110726.710,0.000,0.000,0.0,0.0,GPS,26,-25194414.4016,-3589632.7716,7829185.9294,-46293.353,0.000,0.000,0.0,0.0,GPS,11,-7251542.4271,24929333.8988,-6521018.1760,-220793.224,0.000,0.000,0.0,0.0,GPS,7,6592091.3568,14109378.7852,21686867.4996,58250.385,0.000,0.000,0.0,0.0,GPS,8,-6113443.5417,21821575.3073,13774029.4221,-30204.503,0.000,0.000,0.0,0.0,GPS,18,-15471827.5946,20309802.2206,-7414691.9724,2162.303,0.000,0.000,0.0,0.0,GPS,16,-20612145.1088,2088260.2672,16703695.0020,7571.816,0.000,0.000,0.0,0.0*664e1b39
#BESTPOSA,USB1_1,0,58.0,FINESTEERING,2000,364286.000,00000000,7145,12778;SOL_COMPUTED,PSRDIFF,36.76971361606,126.93477951758,78.6910,23.3000,WGS84,1.3926,1.1526,2.3633,"0",1.400,0.000,8,7,7,7,0,1a,00,01*cc836d00
#BESTXYZA,USB1_1,0,58.0,FINESTEERING,2000,364286.000,00000000,bde7,12778;SOL_COMPUTED,PSRDIFF,-3073880.4944,4088852.8174,3797013.3156,1.8169,1.7800,1.5439,SOL_COMPUTED,PSRDIFF,-2.1264e-12,-1.0965e-11,2.4995e-11,0.0008,0.0008,0.0008,"0",0.150,1.400,0.000,8,7,7,7,0,1a,00,01*26760868
#RANGEA,USB1_1,0,58.0,FINESTEERING,2000,364287.000,00000000,5103,12778;8,27,0,20425093.559,0.031,-107334578.992767,0.026,-1542.159,51.4,526.530,08009c04,26,0,23806737.824,0.077,-125105238.804058,0.030,-2479.253,43.4,524.440,08009c44,11,0,23847217.381,0.745,-125317942.271935,0.093,3710.037,31.6,39.910,08009c64,21,0,25590231.017,0.138,-134477413.809607,0.034,-2715.872,38.3,451.410,18009c84,7,0,22610315.889,0.038,-118818020.012783,0.028,2945.164,49.6,131.000,18009cc4,8,0,20602568.800,0.031,-108267218.983749,0.026,940.576,51.4,540.450,18009ce4,18,0,23289417.302,0.158,-122386720.415230,0.087,3803.757,39.0,85.940,18009d24,16,0,21860009.003,0.040,-114875111.275244,0.027,-1816.743,49.1,533.060,18009d44*64fc71bc
#SATXYZ2A,USB1_1,0,58.0,FINESTEERING,2000,364287.000,00000000,7513,12778;7,GPS,27,-12770687.5053,9955831.6971,20922143.2511,110726.709,0.000,0.000,0.0,0.0,GPS,26,-25195248.6444,-3590233.4638,7826242.6759,-46293.349,0.000,0.000,0.0,0.0,GPS,11,-7252259.8575,24929819.4603,-6518129.5298,-220793.223,0.000,0.000,0.0,0.0,GPS,7,6589902.3277,14110975.7983,21686445.0389,58250.384,0.000,0.000,0.0,0.0,GPS,8,-6113921.2604,21819883.7523,13776520.2892,-30204.503,0.000,0.000,0.0,0.0,GPS,18,-15472700.1195,20310149.0065,-7411720.6695,2162.305,0.000,0.000,0.0,0.0,GPS,16,-20614003.0510,2087215.8060,16701593.4013,7571.816,0.000,0.000,0.0,0.0*79584486
#BESTPOSA,USB1_1,0,58.0,FINESTEERING,2000,364287.000,00000000,7145,12778;SOL_COMPUTED,PSRDIFF,36.76971369657,126.93477954170,78.6990,23.3000,WGS84,1.3893,1.1500,2.3594,"0",1.200,0.000,8,7,7,7,0,1a,00,01*dfa4477c
#BESTXYZA,USB1_1,0,58.0,FINESTEERING,2000,364287.000,00000000,bde7,12778;SOL_COMPUTED,PSRDIFF,-3073880.4968,4088852.8170,3797013.3275,1.8139,1.7770,1.5399,SOL_COMPUTED,PSRDIFF,-1.6410e-10,0.0000,0.0000,0.0008,0.0008,0.0008,"0",0.150,1.200,0.000,8,7,7,7,0,1a,00,01*2207c569
#RANGEA,USB1_1,0,58.0,FINESTEERING,2000,364288.000,00000000,5103,12778;8,27,0,20425386.777,0.031,-107336119.858397,0.030,-1538.990,51.4,527.530,08009c04,26,0,23807209.322,0.076,-125107716.499617,0.030,-2475.577,43.6,525.440,08009c44,11,0,23846511.122,0.686,-125314231.293720,0.107,3712.937,32.1,40.910,08009c64,21,0,25590747.579,0.137,-134480128.285076,0.035,-2712.165,38.4,452.410,18009c84,7,0,22609755.196,0.038,-118815073.607994,0.030,2948.380,49.6,132.000,18009cc4,8,0,20602389.570,0.031,-108266277.161831,0.030,943.688,51.4,541.450,18009ce4,18,0,23288693.220,0.151,-122382915.046839,0.060,3807.732,39.4,86.940,18009d24,16,0,21860354.448,0.039,-114876926.610895,0.030,-1813.306,49.2,534.060,18009d44*524f0261
#SATXYZ2A,USB1_1,0,58.0,FINESTEERING,2000,364288.000,00000000,7513,12778;7,GPS,27,-12771166.0879,9953198.1613,20923125.9439,110726.709,0.000,0.000,0.0,0.0,GPS,26,-25196082.5767,-3590833.9776,7823299.2571,-46293.344,0.000,0.000,0.0,0.0,GPS,11,-7252977.1050,24930304.7408,-6515240.7482,-220793.222,0.000,0.000,0.0,0.0,GPS,7,6587713.4286,14112572.9102,21686022.1241,58250.382,0.000,0.000,0.0,0.0,GPS,8,-6114399.1276,21818191.9166,13779010.8618,-30204.504,0.000,0.000,0.0,0.0,GPS,18,-15473572.3480,20310495.5967,-7408749.2093,2162.306,0.000,0.000,0.0,0.0,GPS,16,-20615860.8192,2086171.5828,16699491.4475,7571.816,0.000,0.000,0.0,0.0*48f6af81
#BESTPOSA,USB1_1,0,58.0,FINESTEERING,2000,364288.000,00000000,7145,12778;SOL_COMPUTED,PSRDIFF,36.76971519061,126.93477997894,78.8494,23.3000,WGS84,1.3252,1.1005,2.2700,"0",1.000,0.000,8,7,7,7,0,1a,00,01*c93ad540
#BESTXYZA,USB1_1,0,58.0,FINESTEERING,2000,364288.000,00000000,bde7,12778;SOL_COMPUTED,PSRDIFF,-3073880.5407,4088852.8105,3797013.5504,1.7483,1.7114,1.4609,SOL_COMPUTED,PSRDIFF,0.0000,0.0000,0.0000,0.0011,0.0011,0.0011,"0",0.150,1.000,0.000,8,7,7,7,0,1a,00,01*fd9cd794
#RANGEA,USB1_1,0,58.0,FINESTEERING,2000,364289.000,00000000,5103,12778;9,27,0,20425680.068,0.030,-107337661.065388,0.028,-1542.739,51.5,528.530,08009c04,9,0,23292296.125,12.247,-122401840.667208,0.127,-1710.424,30.1,0.230,08009424,26,0,23807680.842,0.074,-125110194.251957,0.031,-2479.246,43.8,526.440,08009c44,11,0,23845805.097,0.640,-125310520.373322,0.094,3709.156,32.3,41.910,08009c64,21,0,25591264.149,0.139,-134482842.958231,0.033,-2716.307,38.3,453.410,18009c84,7,0,22609194.551,0.038,-118812127.441544,0.028,2944.731,49.5,133.000,18009cc4,8,0,20602210.416,0.031,-108265335.753357,0.028,939.829,51.4,542.450,18009ce4,18,0,23287969.163,0.145,-122379109.763928,0.044,3804.067,39.8,87.940,18009d24,16,0,21860699.921,0.039,-114878742.069967,0.028,-1817.030,49.3,535.060,18009d44*c8c5c2b2
#SATXYZ2A,USB1_1,0,58.0,FINESTEERING,2000,364289.000,00000000,7513,12778;8,GPS,27,-12771644.8477,9950564.5340,20924108.1862,110726.708,0.000,0.000,0.0,0.0,GPS,9,8386535.5939,24393245.5392,6269802.9346,153924.327,0.000,0.000,0.0,0.0,GPS,26,-25196916.1984,-3591434.3130,7820355.6730,-46293.340,0.000,0.000,0.0,0.0,GPS,11,-7253694.1696,24930789.7404,-6512351.8312,-220793.221,0.000,0.000,0.0,0.0,GPS,7,6585524.6596,14114170.1208,21685598.7552,58250.381,0.000,0.000,0.0,0.0,GPS,8,-6114877.1435,21816499.8004,13781501.1399,-30204.504,0.000,0.000,0.0,0.0,GPS,18,-15474444.2800,20310841.9914,-7405777.5919,2162.308,0.000,0.000,0.0,0.0,GPS,16,-20617718.4134,2085127.5975,16697389.1404,7571.815,0.000,0.000,0.0,0.0*43ab7cbd
#BESTPOSA,USB1_1,0,58.0,FINESTEERING,2000,364289.000,00000000,7145,12778;SOL_COMPUTED,PSRDIFF,36.76971519061,126.93477997894,78.8494,23.3000,WGS84,1.3323,1.1064,2.2821,"0",1.400,0.000,9,7,7,7,0,1a,00,01*698c1ee4
#BESTXYZA,USB1_1,0,58.0,FINESTEERING,2000,364289.000,00000000,bde7,12778;SOL_COMPUTED,PSRDIFF,-3073880.5407,4088852.8105,3797013.5504,1.7577,1.7206,1.4688,SOL_COMPUTED,PSRDIFF,6.5490e-10,4.6759e-10,2.6411e-10,0.0008,0.0008,0.0008,"0",0.150,1.400,0.000,9,7,7,7,0,1a,00,01*26b84a52
#RANGEA,USB1_1,0,59.5,FINESTEERING,2000,364290.000,00000000,5103,12778;9,27,0,20425973.344,0.030,-107339202.234312,0.031,-1538.860,51.5,529.530,08009c04,9,0,23292621.692,2.613,-122403550.367277,0.102,-1707.658,31.4,1.230,08009424,26,0,23808152.308,0.073,-125112671.710449,0.033,-2474.825,43.9,527.440,08009c44,11,0,23845099.083,0.997,-125306809.162781,0.124,3713.231,31.9,42.910,08009c64,21,0,25591780.684,0.129,-134485557.426985,0.071,-2711.695,38.9,454.410,18009c84,7,0,22608633.888,0.039,-118809181.171057,0.032,2948.649,49.3,134.000,18009cc4,8,0,20602031.279,0.031,-108264394.385803,0.031,943.628,51.4,543.450,18009ce4,18,0,23287245.029,0.137,-122375304.185770,0.039,3808.021,40.2,88.940,18009d24,16,0,21861045.349,0.039,-114880557.280573,0.032,-1812.618,49.4,536.060,18009d44*9813b459
#SATXYZ2A,USB1_1,0,59.5,FINESTEERING,2000,364290.000,00000000,7513,12778;8,GPS,27,-12772123.7846,9947930.8154,20925089.9782,110726.708,0.000,0.000,0.0,0.0,GPS,9,8386369.6811,24394083.0308,6266779.2310,153924.327,0.000,0.000,0.0,0.0,GPS,26,-25197749.5096,-3592034.4702,7817411.9238,-46293.336,0.000,0.000,0.0,0.0,GPS,11,-7254411.0513,24931274.4590,-6509462.7788,-220793.220,0.000,0.000,0.0,0.0,GPS,7,6583336.0206,14115767.4302,21685174.9320,58250.380,0.000,0.000,0.0,0.0,GPS,8,-6115355.3080,21814807.4037,13783991.1233,-30204.505,0.000,0.000,0.0,0.0,GPS,18,-15475315.9155,20311188.1903,-7402805.8174,2162.309,0.000,0.000,0.0,0.0,GPS,16,-20619575.8335,2084083.8500,16695286.4802,7571.815,0.000,0.000,0.0,0.0*19fbebb6
#BESTPOSA,USB1_1,0,59.5,FINESTEERING,2000,364290.000,00000000,7145,12778;SOL_COMPUTED,PSRDIFF,36.76971519061,126.93477997894,78.8494,23.3000,WGS84,1.3358,1.1093,2.2881,"0",1.200,0.000,9,8,8,8,0,1a,00,01*bc6cf45b
#BESTXYZA,USB1_1,0,59.5,FINESTEERING,2000,364290.000,00000000,bde7,12778;SOL_COMPUTED,PSRDIFF,-3073880.5407,4088852.8105,3797013.5504,1.7623,1.7251,1.4727,SOL_COMPUTED,PSRDIFF,2.8310e-11,2.0213e-11,1.1417e-11,0.0008,0.0008,0.0008,"0",0.150,1.200,0.000,9,8,8,8,0,1a,00,01*4e643df8
#RANGEA,USB1_1,0,55.5,FINESTEERING,2000,364291.000,00000000,5103,12778;9,27,0,20426266.649,0.030,-107340743.553860,0.028,-1539.695,51.5,530.530,08009c04,9,0,23292944.035,2.524,-122405248.212179,0.111,-1708.790,30.9,0.330,08009424,26,0,23808623.763,0.074,-125115149.109310,0.031,-2475.871,43.8,528.440,08009c44,11,0,23844392.745,0.950,-125303097.845322,0.110,3712.143,32.0,43.910,08009c64,21,0,25592297.220,0.130,-134488271.920752,0.049,-2712.833,38.8,455.410,18009c84,7,0,22608073.232,0.039,-118806234.969404,0.029,2947.957,49.2,135.000,18009cc4,8,0,20601852.183,0.031,-108263453.261358,0.028,942.723,51.4,544.450,18009ce4,18,0,23286520.911,0.139,-122371498.532559,0.034,3807.473,40.0,89.940,18009d24,16,0,21861390.765,0.039,-114882372.453167,0.029,-1813.385,49.4,537.060,18009d44*5a6509ff
#SATXYZ2A,USB1_1,0,55.5,FINESTEERING,2000,364291.000,00000000,7513,12778;8,GPS,27,-12772602.8987,9945297.0054,20926071.3198,110726.707,0.000,0.000,0.0,0.0,GPS,9,8386203.7563,24394920.1566,6263755.3938,153924.327,0.000,0.000,0.0,0.0,GPS,26,-25198582.5102,-3592634.4491,7814468.0094,-46293.332,0.000,0.000,0.0,0.0,GPS,11,-7255127.7501,24931758.8967,-6506573.5911,-220793.219,0.000,0.000,0.0,0.0,GPS,7,6581147.5117,14117364.8383,21684750.6548,58250.379,0.000,0.000,0.0,0.0,GPS,8,-6115833.6211,21813114.7265,13786480.8122,-30204.505,0.000,0.000,0.0,0.0,GPS,18,-15476187.2545,20311534.1935,-7399833.8859,2162.311,0.000,0.000,0.0,0.0,GPS,16,-20621433.0795,2083040.3405,16693183.4669,7571.815,0.000,0.000,0.0,0.0*707f2d99
#BESTPOSA,USB1_1,0,55.5,FINESTEERING,2000,364291.000,00000000,7145,12778;SOL_COMPUTED,PSRDIFF,36.76971525627,126.93477999746,78.8559,23.3000,WGS84,1.3347,1.1084,2.2877,"0",1.000,0.000,9,7,7,7,0,1a,00,01*82743e4d
#BESTXYZA,USB1_1,0,55.5,FINESTEERING,2000,364291.000,00000000,bde7,12778;SOL_COMPUTED,PSRDIFF,-3073880.5426,4088852.8102,3797013.5601,1.7620,1.7247,1.4712,SOL_COMPUTED,PSRDIFF,-5.9530e-11,-5.2828e-10,0.0000,0.0008,0.0008,0.0008,"0",0.150,1.000,0.000,9,7,7,7,0,1a,00,01*c85e5144
#RANGEA,USB1_1,0,55.5,FINESTEERING,2000,364292.000,00000000,5103,12778;9,27,0,20426559.912,0.030,-107342284.664133,0.029,-1544.740,51.5,531.530,08009c04,9,0,23293271.938,2.031,-122406957.850473,0.139,-1713.896,31.9,1.330,08009424,26,0,23809095.125,0.074,-125117626.019350,0.031,-2480.729,43.8,529.440,08009c44,11,0,23843686.471,0.897,-125299386.012522,0.138,3707.732,32.2,44.910,08009c64,21,0,25592813.703,0.134,-134490986.048544,0.040,-2717.344,38.6,456.410,18009c84,7,0,22607512.512,0.040,-118803288.463995,0.030,2942.959,49.2,136.000,18009cc4,8,0,20601673.059,0.031,-108262511.971693,0.029,937.592,51.4,545.450,18009ce4,18,0,23285796.688,0.135,-122367692.364386,0.033,3802.569,40.2,90.940,18009d24,16,0,21861736.105,0.039,-114884187.192411,0.029,-1818.010,49.4,538.060,18009d44*5b2ea52d
#SATXYZ2A,USB1_1,0,55.5,FINESTEERING,2000,364292.000,00000000,7513,12778;8,GPS,27,-12773082.1900,9942663.1041,20927052.2109,110726.706,0.000,0.000,0.0,0.0,GPS,9,8386037.8195,24395756.9164,6260731.4231,153924.327,0.000,0.000,0.0,0.0,GPS,26,-25199415.2001,-3593234.2498,7811523.9300,-46293.328,0.000,0.000,0.0,0.0,GPS,11,-7255844.2661,24932243.0533,-6503684.2682,-220793.218,0.000,0.000,0.0,0.0,GPS,7,6578959.1331,14118962.3450,21684325.9233,58250.377,0.000,0.000,0.0,0.0,GPS,8,-6116312.0829,21811421.7689,13788970.2063,-30204.506,0.000,0.000,0.0,0.0,GPS,18,-15477058.2971,20311880.0009,-7396861.7973,2162.312,0.000,0.000,0.0,0.0,GPS,16,-20623290.1512,2081997.0688,16691080.1006,7571.815,0.000,0.000,0.0,0.0*d05a73e3
#BESTPOSA,USB1_1,0,55.5,FINESTEERING,2000,364292.000,00000000,7145,12778;SOL_COMPUTED,PSRDIFF,36.76971648993,126.93478034747,78.9801,23.3000,WGS84,1.2770,1.0687,2.1845,"0",1.400,0.000,9,8,8,8,0,0a,00,01*fe61053c
#BESTXYZA,USB1_1,0,55.5,FINESTEERING,2000,364292.000,00000000,bde7,12778;SOL_COMPUTED,PSRDIFF,-3073880.5781,4088852.8054,3797013.7441,1.6895,1.6535,1.3988,SOL_COMPUTED,PSRDIFF,-0.0024,0.0002,0.0047,0.2816,0.2816,0.2803,"0",0.150,1.400,0.000,9,8,8,8,0,0a,00,01*ff621416
#RANGEA,USB1_1,0,55.5,FINESTEERING,2000,364293.000,00000000,5103,12778;9,27,0,20426853.384,0.030,-107343826.865505,0.027,-1541.975,51.6,532.530,08009c04,9,0,23293595.859,1.533,-122408676.587877,0.123,-1711.778,32.2,0.400,08009424,26,0,23809566.622,0.073,-125120103.723503,0.030,-2477.305,43.9,530.440,08009c44,11,0,23842980.353,0.477,-125295674.915560,0.117,3711.600,32.0,45.910,08009c64,21,0,25593330.358,0.129,-134493701.155939,0.072,-2714.743,38.9,457.410,18009c84,7,0,22606951.979,0.039,-118800342.970444,0.028,2945.805,49.2,137.000,18009cc4,8,0,20601494.150,0.031,-108261571.837597,0.027,940.245,51.4,546.450,18009ce4,18,0,23285072.616,0.130,-122363887.022341,0.070,3805.811,40.4,91.940,18009d24,16,0,21862081.611,0.038,-114886002.807776,0.027,-1815.269,49.4,539.060,18009d44*d19d17a9
#SATXYZ2A,USB1_1,0,55.5,FINESTEERING,2000,364293.000,00000000,7513,12778;8,GPS,27,-12773561.6584,9940029.1117,20928032.6516,110726.706,0.000,0.000,0.0,0.0,GPS,9,8385871.8706,24396593.3103,6257707.3190,153924.328,0.000,0.000,0.0,0.0,GPS,26,-25200247.5793,-3593833.8722,7808579.6856,-46293.324,0.000,0.000,0.0,0.0,GPS,11,-7256560.5993,24932726.9288,-6500794.8101,-220793.217,0.000,0.000,0.0,0.0,GPS,7,6576770.8846,14120559.9502,21683900.7378,58250.376,0.000,0.000,0.0,0.0,GPS,8,-6116790.6935,21809728.5309,13791459.3057,-30204.506,0.000,0.000,0.0,0.0,GPS,18,-15477929.0432,20312225.6125,-7393889.5518,2162.314,0.000,0.000,0.0,0.0,GPS,16,-20625147.0486,2080954.0350,16688976.3812,7571.815,0.000,0.000,0.0,0.0*f5211808
#BESTPOSA,USB1_1,0,55.5,FINESTEERING,2000,364293.000,00000000,7145,12778;SOL_COMPUTED,PSRDIFF,36.76971647385,126.93478033521,78.9781,23.3000,WGS84,1.2994,1.0883,2.2101,"0",1.200,0.000,9,7,7,7,0,1a,00,01*14052170
#BESTXYZA,USB1_1,0,55.5,FINESTEERING,2000,364293.000,00000000,bde7,12778;SOL_COMPUTED,PSRDIFF,-3073880.5769,4088852.8056,3797013.7415,1.7113,1.6753,1.4220,SOL_COMPUTED,PSRDIFF,-2.8263e-10,0.0000,0.0000,0.0008,0.0008,0.0008,"0",0.150,1.200,0.000,9,7,7,7,0,1a,00,01*f37c9314
#RANGEA,USB1_1,0,56.0,FINESTEERING,2000,364294.000,00000000,5103,12778;9,27,0,20427146.932,0.030,-107345369.449303,0.030,-1548.064,51.5,533.530,08009c04,9,0,23293922.905,1.724,-122410387.707048,0.105,-1716.835,31.1,1.400,08009424,26,0,23810038.159,0.075,-125122581.598356,0.033,-2483.239,43.6,531.440,08009c44,11,0,23842274.142,0.461,-125291964.175301,0.122,3705.319,32.2,46.910,08009c64,21,0,25593847.079,0.128,-134496416.479136,0.052,-2720.671,38.9,458.410,18009c84,7,0,22606391.517,0.040,-118797397.785242,0.031,2939.835,49.1,138.000,18009cc4,8,0,20601315.334,0.031,-108260632.173483,0.030,934.134,51.4,547.450,18009ce4,18,0,23284348.559,0.127,-122360081.813662,0.051,3799.894,40.6,92.940,18009d24,16,0,21862427.157,0.039,-114887818.617689,0.030,-1821.263,49.3,540.060,18009d44*45ded8a3
#SATXYZ2A,USB1_1,0,56.0,FINESTEERING,2000,364294.000,00000000,7513,12778;8,GPS,27,-12774041.3041,9937395.0282,20929012.6419,110726.705,0.000,0.000,0.0,0.0,GPS,9,8385705.9096,24397429.3382,6254683.0815,153924.328,0.000,0.000,0.0,0.0,GPS,26,-25201079.6478,-3594433.3166,7805635.2763,-46293.320,0.000,0.000,0.0,0.0,GPS,11,-7257276.7498,24933210.5232,-6497905.2168,-220793.216,0.000,0.000,0.0,0.0,GPS,7,6574582.7664,14122157.6541,21683475.0981,58250.375,0.000,0.000,0.0,0.0,GPS,8,-6117269.4528,21808035.0127,13793948.1104,-30204.507,0.000,0.000,0.0,0.0,GPS,18,-15478799.4930,20312571.0281,-7390917.1494,2162.315,0.000,0.000,0.0,0.0,GPS,16,-20627003.7716,2079911.2391,16686872.3089,7571.815,0.000,0.000,0.0,0.0*e9c9ca77
#BESTPOSA,USB1_1,0,56.0,FINESTEERING,2000,364294.000,00000000,7145,12778;SOL_COMPUTED,PSRDIFF,36.76971653949,126.93478041329,78.9942,23.3000,WGS84,1.3114,1.0979,2.2315,"0",2.200,0.000,9,8,8,8,0,1a,00,01*90d76959
#BESTXYZA,USB1_1,0,56.0,FINESTEERING,2000,364294.000,00000000,bde7,12778;SOL_COMPUTED,PSRDIFF,-3073880.5876,4088852.8082,3797013.7569,1.7275,1.6918,1.4347,SOL_COMPUTED,PSRDIFF,0.0000,0.0000,0.0000,0.0008,0.0008,0.0008,"0",0.150,2.200,0.000,9,8,8,8,0,1a,00,01*01dba766
#RANGEA,USB1_1,0,56.0,FINESTEERING,2000,364295.000,00000000,5103,12778;9,27,0,20427441.204,0.031,-107346915.862587,0.025,-1546.762,51.4,534.530,08009c04,9,0,23294246.576,1.770,-122412102.797295,0.152,-1716.388,30.6,2.400,08009424,26,0,23810510.385,0.075,-125125063.044104,0.030,-2481.513,43.6,532.440,08009c44,11,0,23841568.597,0.459,-125288256.845491,0.115,3707.409,32.2,47.910,08009c64,21,0,25594364.491,0.135,-134499135.493721,0.039,-2719.335,38.6,459.410,18009c84,7,0,22605831.772,0.040,-118794456.376907,0.027,2941.026,49.0,139.000,18009cc4,8,0,20601137.257,0.031,-108259696.405878,0.025,935.390,51.4,548.450,18009ce4,18,0,23283625.191,0.129,-122356280.199757,0.038,3801.792,40.5,93.940,18009d24,16,0,21862773.388,0.039,-114889638.052897,0.025,-1819.773,49.3,541.060,18009d44*a15cd2d7
#SATXYZ2A,USB1_1,0,56.0,FINESTEERING,2000,364295.000,00000000,7513,12778;8,GPS,27,-12774521.1269,9934760.8536,20929992.1816,110726.705,0.000,0.000,0.0,0.0,GPS,9,8385539.9363,24398265.0001,6251658.7106,153924.328,0.000,0.000,0.0,0.0,GPS,26,-25201911.4056,-3595032.5828,7802690.7021,-46293.316,0.000,0.000,0.0,0.0,GPS,11,-7257992.7174,24933693.8365,-6495015.4885,-220793.215,0.000,0.000,0.0,0.0,GPS,7,6572394.7785,14123755.4564,21683049.0042,58250.373,0.000,0.000,0.0,0.0,GPS,8,-6117748.3610,21806341.2141,13796436.6201,-30204.508,0.000,0.000,0.0,0.0,GPS,18,-15479669.6463,20312916.2478,-7387944.5902,2162.317,0.000,0.000,0.0,0.0,GPS,16,-20628860.3203,2078868.6810,16684767.8837,7571.815,0.000,0.000,0.0,0.0*3d016933
#BESTPOSA,USB1_1,0,56.0,FINESTEERING,2000,364295.000,00000000,7145,12778;SOL_COMPUTED,PSRDIFF,36.76971653302,126.93478041350,78.9883,23.3000,WGS84,1.3168,1.1045,2.2306,"0",2.000,0.000,9,8,8,8,0,1a,00,01*9dca621e
#BESTXYZA,USB1_1,0,56.0,FINESTEERING,2000,364295.000,00000000,bde7,12778;SOL_COMPUTED,PSRDIFF,-3073880.5850,4088852.8049,3797013.7529,1.7290,1.6938,1.4392,SOL_COMPUTED,PSRDIFF,0.0000,0.0000,0.0000,0.0010,0.0010,0.0010,"0",0.150,2.000,0.000,9,8,8,8,0,1a,00,01*bd97654c
#RANGEA,USB1_1,0,59.5,FINESTEERING,2000,364296.000,00000000,5103,12778;9,27,0,20427735.299,0.031,-107348461.352438,0.028,-1545.127,51.4,535.530,08009c04,9,0,23294571.525,1.603,-122413816.844519,0.113,-1713.015,31.5,3.400,08009424,26,0,23810982.384,0.077,-125127543.293753,0.029,-2479.939,43.4,533.440,08009c44,11,0,23840862.892,0.493,-125284548.398768,0.118,3709.167,32.2,48.910,08009c64,21,0,25594881.702,0.137,-134501853.461834,0.082,-2717.896,38.4,460.410,18009c84,7,0,22605271.828,0.041,-118791513.929638,0.029,2942.728,49.0,140.000,18009cc4,8,0,20600959.022,0.031,-108258759.768246,0.028,936.840,51.4,549.450,18009ce4,18,0,23282901.588,0.127,-122352477.396742,0.034,3803.397,40.5,94.940,18009d24,16,0,21863119.405,0.040,-114891456.335638,0.027,-1817.995,49.2,542.060,18009d44*dbe49440
#SATXYZ2A,USB1_1,0,59.5,FINESTEERING,2000,364296.000,00000000,7513,12778;8,GPS,27,-12775001.1269,9932126.5880,20930971.2709,110726.704,0.000,0.000,0.0,0.0,GPS,9,8385373.9507,24399100.2961,6248634.2066,153924.328,0.000,0.000,0.0,0.0,GPS,26,-25202742.8525,-3595631.6709,7799745.9631,-46293.312,0.000,0.000,0.0,0.0,GPS,11,-7258708.5024,24934176.8685,-6492125.6252,-220793.214,0.000,0.000,0.0,0.0,GPS,7,6570206.9210,14125353.3571,21682622.4563,58250.372,0.000,0.000,0.0,0.0,GPS,8,-6118227.4180,21804647.1354,13798924.8350,-30204.508,0.000,0.000,0.0,0.0,GPS,18,-15480539.5032,20313261.2715,-7384971.8743,2162.318,0.000,0.000,0.0,0.0,GPS,16,-20630716.6944,2077826.3608,16682663.1055,7571.814,0.000,0.000,0.0,0.0*564882aa
#BESTPOSA,USB1_1,0,59.5,FINESTEERING,2000,364296.000,00000000,7145,12778;SOL_COMPUTED,PSRDIFF,36.76971653302,126.93478041350,78.9883,23.3000,WGS84,1.3272,1.1132,2.2482,"0",2.400,0.000,9,8,8,8,0,1a,00,01*ecd8c925
#BESTXYZA,USB1_1,0,59.5,FINESTEERING,2000,364296.000,00000000,bde7,12778;SOL_COMPUTED,PSRDIFF,-3073880.5850,4088852.8049,3797013.7529,1.7426,1.7071,1.4506,SOL_COMPUTED,PSRDIFF,0.0000,-8.7613e-10,0.0000,0.0008,0.0008,0.0008,"0",0.150,2.400,0.000,9,8,8,8,0,1a,00,01*4a08be1c
#RANGEA,USB1_1,0,59.5,FINESTEERING,2000,364297.000,00000000,5103,12778;9,27,0,20428029.181,0.031,-107350005.719168,0.029,-1544.072,51.4,536.530,08009c04,9,0,23294896.650,1.265,-122415529.911411,0.118,-1712.811,31.7,4.400,08009c24,26,0,23811454.109,0.081,-125130022.185242,0.032,-2478.602,43.0,534.440,08009c44,11,0,23840156.887,0.454,-125280838.605276,0.112,3709.477,32.6,49.910,08009c64,21,0,25595398.658,0.137,-134504570.113073,0.078,-2716.355,38.4,461.410,18009c84,7,0,22604711.659,0.041,-118788570.289175,0.031,2943.927,48.9,141.000,18009cc4,8,0,20600780.584,0.031,-108257822.088659,0.030,937.972,51.4,550.450,18009ce4,18,0,23282177.721,0.131,-122348673.236364,0.035,3804.603,40.2,95.940,18009d24,16,0,21863465.164,0.040,-114893273.296471,0.030,-1816.650,49.2,543.060,18009d44*16cf6282
#SATXYZ2A,USB1_1,0,59.5,FINESTEERING,2000,364297.000,00000000,7513,12778;8,GPS,27,-12775481.3042,9929492.2316,20931949.9096,110726.703,0.000,0.000,0.0,0.0,GPS,9,8385207.9529,24399935.2261,6245609.5693,153924.328,0.000,0.000,0.0,0.0,GPS,26,-25203573.9886,-3596230.5810,7796801.0594,-46293.308,0.000,0.000,0.0,0.0,GPS,11,-7259424.1047,24934659.6193,-6489235.6269,-220793.213,0.000,0.000,0.0,0.0,GPS,7,6568019.1938,14126951.3563,21682195.4542,58250.371,0.000,0.000,0.0,0.0,GPS,8,-6118706.6238,21802952.7765,13801412.7549,-30204.509,0.000,0.000,0.0,0.0,GPS,18,-15481409.0638,20313606.0991,-7381999.0017,2162.320,0.000,0.000,0.0,0.0,GPS,16,-20632572.8941,2076784.2784,16680557.9746,7571.814,0.000,0.000,0.0,0.0*31fdceb5
#BESTPOSA,USB1_1,0,59.5,FINESTEERING,2000,364297.000,00000000,7145,12778;SOL_COMPUTED,PSRDIFF,36.76971660543,126.93478044712,78.9983,23.3000,WGS84,1.3294,1.1146,2.2528,"0",2.200,0.000,9,8,8,8,0,1a,00,01*97d4e5d7
#BESTXYZA,USB1_1,0,59.5,FINESTEERING,2000,364297.000,00000000,bde7,12778;SOL_COMPUTED,PSRDIFF,-3073880.5893,4088852.8055,3797013.7652,1.7458,1.7110,1.4524,SOL_COMPUTED,PSRDIFF,-2.8069e-10,-9.2265e-10,0.0000,0.0008,0.0008,0.0008,"0",0.150,2.200,0.000,9,8,8,8,0,1a,00,01*27b444ce
#RANGEA,USB1_1,0,57.0,FINESTEERING,2000,364298.000,00000000,5103,12778;9,27,0,20428323.579,0.031,-107351552.783720,0.027,-1547.823,51.4,537.530,08009c04,9,0,23295224.294,1.441,-122417228.720888,0.110,-1716.146,29.6,0.230,08009424,26,0,23811926.297,0.079,-125132503.480042,0.029,-2481.725,43.2,535.440,08009c44,11,0,23839451.205,0.454,-125277131.128634,0.115,3707.656,32.2,50.910,08009c64,21,0,25595916.108,0.132,-134507289.328409,0.054,-2719.510,38.7,462.410,18009c84,7,0,22604151.991,0.042,-118785629.282774,0.027,2940.255,48.8,142.000,18009cc4,8,0,20600602.673,0.031,-108256887.180908,0.027,934.155,51.4,551.450,18009ce4,18,0,23281454.308,0.126,-122344871.499313,0.030,3800.966,40.6,96.940,18009d24,16,0,21863811.396,0.040,-114895092.755867,0.027,-1820.036,49.2,544.060,18009d44*cf023db3
#SATXYZ2A,USB1_1,0,57.0,FINESTEERING,2000,364298.000,00000000,7513,12778;8,GPS,27,-12775961.6586,9926857.7843,20932928.0978,110726.703,0.000,0.000,0.0,0.0,GPS,9,8385041.9427,24400769.7901,6242584.7990,153924.329,0.000,0.000,0.0,0.0,GPS,26,-25204404.8138,-3596829.3130,7793855.9910,-46293.304,0.000,0.000,0.0,0.0,GPS,11,-7260139.5243,24935142.0889,-6486345.4937,-220793.212,0.000,0.000,0.0,0.0,GPS,7,6565831.5972,14128549.4539,21681767.9981,58250.370,0.000,0.000,0.0,0.0,GPS,8,-6119185.9785,21801258.1375,13803900.3798,-30204.509,0.000,0.000,0.0,0.0,GPS,18,-15482278.3280,20313950.7307,-7379025.9724,2162.322,0.000,0.000,0.0,0.0,GPS,16,-20634428.9191,2075742.4338,16678452.4909,7571.814,0.000,0.000,0.0,0.0*d086cfa6
#BESTPOSA,USB1_1,0,57.0,FINESTEERING,2000,364298.000,00000000,7145,12778;SOL_COMPUTED,PSRDIFF,36.76971660543,126.93478044712,78.9983,23.3000,WGS84,1.3320,1.1167,2.2572,"0",2.000,0.000,9,7,7,7,0,1a,00,01*f3dc7f4b
#BESTXYZA,USB1_1,0,57.0,FINESTEERING,2000,364298.000,00000000,bde7,12778;SOL_COMPUTED,PSRDIFF,-3073880.5893,4088852.8055,3797013.7652,1.7492,1.7143,1.4553,SOL_COMPUTED,PSRDIFF,-1.2140e-11,-3.9904e-11,9.2737e-11,0.0008,0.0008,0.0008,"0",0.150,2.000,0.000,9,7,7,7,0,1a,00,01*64d0eec0
#RANGEA,USB1_1,0,56.5,FINESTEERING,2000,364299.000,00000000,5103,12778;8,27,0,20428618.014,0.031,-107353100.064581,0.027,-1546.497,51.3,538.530,08009c04,26,0,23812398.482,0.081,-125134984.776724,0.029,-2479.938,42.9,536.440,08009c44,11,0,23838745.693,0.431,-125273423.731205,0.139,3708.107,32.5,51.910,08009c64,21,0,25596433.593,0.133,-134510008.654968,0.042,-2719.013,38.7,463.410,18009c84,7,0,22603592.342,0.042,-118782688.424322,0.028,2941.616,48.8,143.000,18009cc4,8,0,20600424.818,0.031,-108255952.570656,0.027,935.257,51.4,552.450,18009ce4,18,0,23280730.874,0.122,-122341069.700943,0.032,3802.980,40.8,97.940,18009d24,16,0,21864157.638,0.040,-114896912.245569,0.027,-1818.917,49.2,545.060,18009d44*8bbb4861
#SATXYZ2A,USB1_1,0,56.5,FINESTEERING,2000,364299.000,00000000,7513,12778;7,GPS,27,-12776442.1903,9924223.2462,20933905.8354,110726.702,0.000,0.000,0.0,0.0,GPS,26,-25205235.3281,-3597427.8671,7790910.7579,-46293.300,0.000,0.000,0.0,0.0,GPS,11,-7260854.7613,24935624.2772,-6483455.2258,-220793.211,0.000,0.000,0.0,0.0,GPS,7,6563644.1310,14130147.6497,21681340.0878,58250.368,0.000,0.000,0.0,0.0,GPS,8,-6119665.4822,21799563.2184,13806387.7096,-30204.510,0.000,0.000,0.0,0.0,GPS,18,-15483147.2958,20314295.1660,-7376052.7866,2162.323,0.000,0.000,0.0,0.0,GPS,16,-20636284.7695,2074700.8271,16676346.6544,7571.814,0.000,0.000,0.0,0.0*1b728a6d
#BESTPOSA,USB1_1,0,56.5,FINESTEERING,2000,364299.000,00000000,7145,12778;SOL_COMPUTED,PSRDIFF,36.76971667883,126.93478045974,79.0050,23.3000,WGS84,1.3304,1.1154,2.2560,"0",2.400,0.000,8,7,7,7,0,1a,00,01*511f9c47
#BESTXYZA,USB1_1,0,56.5,FINESTEERING,2000,364299.000,00000000,bde7,12778;SOL_COMPUTED,PSRDIFF,-3073880.5905,4088852.8053,3797013.7758,1.7482,1.7133,1.4532,SOL_COMPUTED,PSRDIFF,3.0552e-10,0.0000,0.0000,0.0008,0.0008,0.0008,"0",0.150,2.400,0.000,8,7,7,7,0,1a,00,01*dc47f15c
#RANGEA,USB1_1,0,56.5,FINESTEERING,2000,364300.000,00000000,5103,12778;8,27,0,20428912.655,0.031,-107354648.428427,0.027,-1547.846,51.3,539.530,08009c04,26,0,23812870.815,0.082,-125137466.905912,0.029,-2481.797,42.8,537.440,08009c44,11,0,23838040.427,0.436,-125269717.114090,0.105,3707.946,32.2,52.910,08009c64,21,0,25596951.270,0.132,-134512728.923260,0.035,-2719.954,38.7,464.410,18009c84,7,0,22603032.887,0.041,-118779748.564615,0.027,2940.315,48.9,144.000,18009cc4,8,0,20600247.183,0.030,-108255019.111668,0.026,933.814,51.4,553.450,18009ce4,18,0,23280007.628,0.125,-122337268.734020,0.032,3801.674,40.4,98.940,18009d24,16,0,21864504.046,0.040,-114898732.591545,0.027,-1819.843,49.1,546.060,18009d44*3073768e
#SATXYZ2A,USB1_1,0,56.5,FINESTEERING,2000,364300.000,00000000,7513,12778;7,GPS,27,-12776922.8992,9921588.6174,20934883.1225,110726.702,0.000,0.000,0.0,0.0,GPS,26,-25206065.5314,-3598026.2433,7787965.3603,-46293.296,0.000,0.000,0.0,0.0,GPS,11,-7261569.8157,24936106.1841,-6480564.8230,-220793.210,0.000,0.000,0.0,0.0,GPS,7,6561456.7954,14131745.9438,21680911.7235,58250.367,0.000,0.000,0.0,0.0,GPS,8,-6120145.1348,21797868.0193,13808874.7443,-30204.510,0.000,0.000,0.0,0.0,GPS,18,-15484015.9673,20314639.4052,-7373079.4443,2162.325,0.000,0.000,0.0,0.0,GPS,16,-20638140.4451,2073659.4582,16674240.4653,7571.814,0.000,0.000,0.0,0.0*91cbacb1
