#RANGEA,USB1_1,0,66.5,FINESTEERING,2000,308441.000,00000000,5103,12778;8,2,0,21433704.869,0.086,-112634876.464715,0.031,1583.300,42.4,319.760,08009c04,12,0,23540695.607,1.041,-123707185.773537,0.098,-1774.921,33.6,5.970,08009c24,23,0,24789827.019,0.078,-130271388.638732,0.031,-2704.083,43.3,461.830,18009c44,5,0,21837913.185,0.036,-114758972.453597,0.029,2203.707,50.1,492.580,18009c84,6,0,20684147.407,0.041,-108695929.513119,0.028,-697.327,48.9,319.944,08009ca4,17,0,22669861.090,0.050,-119130879.863097,0.029,-3214.558,47.2,487.860,18009ce4,9,0,21656883.405,0.051,-113807688.965621,0.029,-1204.747,46.9,319.934,08009d04,19,0,21648630.693,0.047,-113764282.789273,0.028,-2811.368,47.7,486.820,08009d44*5bc233c5
#SATXYZ2A,USB1_1,0,66.5,FINESTEERING,2000,308441.000,00000000,7513,12778;8,GPS,2,-2595254.4668,15506574.8147,21972759.7201,36154.233,0.000,0.000,0.0,0.0,GPS,12,10014361.1473,23341497.1427,7911610.4677,100360.410,0.000,0.000,0.0,0.0,GPS,23,-11452737.8855,-10767309.6321,21696652.1463,-65119.186,0.000,0.000,0.0,0.0,GPS,5,1013501.5430,25052685.6614,8335310.9705,-2476.431,0.000,0.000,0.0,0.0,GPS,6,-17237077.8647,8452652.3655,18399258.0483,121255.460,0.000,0.000,0.0,0.0,GPS,17,-21046239.8423,15512340.8544,-3888878.1137,-29860.211,0.000,0.000,0.0,0.0,GPS,9,-19450153.4519,1618164.6512,17989406.7014,153911.998,0.000,0.000,0.0,0.0,GPS,19,-19337370.6049,18126377.4118,2592972.1479,-131211.096,0.000,0.000,0.0,0.0*53edd7b1
#BESTPOSA,USB1_1,0,66.5,FINESTEERING,2000,308441.000,00000000,7145,12778;SOL_COMPUTED,PSRDIFF,36.76858581859,126.93549709773,75.5204,23.3000,WGS84,0.6920,0.6330,1.7186,"0",2.000,0.000,8,8,8,8,0,1a,00,01*02af10f3
#BESTXYZA,USB1_1,0,66.5,FINESTEERING,2000,308441.000,00000000,bde7,12778;SOL_COMPUTED,PSRDIFF,-3073975.1968,4088872.1724,3796911.1598,0.9983,1.2629,1.1142,SOL_COMPUTED,PSRDIFF,0.0000,0.0000,0.0000,0.0011,0.0011,0.0011,"0",0.150,2.000,0.000,8,8,8,8,0,1a,00,01*65b0d9e4
#RANGEA,USB1_1,0,64.0,FINESTEERING,2000,308442.000,00000000,5103,12778;8,2,0,21433403.829,0.085,-112633294.573952,0.029,1581.850,42.5,320.760,08009c04,12,0,23541033.369,0.901,-123708961.815509,0.121,-1776.775,34.4,6.970,08009c24,23,0,24790341.756,0.078,-130274093.620921,0.031,-2705.582,43.2,462.830,18009c44,5,0,21837494.106,0.036,-114756770.168961,0.028,2201.897,49.9,493.580,18009c84,6,0,20684280.349,0.042,-108696628.175660,0.028,-699.239,48.8,320.944,08009ca4,17,0,22670473.055,0.050,-119134095.754761,0.028,-3216.500,47.2,488.860,18009ce4,9,0,21657112.937,0.053,-113808895.251246,0.029,-1206.824,46.7,320.934,08009d04,19,0,21649165.952,0.047,-113767095.566266,0.029,-2813.354,47.7,487.820,08009d44*08048870
#SATXYZ2A,USB1_1,0,64.0,FINESTEERING,2000,308442.000,00000000,7513,12778;8,GPS,2,-2597858.2036,15506023.6931,21972818.5673,36154.231,0.000,0.000,0.0,0.0,GPS,12,10014390.4148,23342534.3284,7908604.2431,100360.409,0.000,0.000,0.0,0.0,GPS,23,-11450845.8569,-10769227.5849,21696656.5723,-65119.185,0.000,0.000,0.0,0.0,GPS,5,1012895.7303,25051736.4469,8338223.1911,-2476.432,0.000,0.000,0.0,0.0,GPS,6,-17239291.4513,8451926.6142,18397516.8740,121255.459,0.000,0.000,0.0,0.0,GPS,17,-21045986.4378,15511811.2771,-3892059.3811,-29860.211,0.000,0.000,0.0,0.0,GPS,9,-19448673.4040,1616405.7019,17991160.5255,153911.999,0.000,0.000,0.0,0.0,GPS,19,-19337780.7540,18126449.0539,2589788.2270,-131211.095,0.000,0.000,0.0,0.0*4b37ebd5
#BESTPOSA,USB1_1,0,64.0,FINESTEERING,2000,308442.000,00000000,7145,12778;SOL_COMPUTED,PSRDIFF,36.76858582522,126.93549717954,75.5238,23.3000,WGS84,0.6893,0.6304,1.7120,"0",2.400,0.000,8,8,8,8,0,1a,00,01*1816c6d8
#BESTXYZA,USB1_1,0,64.0,FINESTEERING,2000,308442.000,00000000,bde7,12778;SOL_COMPUTED,PSRDIFF,-3073975.2041,4088872.1698,3796911.1625,0.9945,1.2581,1.1097,SOL_COMPUTED,PSRDIFF,0.0000,0.0000,0.0000,0.0011,0.0011,0.0011,"0",0.150,2.400,0.000,8,8,8,8,0,1a,00,01*9632bda2
#RANGEA,USB1_1,0,64.0,FINESTEERING,2000,308443.000,00000000,5103,12778;8,2,0,21433102.501,0.085,-112631711.072226,0.032,1585.847,42.6,321.760,08009c04,12,0,23541370.648,0.888,-123710736.588303,0.123,-1772.473,33.9,7.970,08009c24,23,0,24790856.207,0.077,-130276797.108641,0.032,-2701.167,43.3,463.830,18009c44,5,0,21837074.749,0.037,-114754566.439461,0.030,2206.217,49.9,494.580,18009c84,6,0,20684413.009,0.041,-108697325.364028,0.030,-694.843,48.8,321.944,08009ca4,17,0,22671084.732,0.050,-119137310.173436,0.030,-3211.975,47.1,489.860,18009ce4,9,0,21657342.251,0.052,-113810100.382470,0.069,-1202.914,46.8,321.934,08009d04,19,0,21649700.938,0.046,-113769906.987481,0.031,-2809.054,47.8,488.820,08009d44*b5156f2d
#SATXYZ2A,USB1_1,0,64.0,FINESTEERING,2000,308443.000,00000000,7513,12778;8,GPS,2,-2600461.9822,15505472.7205,21972876.9705,36154.230,0.000,0.000,0.0,0.0,GPS,12,10014419.6747,23343571.1397,7905597.8510,100360.409,0.000,0.000,0.0,0.0,GPS,23,-11448953.9316,-10771145.6477,21696660.5486,-65119.184,0.000,0.000,0.0,0.0,GPS,5,1012289.7626,25050786.9125,8341135.2315,-2476.432,0.000,0.000,0.0,0.0,GPS,6,-17241504.8701,8451201.0516,18395775.3097,121255.459,0.000,0.000,0.0,0.0,GPS,17,-21045732.7682,15511281.4105,-3895240.5644,-29860.210,0.000,0.000,0.0,0.0,GPS,9,-19447193.3016,1614646.5109,17992913.9662,153911.999,0.000,0.000,0.0,0.0,GPS,19,-19338190.5873,18126520.4697,2586604.2515,-131211.093,0.000,0.000,0.0,0.0*e934ef47
#BESTPOSA,USB1_1,0,64.0,FINESTEERING,2000,308443.000,00000000,7145,12778;SOL_COMPUTED,PSRDIFF,36.76858582522,126.93549717954,75.5238,23.3000,WGS84,0.6893,0.6304,1.7120,"0",2.200,0.000,8,8,8,8,0,1a,00,01*f774e886
#BESTXYZA,USB1_1,0,64.0,FINESTEERING,2000,308443.000,00000000,bde7,12778;SOL_COMPUTED,PSRDIFF,-3073975.2041,4088872.1698,3796911.1625,0.9945,1.2581,1.1097,SOL_COMPUTED,PSRDIFF,0.0000,0.0000,0.0000,0.0011,0.0011,0.0011,"0",0.150,2.200,0.000,8,8,8,8,0,1a,00,01*70623b6b
#RANGEA,USB1_1,0,64.5,FINESTEERING,2000,308444.000,00000000,5103,12778;8,2,0,21432800.601,0.084,-112630124.635491,0.035,1583.854,42.6,322.760,08009c04,12,0,23541707.820,0.806,-123712508.700944,0.101,-1775.043,34.2,8.970,08009c24,23,0,24791370.132,0.079,-130279497.834649,0.035,-2702.701,43.2,464.830,18009c44,5,0,21836654.878,0.037,-114752360.015784,0.033,2204.042,49.9,495.580,18009c84,6,0,20684545.156,0.041,-108698019.794095,0.032,-696.785,48.8,322.944,08009ca4,17,0,22671695.881,0.050,-119140521.859484,0.034,-3214.026,47.1,490.860,18009ce4,9,0,21657571.096,0.052,-113811303.076895,0.050,-1205.283,46.8,322.934,08009d04,19,0,21650235.421,0.046,-113772715.804248,0.034,-2811.466,47.9,489.820,08009d44*144169fd
#SATXYZ2A,USB1_1,0,64.5,FINESTEERING,2000,308444.000,00000000,7513,12778;8,GPS,2,-2603065.8023,15504921.8967,21972934.9295,36154.228,0.000,0.000,0.0,0.0,GPS,12,10014448.9271,23344607.5766,7902591.2915,100360.408,0.000,0.000,0.0,0.0,GPS,23,-11447062.1097,-10773063.8206,21696664.0753,-65119.183,0.000,0.000,0.0,0.0,GPS,5,1011683.6400,25049837.0585,8344047.0916,-2476.432,0.000,0.000,0.0,0.0,GPS,6,-17243718.1209,8450475.6775,18394033.3553,121255.458,0.000,0.000,0.0,0.0,GPS,17,-21045478.8335,15510751.2545,-3898421.6636,-29860.210,0.000,0.000,0.0,0.0,GPS,9,-19445713.1447,1612887.0782,17994667.0232,153911.999,0.000,0.000,0.0,0.0,GPS,19,-19338600.1049,18126591.6591,2583420.2214,-131211.092,0.000,0.000,0.0,0.0*8b561962
#BESTPOSA,USB1_1,0,64.5,FINESTEERING,2000,308444.000,00000000,7145,12778;SOL_COMPUTED,PSRDIFF,36.76858582522,126.93549717954,75.5238,23.3000,WGS84,0.6893,0.6304,1.7120,"0",2.000,0.000,8,8,8,8,0,1a,00,01*1f00c6ee
#BESTXYZA,USB1_1,0,64.5,FINESTEERING,2000,308444.000,00000000,bde7,12778;SOL_COMPUTED,PSRDIFF,-3073975.2041,4088872.1698,3796911.1625,0.9945,1.2581,1.1097,SOL_COMPUTED,PSRDIFF,0.0000,0.0000,0.0000,0.0011,0.0011,0.0011,"0",0.150,2.000,0.000,8,8,8,8,0,1a,00,01*d4799058
#RANGEA,USB1_1,0,66.0,FINESTEERING,2000,308445.000,00000000,5103,12778;7,2,0,21432499.018,0.084,-112628539.918755,0.032,1583.426,42.6,323.760,08009c04,23,0,24791884.424,0.077,-130282200.494601,0.032,-2703.816,43.4,465.830,18009c44,5,0,21836235.368,0.037,-114750155.491330,0.031,2203.329,49.9,496.580,18009c84,6,0,20684677.654,0.041,-108698716.094206,0.031,-697.383,48.8,323.944,08009ca4,17,0,22672307.392,0.051,-119143735.449296,0.031,-3214.884,46.9,491.860,18009ce4,9,0,21657800.357,0.051,-113812507.945405,0.038,-1206.344,46.9,323.934,08009d04,19,0,21650770.293,0.045,-113775526.611169,0.031,-2812.188,48.0,490.820,08009d44*f7c06d6f
#SATXYZ2A,USB1_1,0,66.0,FINESTEERING,2000,308445.000,00000000,7513,12778;7,GPS,2,-2605669.6640,15504371.2219,21972992.4446,36154.227,0.000,0.000,0.0,0.0,GPS,23,-11445170.3912,-10774982.1034,21696667.1523,-65119.182,0.000,0.000,0.0,0.0,GPS,5,1011077.3623,25048886.8847,8346958.7714,-2476.433,0.000,0.000,0.0,0.0,GPS,6,-17245931.2037,8449750.4920,18392291.0110,121255.458,0.000,0.000,0.0,0.0,GPS,17,-21045224.6338,15510220.8092,-3901602.6787,-29860.209,0.000,0.000,0.0,0.0,GPS,9,-19444232.9335,1611127.4039,17996419.6967,153911.999,0.000,0.000,0.0,0.0,GPS,19,-19339009.3069,18126662.6219,2580236.1367,-131211.091,0.000,0.000,0.0,0.0*e275f0c0
#BESTPOSA,USB1_1,0,66.0,FINESTEERING,2000,308445.000,00000000,7145,12778;SOL_COMPUTED,PSRDIFF,36.76858583853,126.93549720943,75.5145,23.3000,WGS84,0.6866,0.6282,1.7064,"0",2.400,0.000,7,7,7,7,0,1a,00,01*e0bf2eca
#BESTXYZA,USB1_1,0,66.0,FINESTEERING,2000,308445.000,00000000,bde7,12778;SOL_COMPUTED,PSRDIFF,-3073975.2012,4088872.1616,3796911.1581,0.9919,1.2535,1.1057,SOL_COMPUTED,PSRDIFF,0.0000,0.0000,0.0000,0.0009,0.0009,0.0009,"0",0.150,2.400,0.000,7,7,7,7,0,1a,00,01*13469b23
#RANGEA,USB1_1,0,68.5,FINESTEERING,2000,308446.000,00000000,5103,12778;7,2,0,21432197.769,0.087,-112626956.986548,0.073,1580.549,42.4,324.760,08009c04,23,0,24792399.102,0.076,-130284905.060816,0.071,-2706.821,43.6,466.830,18009c44,5,0,21835816.235,0.037,-114747952.931988,0.029,2200.349,49.8,497.580,18009c84,6,0,20684810.519,0.041,-108699414.307793,0.028,-700.531,48.8,324.944,08009ca4,17,0,22672919.267,0.052,-119146950.969006,0.028,-3217.831,46.8,492.860,18009ce4,9,0,21658030.046,0.053,-113813715.066580,0.033,-1209.666,46.7,324.934,08009d04,19,0,21651305.564,0.046,-113778339.483472,0.029,-2815.309,47.8,491.820,08009d44*4d3993f7
#SATXYZ2A,USB1_1,0,68.5,FINESTEERING,2000,308446.000,00000000,7513,12778;7,GPS,2,-2608273.5673,15503820.6960,21973049.5155,36154.225,0.000,0.000,0.0,0.0,GPS,23,-11443278.7762,-10776900.4961,21696669.7797,-65119.181,0.000,0.000,0.0,0.0,GPS,5,1010470.9295,25047936.3913,8349870.2708,-2476.433,0.000,0.000,0.0,0.0,GPS,6,-17248144.1183,8449025.4951,18390548.2768,121255.457,0.000,0.000,0.0,0.0,GPS,17,-21044970.1692,15509690.0745,-3904783.6095,-29860.209,0.000,0.000,0.0,0.0,GPS,9,-19442752.6678,1609367.4879,17998171.9866,153911.999,0.000,0.000,0.0,0.0,GPS,19,-19339418.1932,18126733.3583,2577051.9976,-131211.090,0.000,0.000,0.0,0.0*be3a3593
#BESTPOSA,USB1_1,0,68.5,FINESTEERING,2000,308446.000,00000000,7145,12778;SOL_COMPUTED,PSRDIFF,36.76858583853,126.93549720943,75.5145,23.3000,WGS84,0.6866,0.6282,1.7064,"0",2.200,0.000,7,7,7,7,0,1a,00,01*041e4020
#BESTXYZA,USB1_1,0,68.5,FINESTEERING,2000,308446.000,00000000,bde7,12778;SOL_COMPUTED,PSRDIFF,-3073975.2012,4088872.1616,3796911.1581,0.9919,1.2535,1.1057,SOL_COMPUTED,PSRDIFF,-5.7104e-10,0.0000,1.1169e-10,0.0010,0.0010,0.0010,"0",0.150,2.200,0.000,7,7,7,7,0,1a,00,01*9fea70c9
#RANGEA,USB1_1,0,65.0,FINESTEERING,2000,308447.000,00000000,5103,12778;7,2,0,21431896.990,0.082,-112625376.514281,0.050,1579.887,42.9,325.760,08009c04,23,0,24792914.282,0.074,-130287612.267382,0.049,-2707.877,43.8,467.830,18009c44,5,0,21835397.611,0.036,-114745753.065728,0.029,2199.074,50.0,498.580,18009c84,6,0,20684943.884,0.041,-108700115.172932,0.029,-701.629,48.9,325.944,08009ca4,17,0,22673531.643,0.051,-119150169.151278,0.029,-3218.991,46.9,493.860,18009ce4,9,0,21658260.303,0.051,-113814925.141856,0.031,-1211.103,47.0,325.934,08009d04,19,0,21651841.354,0.045,-113781155.121150,0.029,-2816.160,48.0,492.820,08009d44*a6df2f7e
#SATXYZ2A,USB1_1,0,65.0,FINESTEERING,2000,308447.000,00000000,7513,12778;7,GPS,2,-2610877.5119,15503270.3190,21973106.1424,36154.223,0.000,0.000,0.0,0.0,GPS,23,-11441387.2648,-10778818.9987,21696671.9574,-65119.180,0.000,0.000,0.0,0.0,GPS,5,1009864.3416,25046985.5783,8352781.5896,-2476.433,0.000,0.000,0.0,0.0,GPS,6,-17250356.8648,8448300.6868,18388805.1527,121255.457,0.000,0.000,0.0,0.0,GPS,17,-21044715.4396,15509159.0504,-3907964.4561,-29860.208,0.000,0.000,0.0,0.0,GPS,9,-19441272.3479,1607607.3302,17999923.8929,153911.999,0.000,0.000,0.0,0.0,GPS,19,-19339826.7638,18126803.8681,2573867.8041,-131211.089,0.000,0.000,0.0,0.0*9c571b12
#BESTPOSA,USB1_1,0,65.0,FINESTEERING,2000,308447.000,00000000,7145,12778;SOL_COMPUTED,PSRDIFF,36.76858584499,126.93549722165,75.5105,23.3000,WGS84,0.6855,0.6273,1.7041,"0",1.400,0.000,7,7,7,7,0,1a,00,01*d4e274e2
#BESTXYZA,USB1_1,0,65.0,FINESTEERING,2000,308447.000,00000000,bde7,12778;SOL_COMPUTED,PSRDIFF,-3073975.1999,4088872.1580,3796911.1563,0.9909,1.2516,1.1041,SOL_COMPUTED,PSRDIFF,0.0000,0.0000,9.4662e-10,0.0009,0.0009,0.0009,"0",0.150,1.400,0.000,7,7,7,7,0,1a,00,01*10a52eac
#RANGEA,USB1_1,0,59.5,FINESTEERING,2000,308448.000,00000000,5103,12778;7,2,0,21431596.318,0.082,-112623796.553532,0.040,1579.792,42.8,326.760,08009c04,23,0,24793429.581,0.073,-130290320.138220,0.040,-2707.966,43.9,468.830,18009c44,5,0,21834979.128,0.036,-114743553.873637,0.031,2198.960,50.0,499.580,18009c84,6,0,20685077.373,0.041,-108700816.681208,0.031,-701.443,48.9,326.944,08009ca4,17,0,22674144.153,0.051,-119153387.994284,0.031,-3218.943,47.0,494.860,18009ce4,9,0,21658490.749,0.050,-113816136.170466,0.031,-1211.377,47.1,326.934,08009d04,19,0,21652377.298,0.045,-113783971.550479,0.032,-2816.610,48.0,493.820,08009d44*4d09acc1
#SATXYZ2A,USB1_1,0,59.5,FINESTEERING,2000,308448.000,00000000,7513,12778;7,GPS,2,-2613481.4980,15502720.0910,21973162.3252,36154.222,0.000,0.000,0.0,0.0,GPS,23,-11439495.8569,-10780737.6111,21696673.6854,-65119.179,0.000,0.000,0.0,0.0,GPS,5,1009257.5986,25046034.4457,8355692.7280,-2476.434,0.000,0.000,0.0,0.0,GPS,6,-17252569.4431,8447576.0671,18387061.6387,121255.456,0.000,0.000,0.0,0.0,GPS,17,-21044460.4452,15508627.7368,-3911145.2182,-29860.207,0.000,0.000,0.0,0.0,GPS,9,-19439791.9738,1605846.9310,18001675.4154,153912.000,0.000,0.000,0.0,0.0,GPS,19,-19340235.0189,18126874.1513,2570683.5563,-131211.088,0.000,0.000,0.0,0.0*621fd8c4
#BESTPOSA,USB1_1,0,59.5,FINESTEERING,2000,308448.000,00000000,7145,12778;SOL_COMPUTED,PSRDIFF,36.76858584499,126.93549722165,75.5105,23.3000,WGS84,0.6855,0.6274,1.7041,"0",1.200,0.000,7,7,7,7,0,1a,00,01*7386e8dc
#BESTXYZA,USB1_1,0,59.5,FINESTEERING,2000,308448.000,00000000,bde7,12778;SOL_COMPUTED,PSRDIFF,-3073975.1999,4088872.1580,3796911.1563,0.9909,1.2516,1.1041,SOL_COMPUTED,PSRDIFF,-2.1160e-10,-6.3430e-10,6.2703e-11,0.0008,0.0008,0.0008,"0",0.150,1.200,0.000,7,7,7,7,0,1a,00,01*f248665d
#RANGEA,USB1_1,0,59.5,FINESTEERING,2000,308449.000,00000000,5103,12778;7,2,0,21431296.024,0.083,-112622218.586997,0.034,1579.496,42.8,327.760,08009c04,23,0,24793945.291,0.072,-130293030.169625,0.033,-2708.684,43.9,469.830,18009c44,5,0,21834561.058,0.036,-114741356.883946,0.027,2198.294,50.0,500.580,18009c84,6,0,20685211.276,0.041,-108701520.356522,0.029,-702.585,49.0,327.944,08009ca4,17,0,22674757.067,0.049,-119156609.008467,0.029,-3219.787,47.2,495.860,18009ce4,9,0,21658721.664,0.050,-113817349.691849,0.028,-1212.385,47.1,327.934,08009d04,19,0,21652913.679,0.045,-113786790.270602,0.029,-2817.451,48.0,494.820,08009d44*92cf2a50
#SATXYZ2A,USB1_1,0,59.5,FINESTEERING,2000,308449.000,00000000,7513,12778;7,GPS,2,-2616085.5253,15502170.0119,21973218.0640,36154.220,0.000,0.000,0.0,0.0,GPS,23,-11437604.5526,-10782656.3333,21696674.9638,-65119.178,0.000,0.000,0.0,0.0,GPS,5,1008650.7004,25045082.9935,8358603.6857,-2476.434,0.000,0.000,0.0,0.0,GPS,6,-17254781.8531,8446851.6358,18385317.7349,121255.456,0.000,0.000,0.0,0.0,GPS,17,-21044205.1859,15508096.1337,-3914325.8960,-29860.207,0.000,0.000,0.0,0.0,GPS,9,-19438311.5455,1604086.2902,18003426.5542,153912.000,0.000,0.000,0.0,0.0,GPS,19,-19340642.9584,18126944.2078,2567499.2542,-131211.087,0.000,0.000,0.0,0.0*5468528e
#BESTPOSA,USB1_1,0,59.5,FINESTEERING,2000,308449.000,00000000,7145,12778;SOL_COMPUTED,PSRDIFF,36.76858584499,126.93549722165,75.5105,23.3000,WGS84,0.6855,0.6274,1.7041,"0",1.000,0.000,7,7,7,7,0,1a,00,01*9a3332f6
#BESTXYZA,USB1_1,0,59.5,FINESTEERING,2000,308449.000,00000000,bde7,12778;SOL_COMPUTED,PSRDIFF,-3073975.1999,4088872.1580,3796911.1563,0.9909,1.2516,1.1041,SOL_COMPUTED,PSRDIFF,-2.0052e-11,-6.0110e-11,5.9422e-12,0.0008,0.0008,0.0008,"0",0.150,1.000,0.000,7,7,7,7,0,1a,00,01*9f8a55a9
#RANGEA,USB1_1,0,58.0,FINESTEERING,2000,308450.000,00000000,5103,12778;7,2,0,21430995.949,0.083,-112620641.697167,0.031,1577.441,42.8,328.760,08009c04,23,0,24794461.218,0.071,-130295741.419877,0.030,-2710.814,44.1,470.830,18009c44,5,0,21834143.231,0.036,-114739161.149558,0.026,2196.107,50.0,501.580,18009c84,6,0,20685345.411,0.040,-108702225.250788,0.027,-704.450,49.0,328.944,08009ca4,17,0,22675370.224,0.049,-119159831.268449,0.029,-3221.835,47.2,496.860,18009ce4,9,0,21658952.877,0.050,-113818564.735615,0.026,-1214.766,47.1,328.934,08009d04,19,0,21653450.312,0.045,-113789610.331025,0.027,-2819.737,47.9,495.820,08009d44*ef1648f2
#SATXYZ2A,USB1_1,0,58.0,FINESTEERING,2000,308450.000,00000000,7513,12778;7,GPS,2,-2618689.5940,15501620.0819,21973273.3587,36154.218,0.000,0.000,0.0,0.0,GPS,23,-11435713.3520,-10784575.1652,21696675.7925,-65119.177,0.000,0.000,0.0,0.0,GPS,5,1008043.6470,25044131.2219,8361514.4628,-2476.434,0.000,0.000,0.0,0.0,GPS,6,-17256994.0947,8446127.3931,18383573.4414,121255.455,0.000,0.000,0.0,0.0,GPS,17,-21043949.6619,15507564.2411,-3917506.4892,-29860.206,0.000,0.000,0.0,0.0,GPS,9,-19436831.0630,1602325.4078,18005177.3093,153912.000,0.000,0.000,0.0,0.0,GPS,19,-19341050.5823,18127014.0376,2564314.8979,-131211.086,0.000,0.000,0.0,0.0*fe61a6c2
#BESTPOSA,USB1_1,0,58.0,FINESTEERING,2000,308450.000,00000000,7145,12778;SOL_COMPUTED,PSRDIFF,36.76858584938,126.93549723054,75.5076,23.3000,WGS84,0.6847,0.6267,1.7025,"0",1.400,0.000,7,7,7,7,0,1a,00,01*2955a81d
#BESTXYZA,USB1_1,0,58.0,FINESTEERING,2000,308450.000,00000000,bde7,12778;SOL_COMPUTED,PSRDIFF,-3073975.1989,4088872.1554,3796911.1549,0.9901,1.2503,1.1029,SOL_COMPUTED,PSRDIFF,-9.4220e-10,0.0000,2.1487e-10,0.0010,0.0010,0.0010,"0",0.150,1.400,0.000,7,7,7,7,0,1a,00,01*f0667955
#RANGEA,USB1_1,0,58.0,FINESTEERING,2000,308451.000,00000000,5103,12778;7,2,0,21430696.144,0.081,-112619066.269986,0.029,1576.889,43.0,329.760,08009c04,23,0,24794977.465,0.071,-130298454.277163,0.029,-2711.417,44.1,471.830,18009c44,5,0,21833725.711,0.036,-114736967.060256,0.026,2195.529,49.9,502.580,18009c84,6,0,20685479.846,0.041,-108702931.728886,0.026,-704.938,49.0,329.944,08009ca4,17,0,22675983.682,0.050,-119163055.142962,0.028,-3222.396,47.2,497.860,18009ce4,9,0,21659184.459,0.050,-113819781.710675,0.027,-1215.708,47.2,329.934,08009d04,19,0,21653987.267,0.046,-113792432.129101,0.027,-2820.403,47.9,496.820,08009d44*561cc73c
#SATXYZ2A,USB1_1,0,58.0,FINESTEERING,2000,308451.000,00000000,7513,12778;7,GPS,2,-2621293.7038,15501070.3008,21973328.2093,36154.217,0.000,0.000,0.0,0.0,GPS,23,-11433822.2551,-10786494.1068,21696676.1716,-65119.176,0.000,0.000,0.0,0.0,GPS,5,1007436.4383,25043179.1307,8364425.0592,-2476.434,0.000,0.000,0.0,0.0,GPS,6,-17259206.1679,8445403.3390,18381828.7581,121255.454,0.000,0.000,0.0,0.0,GPS,17,-21043693.8731,15507032.0589,-3920686.9978,-29860.206,0.000,0.000,0.0,0.0,GPS,9,-19435350.5266,1600564.2839,18006927.6806,153912.000,0.000,0.000,0.0,0.0,GPS,19,-19341457.8907,18127083.6406,2561130.4874,-131211.085,0.000,0.000,0.0,0.0*a55c8c6a
#BESTPOSA,USB1_1,0,58.0,FINESTEERING,2000,308451.000,00000000,7145,12778;SOL_COMPUTED,PSRDIFF,36.76858584938,126.93549723054,75.5076,23.3000,WGS84,0.6847,0.6267,1.7025,"0",2.400,0.000,7,7,7,7,0,1a,00,01*872aad15
#BESTXYZA,USB1_1,0,58.0,FINESTEERING,2000,308451.000,00000000,bde7,12778;SOL_COMPUTED,PSRDIFF,-3073975.1989,4088872.1554,3796911.1549,0.9901,1.2503,1.1029,SOL_COMPUTED,PSRDIFF,-4.2402e-11,-1.1580e-10,9.6700e-12,0.0009,0.0009,0.0009,"0",0.150,2.400,0.000,7,7,7,7,0,1a,00,01*ca0d271d
#RANGEA,USB1_1,0,59.0,FINESTEERING,2000,308452.000,00000000,5103,12778;7,2,0,21430396.318,0.084,-112617490.722476,0.028,1577.791,42.7,330.760,08009c04,23,0,24795493.727,0.073,-130301167.197200,0.027,-2710.898,43.9,472.830,18009c44,5,0,21833308.210,0.038,-114734773.057349,0.025,2196.161,49.7,503.580,18009c84,6,0,20685614.297,0.041,-108703638.271517,0.025,-704.550,48.8,330.944,08009ca4,17,0,22676597.150,0.052,-119166279.087306,0.026,-3221.718,46.8,498.860,18009ce4,9,0,21659416.091,0.051,-113820999.056033,0.025,-1215.372,47.0,330.934,08009d04,19,0,21654524.271,0.046,-113795254.118085,0.025,-2819.924,47.9,497.820,08009d44*eb8df194
#SATXYZ2A,USB1_1,0,59.0,FINESTEERING,2000,308452.000,00000000,7513,12778;7,GPS,2,-2623897.8548,15500520.6687,21973382.6158,36154.215,0.000,0.000,0.0,0.0,GPS,23,-11431931.2620,-10788413.1580,21696676.1009,-65119.176,0.000,0.000,0.0,0.0,GPS,5,1006829.0744,25042226.7202,8367335.4748,-2476.435,0.000,0.000,0.0,0.0,GPS,6,-17261418.0727,8444679.4733,18380083.6851,121255.454,0.000,0.000,0.0,0.0,GPS,17,-21043437.8196,15506499.5872,-3923867.4218,-29860.205,0.000,0.000,0.0,0.0,GPS,9,-19433869.9361,1598802.9185,18008677.6680,153912.000,0.000,0.000,0.0,0.0,GPS,19,-19341864.8837,18127153.0169,2557946.0229,-131211.083,0.000,0.000,0.0,0.0*f2d8f641
#BESTPOSA,USB1_1,0,59.0,FINESTEERING,2000,308452.000,00000000,7145,12778;SOL_COMPUTED,PSRDIFF,36.76858585348,126.93549723919,75.5047,23.3000,WGS84,0.6839,0.6261,1.7010,"0",2.200,0.000,7,7,7,7,0,1a,00,01*8048a883
#BESTXYZA,USB1_1,0,59.0,FINESTEERING,2000,308452.000,00000000,bde7,12778;SOL_COMPUTED,PSRDIFF,-3073975.1980,4088872.1529,3796911.1536,0.9894,1.2490,1.1018,SOL_COMPUTED,PSRDIFF,0.0000,0.0000,2.9514e-10,0.0008,0.0008,0.0008,"0",0.150,2.200,0.000,7,7,7,7,0,1a,00,01*68b6b4bc
#RANGEA,USB1_1,0,60.0,FINESTEERING,2000,308453.000,00000000,5103,12778;7,2,0,21430096.048,0.084,-112615912.879086,0.030,1576.569,42.7,331.760,08009c04,23,0,24796009.579,0.073,-130303877.969456,0.031,-2712.140,43.9,473.830,18009c44,5,0,21832890.306,0.038,-114732576.970589,0.030,2194.516,49.6,504.580,18009c84,6,0,20685748.337,0.041,-108704342.677670,0.029,-705.727,48.8,331.944,08009ca4,17,0,22677210.219,0.053,-119169500.929236,0.031,-3223.364,46.6,499.860,18009ce4,9,0,21659647.371,0.051,-113822214.575791,0.030,-1217.200,47.0,331.934,08009d04,19,0,21655060.893,0.046,-113798074.094615,0.031,-2821.380,47.8,498.820,08009d44*60131b9d
#SATXYZ2A,USB1_1,0,60.0,FINESTEERING,2000,308453.000,00000000,7513,12778;7,GPS,2,-2626502.0468,15499971.1857,21973436.5783,36154.213,0.000,0.000,0.0,0.0,GPS,23,-11430040.3726,-10790332.3188,21696675.5806,-65119.175,0.000,0.000,0.0,0.0,GPS,5,1006221.5551,25041273.9902,8370245.7095,-2476.435,0.000,0.000,0.0,0.0,GPS,6,-17263629.8089,8443955.7961,18378338.2224,121255.453,0.000,0.000,0.0,0.0,GPS,17,-21043181.5015,15505966.8258,-3927047.7611,-29860.204,0.000,0.000,0.0,0.0,GPS,9,-19432389.2917,1597041.3115,18010427.2715,153912.000,0.000,0.000,0.0,0.0,GPS,19,-19342271.5612,18127222.1663,2554761.5045,-131211.082,0.000,0.000,0.0,0.0*19de59a3
#BESTPOSA,USB1_1,0,60.0,FINESTEERING,2000,308453.000,00000000,7145,12778;SOL_COMPUTED,PSRDIFF,36.76858585348,126.93549723919,75.5047,23.3000,WGS84,0.6839,0.6261,1.7010,"0",1.400,0.000,7,7,7,7,0,1a,00,01*d177f753
#BESTXYZA,USB1_1,0,60.0,FINESTEERING,2000,308453.000,00000000,bde7,12778;SOL_COMPUTED,PSRDIFF,-3073975.1980,4088872.1529,3796911.1536,0.9894,1.2490,1.1018,SOL_COMPUTED,PSRDIFF,-1.7037e-10,-4.6084e-10,2.8445e-11,0.0008,0.0008,0.0008,"0",0.150,1.400,0.000,7,7,7,7,0,1a,00,01*20d5930f
#RANGEA,USB1_1,0,57.0,FINESTEERING,2000,308454.000,00000000,5103,12778;7,2,0,21429795.859,0.082,-112614335.481467,0.030,1576.626,42.9,332.760,08009c04,23,0,24796525.541,0.073,-130306589.328292,0.030,-2712.155,43.9,474.830,18009c44,5,0,21832472.517,0.038,-114730381.479993,0.029,2194.706,49.7,505.580,18009c84,6,0,20685882.480,0.041,-108705047.645465,0.029,-705.509,49.0,332.944,08009ca4,17,0,22677823.399,0.054,-119172723.339169,0.028,-3223.195,46.6,500.860,18009ce4,9,0,21659878.836,0.052,-113823430.979125,0.029,-1217.277,46.9,332.934,08009d04,19,0,21655597.648,0.046,-113800894.777934,0.029,-2821.636,47.9,499.820,08009d44*b0f11c32
#SATXYZ2A,USB1_1,0,57.0,FINESTEERING,2000,308454.000,00000000,7513,12778;7,GPS,2,-2629106.2799,15499421.8516,21973490.0967,36154.212,0.000,0.000,0.0,0.0,GPS,23,-11428149.5871,-10792251.5892,21696674.6107,-65119.174,0.000,0.000,0.0,0.0,GPS,5,1005613.8804,25040320.9409,8373155.7633,-2476.435,0.000,0.000,0.0,0.0,GPS,6,-17265841.3765,8443232.3073,18376592.3701,121255.453,0.000,0.000,0.0,0.0,GPS,17,-21042924.9187,15505433.7748,-3930228.0155,-29860.204,0.000,0.000,0.0,0.0,GPS,9,-19430908.5934,1595279.4631,18012176.4912,153912.001,0.000,0.000,0.0,0.0,GPS,19,-19342677.9232,18127291.0888,2551576.9321,-131211.081,0.000,0.000,0.0,0.0*398ac81f
#BESTPOSA,USB1_1,0,57.0,FINESTEERING,2000,308454.000,00000000,7145,12778;SOL_COMPUTED,PSRDIFF,36.76858585348,126.93549723919,75.5047,23.3000,WGS84,0.6840,0.6262,1.7010,"0",1.200,0.000,7,7,7,7,0,1a,00,01*6ca677c4
#BESTXYZA,USB1_1,0,57.0,FINESTEERING,2000,308454.000,00000000,bde7,12778;SOL_COMPUTED,PSRDIFF,-3073975.1980,4088872.1529,3796911.1536,0.9894,1.2490,1.1018,SOL_COMPUTED,PSRDIFF,-1.3248e-11,-3.5836e-11,2.2119e-12,0.0009,0.0009,0.0009,"0",0.150,1.200,0.000,7,7,7,7,0,1a,00,01*9f4d8267
#RANGEA,USB1_1,0,57.0,FINESTEERING,2000,308455.000,00000000,5103,12778;7,2,0,21429495.409,0.082,-112612756.696496,0.027,1578.221,42.9,333.760,08009c04,23,0,24797041.268,0.074,-130309299.472388,0.030,-2711.021,43.8,475.830,18009c44,5,0,21832054.504,0.038,-114728184.827164,0.026,2195.831,49.6,506.580,18009c84,6,0,20686016.386,0.041,-108705751.403056,0.026,-704.790,48.9,333.944,08009ca4,17,0,22678436.345,0.055,-119175944.561900,0.026,-3222.151,46.3,501.860,18009ce4,9,0,21660110.127,0.051,-113824646.492507,0.026,-1216.481,46.9,333.934,08009d04,19,0,21656134.186,0.047,-113803714.364966,0.027,-2820.425,47.6,500.820,08009d44*9cb380fa
#SATXYZ2A,USB1_1,0,57.0,FINESTEERING,2000,308455.000,00000000,7513,12778;7,GPS,2,-2631710.5539,15498872.6667,21973543.1710,36154.210,0.000,0.000,0.0,0.0,GPS,23,-11426258.9054,-10794170.9691,21696673.1910,-65119.173,0.000,0.000,0.0,0.0,GPS,5,1005006.0504,25039367.5722,8376065.6362,-2476.436,0.000,0.000,0.0,0.0,GPS,6,-17268052.7754,8442509.0071,18374846.1282,121255.452,0.000,0.000,0.0,0.0,GPS,17,-21042668.0714,15504900.4341,-3933408.1852,-29860.203,0.000,0.000,0.0,0.0,GPS,9,-19429427.8413,1593517.3732,18013925.3269,153912.001,0.000,0.000,0.0,0.0,GPS,19,-19343083.9699,18127359.7844,2548392.3058,-131211.080,0.000,0.000,0.0,0.0*f19bb5cd
#BESTPOSA,USB1_1,0,57.0,FINESTEERING,2000,308455.000,00000000,7145,12778;SOL_COMPUTED,PSRDIFF,36.76858585777,126.93549724768,75.5019,23.3000,WGS84,0.6832,0.6256,1.6995,"0",1.000,0.000,7,7,7,7,0,1a,00,01*e5924bda
#BESTXYZA,USB1_1,0,57.0,FINESTEERING,2000,308455.000,00000000,bde7,12778;SOL_COMPUTED,PSRDIFF,-3073975.1971,4088872.1504,3796911.1523,0.9888,1.2478,1.1008,SOL_COMPUTED,PSRDIFF,-9.1866e-10,0.0000,2.5312e-10,0.0010,0.0010,0.0010,"0",0.150,1.000,0.000,7,7,7,7,0,1a,00,01*1b4be41a
#RANGEA,USB1_1,0,61.5,FINESTEERING,2000,308456.000,00000000,5103,12778;7,2,0,21429194.859,0.082,-112611177.398429,0.026,1580.005,42.9,334.760,08009c04,23,0,24797556.922,0.073,-130312009.259108,0.027,-2709.101,43.9,476.830,18009c44,5,0,21831636.425,0.038,-114725987.830813,0.025,2197.623,49.5,507.580,18009c84,6,0,20686150.223,0.041,-108706454.790450,0.025,-702.744,48.9,334.944,08009ca4,17,0,22679049.233,0.056,-119179165.419329,0.025,-3220.144,46.2,502.860,18009ce4,9,0,21660341.412,0.051,-113825861.944556,0.026,-1214.987,46.9,334.934,08009d04,19,0,21656670.690,0.047,-113806533.732648,0.026,-2818.815,47.7,501.820,08009d44*b3cc9f2c
#SATXYZ2A,USB1_1,0,61.5,FINESTEERING,2000,308456.000,00000000,7513,12778;7,GPS,2,-2634314.8689,15498323.6308,21973595.8012,36154.208,0.000,0.000,0.0,0.0,GPS,23,-11424368.3277,-10796090.4584,21696671.3217,-65119.172,0.000,0.000,0.0,0.0,GPS,5,1004398.0649,25038413.8843,8378975.3280,-2476.436,0.000,0.000,0.0,0.0,GPS,6,-17270264.0056,8441785.8953,18373099.4968,121255.452,0.000,0.000,0.0,0.0,GPS,17,-21042410.9596,15504366.8037,-3936588.2699,-29860.203,0.000,0.000,0.0,0.0,GPS,9,-19427947.0355,1591755.0418,18015673.7786,153912.001,0.000,0.000,0.0,0.0,GPS,19,-19343489.7012,18127428.2530,2545207.6257,-131211.079,0.000,0.000,0.0,0.0*43272721
#BESTPOSA,USB1_1,0,61.5,FINESTEERING,2000,308456.000,00000000,7145,12778;SOL_COMPUTED,PSRDIFF,36.76858585777,126.93549724768,75.5019,23.3000,WGS84,0.6832,0.6256,1.6995,"0",1.400,0.000,7,7,7,7,0,1a,00,01*be40e359
#BESTXYZA,USB1_1,0,61.5,FINESTEERING,2000,308456.000,00000000,bde7,12778;SOL_COMPUTED,PSRDIFF,-3073975.1971,4088872.1504,3796911.1523,0.9888,1.2478,1.1008,SOL_COMPUTED,PSRDIFF,-5.3016e-11,-1.4755e-10,1.4607e-11,0.0009,0.0009,0.0009,"0",0.150,1.400,0.000,7,7,7,7,0,1a,00,01*c810d7a1
#RANGEA,USB1_1,0,61.5,FINESTEERING,2000,308457.000,00000000,5103,12778;7,2,0,21428894.165,0.081,-112609597.288155,0.028,1580.481,43.0,335.760,08009c04,23,0,24798072.478,0.073,-130314718.377120,0.028,-2708.567,43.8,477.830,18009c44,5,0,21831218.229,0.038,-114723790.215502,0.026,2197.989,49.5,508.580,18009c84,6,0,20686283.942,0.041,-108707157.511084,0.025,-702.376,48.9,335.944,08009ca4,17,0,22679661.987,0.057,-119182385.628327,0.026,-3219.831,46.0,503.860,18009ce4,9,0,21660572.635,0.051,-113827077.048115,0.027,-1214.866,47.0,335.934,08009d04,19,0,21657207.080,0.048,-113809352.555941,0.026,-2818.438,47.6,502.820,08009d44*867b680b
#SATXYZ2A,USB1_1,0,61.5,FINESTEERING,2000,308457.000,00000000,7513,12778;6,GPS,2,-2636919.2247,15497774.7439,21973647.9874,36154.207,0.000,0.000,0.0,0.0,GPS,5,1003789.9239,25037459.8771,8381884.8387,-2476.436,0.000,0.000,0.0,0.0,GPS,6,-17272475.0671,8441062.9719,18371352.4758,121255.451,0.000,0.000,0.0,0.0,GPS,17,-21042153.5832,15503832.8835,-3939768.2696,-29860.202,0.000,0.000,0.0,0.0,GPS,9,-19426466.1759,1589992.4690,18017421.8463,153912.001,0.000,0.000,0.0,0.0,GPS,19,-19343895.1171,18127496.4946,2542022.8919,-131211.078,0.000,0.000,0.0,0.0*cd579ee0
#BESTPOSA,USB1_1,0,61.5,FINESTEERING,2000,308457.000,00000000,7145,12778;SOL_COMPUTED,PSRDIFF,36.76858585959,126.93549725476,75.5001,23.3000,WGS84,0.6826,0.6251,1.6989,"0",1.200,0.000,7,6,6,6,0,1a,00,01*e0f9b606
#BESTXYZA,USB1_1,0,61.5,FINESTEERING,2000,308457.000,00000000,bde7,12778;SOL_COMPUTED,PSRDIFF,-3073975.1967,4088872.1488,3796911.1513,0.9884,1.2475,1.0999,SOL_COMPUTED,PSRDIFF,0.0000,0.0000,-1.3560e-10,0.0008,0.0008,0.0008,"0",0.150,1.200,0.000,7,6,6,6,0,1a,00,01*9f02efba
#RANGEA,USB1_1,0,63.0,FINESTEERING,2000,308458.000,00000000,5103,12778;7,2,0,21428593.100,0.081,-112608015.222188,0.027,1580.009,43.0,336.760,08009c04,23,0,24798587.686,0.073,-130317425.732199,0.103,-2709.328,43.8,478.830,18009c44,5,0,21830799.698,0.038,-114721590.841557,0.026,2197.346,49.5,509.580,18009c84,6,0,20686417.310,0.041,-108707858.433072,0.026,-702.651,49.0,336.944,08009ca4,17,0,22680274.404,0.056,-119185604.083542,0.027,-3220.607,46.2,504.860,18009ce4,9,0,21660803.574,0.050,-113828290.676631,0.027,-1215.766,47.1,336.934,08009d04,19,0,21657743.161,0.047,-113812169.719628,0.027,-2819.128,47.6,503.820,08009d44*3e0a1c12
#SATXYZ2A,USB1_1,0,63.0,FINESTEERING,2000,308458.000,00000000,7513,12778;6,GPS,2,-2639523.6213,15497226.0062,21973699.7294,36154.205,0.000,0.000,0.0,0.0,GPS,5,1003181.6274,25036505.5507,8384794.1683,-2476.437,0.000,0.000,0.0,0.0,GPS,6,-17274685.9597,8440340.2369,18369605.0654,121255.450,0.000,0.000,0.0,0.0,GPS,17,-21041895.9425,15503298.6736,-3942948.1843,-29860.202,0.000,0.000,0.0,0.0,GPS,9,-19424985.2627,1588229.6548,18019169.5299,153912.001,0.000,0.000,0.0,0.0,GPS,19,-19344300.2177,18127564.5091,2538838.1045,-131211.077,0.000,0.000,0.0,0.0*45442964
#BESTPOSA,USB1_1,0,63.0,FINESTEERING,2000,308458.000,00000000,7145,12778;SOL_COMPUTED,PSRDIFF,36.76858585959,126.93549725476,75.5001,23.3000,WGS84,0.6826,0.6251,1.6989,"0",1.000,0.000,7,6,6,6,0,1a,00,01*be705060
#BESTXYZA,USB1_1,0,63.0,FINESTEERING,2000,308458.000,00000000,bde7,12778;SOL_COMPUTED,PSRDIFF,-3073975.1967,4088872.1488,3796911.1513,0.9884,1.2475,1.0999,SOL_COMPUTED,PSRDIFF,-1.8211e-10,-3.2498e-10,-1.3083e-11,0.0008,0.0008,0.0008,"0",0.150,1.000,0.000,7,6,6,6,0,1a,00,01*0805be3a
#RANGEA,USB1_1,0,63.5,FINESTEERING,2000,308459.000,00000000,5103,12778;7,2,0,21428292.584,0.081,-112606435.990214,0.028,1580.856,42.9,337.760,08009c04,23,0,24799103.458,0.073,-130320136.086859,0.067,-2708.641,43.9,479.830,18009c44,5,0,21830381.740,0.039,-114719394.505061,0.026,2198.044,49.4,510.580,18009c84,6,0,20686551.263,0.041,-108708562.367240,0.027,-702.165,48.9,337.944,08009ca4,17,0,22680887.393,0.054,-119188825.539880,0.027,-3219.920,46.4,505.860,18009ce4,9,0,21661035.144,0.050,-113829507.623648,0.027,-1215.402,47.2,337.934,08009d04,19,0,21658279.832,0.048,-113814990.024562,0.026,-2818.705,47.6,504.820,08009d44*297d2ce3
#SATXYZ2A,USB1_1,0,63.5,FINESTEERING,2000,308459.000,00000000,7513,12778;6,GPS,2,-2642128.0585,15496677.4176,21973751.0274,36154.204,0.000,0.000,0.0,0.0,GPS,5,1002573.1754,25035550.9052,8387703.3166,-2476.437,0.000,0.000,0.0,0.0,GPS,6,-17276896.6834,8439617.6903,18367857.2655,121255.450,0.000,0.000,0.0,0.0,GPS,17,-21041638.0374,15502764.1738,-3946128.0138,-29860.201,0.000,0.000,0.0,0.0,GPS,9,-19423504.2959,1586466.5993,18020916.8294,153912.002,0.000,0.000,0.0,0.0,GPS,19,-19344705.0031,18127632.2965,2535653.2634,-131211.076,0.000,0.000,0.0,0.0*cf70bc53
#BESTPOSA,USB1_1,0,63.5,FINESTEERING,2000,308459.000,00000000,7145,12778;SOL_COMPUTED,PSRDIFF,36.76858585959,126.93549725476,75.5001,23.3000,WGS84,0.6826,0.6251,1.6989,"0",1.400,0.000,7,6,6,6,0,1a,00,01*40efbae5
#BESTXYZA,USB1_1,0,63.5,FINESTEERING,2000,308459.000,00000000,bde7,12778;SOL_COMPUTED,PSRDIFF,-3073975.1967,4088872.1488,3796911.1513,0.9884,1.2475,1.1000,SOL_COMPUTED,PSRDIFF,-1.7483e-11,-3.1198e-11,-1.2560e-12,0.0009,0.0009,0.0009,"0",0.150,1.400,0.000,7,6,6,6,0,1a,00,01*11634fd8
#RANGEA,USB1_1,0,60.0,FINESTEERING,2000,308460.000,00000000,5103,12778;7,2,0,21427992.288,0.080,-112604857.907925,0.029,1577.824,43.1,338.760,08009c04,23,0,24799619.473,0.075,-130322847.724431,0.046,-2712.003,43.7,480.830,18009c44,5,0,21829964.039,0.038,-114717199.495049,0.026,2194.713,49.4,511.580,18009c84,6,0,20686685.454,0.041,-108709267.586907,0.026,-705.564,48.9,338.944,08009ca4,17,0,22681500.641,0.053,-119192048.283793,0.027,-3223.232,46.7,506.860,18009ce4,9,0,21661267.025,0.049,-113830726.184685,0.027,-1219.100,47.3,338.934,08009d04,19,0,21658816.779,0.048,-113817811.744479,0.027,-2822.249,47.5,505.820,08009d44*0b4bb52a
#SATXYZ2A,USB1_1,0,60.0,FINESTEERING,2000,308460.000,00000000,7513,12778;6,GPS,2,-2644732.5365,15496128.9780,21973801.8813,36154.202,0.000,0.000,0.0,0.0,GPS,5,1001964.5678,25034595.9405,8390612.2836,-2476.437,0.000,0.000,0.0,0.0,GPS,6,-17279107.2380,8438895.3322,18366109.0762,121255.449,0.000,0.000,0.0,0.0,GPS,17,-21041379.8679,15502229.3842,-3949307.7582,-29860.200,0.000,0.000,0.0,0.0,GPS,9,-19422023.2756,1584703.3024,18022663.7448,153912.002,0.000,0.000,0.0,0.0,GPS,19,-19345109.4732,18127699.8568,2532468.3689,-131211.074,0.000,0.000,0.0,0.0*98cf4627
#BESTPOSA,USB1_1,0,60.0,FINESTEERING,2000,308460.000,00000000,7145,12778;SOL_COMPUTED,PSRDIFF,36.76858586081,126.93549726239,75.4982,23.3000,WGS84,0.6820,0.6245,1.6983,"0",1.200,0.000,7,6,6,6,0,1a,00,01*fcd3975d
#BESTXYZA,USB1_1,0,60.0,FINESTEERING,2000,308460.000,00000000,bde7,12778;SOL_COMPUTED,PSRDIFF,-3073975.1962,4088872.1471,3796911.1503,0.9881,1.2471,1.0991,SOL_COMPUTED,PSRDIFF,-4.7847e-10,-7.5357e-10,-1.0252e-10,0.0008,0.0008,0.0008,"0",0.150,1.200,0.000,7,6,6,6,0,1a,00,01*96b16bbf
#RANGEA,USB1_1,0,58.5,FINESTEERING,2000,308461.000,00000000,5103,12778;8,2,0,21427691.467,0.080,-112603277.037972,0.029,1583.914,43.1,339.760,08009c04,12,0,23547473.390,12.247,-123742810.517461,0.106,-1778.726,32.0,0.440,08009424,23,0,24800134.987,0.073,-130325556.739920,0.037,-2705.982,43.8,481.830,18009c44,5,0,21829545.842,0.038,-114715001.890547,0.027,2200.655,49.5,512.580,18009c84,6,0,20686819.143,0.041,-108709970.162749,0.027,-699.232,48.9,339.944,08009ca4,17,0,22682113.385,0.053,-119195268.418900,0.029,-3217.025,46.6,507.860,18009ce4,9,0,21661498.463,0.049,-113831942.421834,0.028,-1213.455,47.4,339.934,08009d04,19,0,21659353.248,0.048,-113820630.955395,0.027,-2816.305,47.5,506.820,08009d44*2418b56a
#SATXYZ2A,USB1_1,0,58.5,FINESTEERING,2000,308461.000,00000000,7513,12778;7,GPS,2,-2647337.0550,15495580.6876,21973852.2911,36154.200,0.000,0.000,0.0,0.0,GPS,12,10014945.0017,23362169.7108,7851454.2285,100360.399,0.000,0.000,0.0,0.0,GPS,5,1001355.8046,25033640.6568,8393521.0693,-2476.438,0.000,0.000,0.0,0.0,GPS,6,-17281317.6237,8438173.1624,18364360.4975,121255.449,0.000,0.000,0.0,0.0,GPS,17,-21041121.4341,15501694.3048,-3952487.4172,-29860.200,0.000,0.000,0.0,0.0,GPS,9,-19420542.2019,1582939.7641,18024410.2760,153912.002,0.000,0.000,0.0,0.0,GPS,19,-19345513.6280,18127767.1898,2529283.4209,-131211.073,0.000,0.000,0.0,0.0*52aa8b99
#BESTPOSA,USB1_1,0,58.5,FINESTEERING,2000,308461.000,00000000,7145,12778;SOL_COMPUTED,PSRDIFF,36.76858586081,126.93549726239,75.4982,23.3000,WGS84,0.6821,0.6245,1.6983,"0",1.000,0.000,8,7,7,7,0,1a,00,01*6164ced4
#BESTXYZA,USB1_1,0,58.5,FINESTEERING,2000,308461.000,00000000,bde7,12778;SOL_COMPUTED,PSRDIFF,-3073975.1962,4088872.1471,3796911.1503,0.9881,1.2471,1.0991,SOL_COMPUTED,PSRDIFF,-1.0794e-10,-1.8916e-10,-3.0268e-11,0.0011,0.0011,0.0011,"0",0.150,1.000,0.000,8,7,7,7,0,1a,00,01*cbff257d
#RANGEA,USB1_1,0,58.5,FINESTEERING,2000,308462.000,00000000,5103,12778;8,2,0,21427390.378,0.080,-112601694.860703,0.034,1582.749,43.1,340.760,08009c04,12,0,23547814.475,2.658,-123744592.261338,0.146,-1780.984,31.1,1.440,08009c24,23,0,24800650.282,0.075,-130328264.617348,0.035,-2707.728,43.7,482.830,18009c44,5,0,21829127.441,0.038,-114712803.191254,0.032,2198.944,49.5,513.580,18009c84,6,0,20686952.616,0.041,-108710671.584489,0.033,-700.819,49.0,340.944,08009ca4,17,0,22682725.915,0.052,-119198487.413376,0.034,-3218.488,46.8,508.860,18009ce4,9,0,21661729.742,0.048,-113833157.818673,0.032,-1215.141,47.5,340.934,08009d04,19,0,21659889.521,0.048,-113823449.136113,0.032,-2818.002,47.6,507.820,08009d44*bd1e4fce
#SATXYZ2A,USB1_1,0,58.5,FINESTEERING,2000,308462.000,00000000,7513,12778;8,GPS,2,-2649941.6141,15495032.5464,21973902.2568,36154.199,0.000,0.000,0.0,0.0,GPS,12,10014974.1080,23363199.4065,7848444.6666,100360.399,0.000,0.000,0.0,0.0,GPS,23,-11413027.0461,-10807609.6906,21696650.6626,-65119.166,0.000,0.000,0.0,0.0,GPS,5,1000746.8857,25032685.0539,8396429.6736,-2476.438,0.000,0.000,0.0,0.0,GPS,6,-17283527.8403,8437451.1810,18362611.5295,121255.448,0.000,0.000,0.0,0.0,GPS,17,-21040862.7360,15501158.9354,-3955666.9910,-29860.199,0.000,0.000,0.0,0.0,GPS,9,-19419061.0747,1581175.9845,18026156.4230,153912.002,0.000,0.000,0.0,0.0,GPS,19,-19345917.4677,18127834.2956,2526098.4194,-131211.072,0.000,0.000,0.0,0.0*db034e29
#BESTPOSA,USB1_1,0,58.5,FINESTEERING,2000,308462.000,00000000,7145,12778;SOL_COMPUTED,PSRDIFF,36.76858586386,126.93549730430,75.4984,23.3000,WGS84,0.6807,0.6233,1.6952,"0",1.400,0.000,8,8,8,8,0,1a,00,01*25ccfac6
#BESTXYZA,USB1_1,0,58.5,FINESTEERING,2000,308462.000,00000000,bde7,12778;SOL_COMPUTED,PSRDIFF,-3073975.1992,4088872.1448,3796911.1507,0.9864,1.2447,1.0969,SOL_COMPUTED,PSRDIFF,0.0000,0.0000,0.0000,0.0011,0.0011,0.0011,"0",0.150,1.400,0.000,8,8,8,8,0,1a,00,01*6dda50f6
#RANGEA,USB1_1,0,64.5,FINESTEERING,2000,308463.000,00000000,5103,12778;7,2,0,21427089.453,0.081,-112600113.548325,0.030,1580.993,43.0,341.760,08009c04,23,0,24801165.751,0.075,-130330973.469582,0.032,-2709.321,43.6,483.830,18009c44,5,0,21828709.229,0.038,-114710605.507046,0.029,2197.190,49.4,514.580,18009c84,6,0,20687086.278,0.041,-108711374.008860,0.029,-703.000,49.0,341.944,08009ca4,17,0,22683338.652,0.053,-119201707.443024,0.029,-3220.620,46.7,509.860,18009ce4,9,0,21661961.258,0.049,-113834374.526366,0.029,-1217.343,47.4,341.934,08009d04,19,0,21660426.020,0.048,-113826268.462718,0.029,-2819.885,47.6,508.820,08009d44*99d005fc
#SATXYZ2A,USB1_1,0,64.5,FINESTEERING,2000,308463.000,00000000,7513,12778;7,GPS,2,-2652546.2137,15494484.5543,21973951.7784,36154.197,0.000,0.000,0.0,0.0,GPS,23,-11411137.1971,-10809529.9449,21696645.6455,-65119.165,0.000,0.000,0.0,0.0,GPS,5,1000137.8111,25031729.1321,8399338.0964,-2476.438,0.000,0.000,0.0,0.0,GPS,6,-17285737.8877,8436729.3879,18360862.1722,121255.448,0.000,0.000,0.0,0.0,GPS,17,-21040603.7738,15500623.2761,-3958846.4793,-29860.199,0.000,0.000,0.0,0.0,GPS,9,-19417579.8942,1579411.9636,18027902.1858,153912.002,0.000,0.000,0.0,0.0,GPS,19,-19346320.9922,18127901.1741,2522913.3647,-131211.071,0.000,0.000,0.0,0.0*b74a6a18
#BESTPOSA,USB1_1,0,64.5,FINESTEERING,2000,308463.000,00000000,7145,12778;SOL_COMPUTED,PSRDIFF,36.76858586386,126.93549730430,75.4984,23.3000,WGS84,0.6807,0.6233,1.6952,"0",1.200,0.000,7,7,7,7,0,1a,00,01*eac3a54b
#BESTXYZA,USB1_1,0,64.5,FINESTEERING,2000,308463.000,00000000,bde7,12778;SOL_COMPUTED,PSRDIFF,-3073975.1992,4088872.1448,3796911.1507,0.9864,1.2447,1.0969,SOL_COMPUTED,PSRDIFF,0.0000,0.0000,0.0000,0.0009,0.0009,0.0009,"0",0.150,1.200,0.000,7,7,7,7,0,1a,00,01*6e6f2e1f
#RANGEA,USB1_1,0,65.0,FINESTEERING,2000,308464.000,00000000,5103,12778;7,2,0,21426788.927,0.080,-112598534.197709,0.031,1578.097,43.0,342.760,08009c04,23,0,24801681.638,0.076,-130333684.475104,0.030,-2712.183,43.5,484.830,18009c44,5,0,21828291.437,0.038,-114708410.009301,0.029,2194.234,49.5,515.580,18009c84,6,0,20687220.345,0.041,-108712078.566994,0.030,-705.991,48.9,342.944,08009ca4,17,0,22683951.792,0.054,-119204929.601187,0.030,-3223.561,46.5,510.860,18009ce4,9,0,21662193.251,0.049,-113835593.697194,0.030,-1220.713,47.4,342.934,08009d04,19,0,21660962.940,0.048,-113829090.042706,0.029,-2822.986,47.5,509.820,08009d44*88c93210
#SATXYZ2A,USB1_1,0,65.0,FINESTEERING,2000,308464.000,00000000,7513,12778;7,GPS,2,-2655150.8536,15493936.7114,21974000.8559,36154.195,0.000,0.000,0.0,0.0,GPS,23,-11409247.4523,-10811450.3083,21696640.1787,-65119.164,0.000,0.000,0.0,0.0,GPS,5,999528.5808,25030772.8913,8402246.3376,-2476.439,0.000,0.000,0.0,0.0,GPS,6,-17287947.7658,8436007.7832,18359112.4256,121255.447,0.000,0.000,0.0,0.0,GPS,17,-21040344.5474,15500087.3269,-3962025.8821,-29860.198,0.000,0.000,0.0,0.0,GPS,9,-19416098.6604,1577647.7014,18029647.5642,153912.002,0.000,0.000,0.0,0.0,GPS,19,-19346724.2015,18127967.8252,2519728.2567,-131211.070,0.000,0.000,0.0,0.0*763a83fa
#BESTPOSA,USB1_1,0,65.0,FINESTEERING,2000,308464.000,00000000,7145,12778;SOL_COMPUTED,PSRDIFF,36.76858586386,126.93549730430,75.4984,23.3000,WGS84,0.6807,0.6233,1.6952,"0",1.000,0.000,7,7,7,7,0,1a,00,01*4453e3e6
#BESTXYZA,USB1_1,0,65.0,FINESTEERING,2000,308464.000,00000000,bde7,12778;SOL_COMPUTED,PSRDIFF,-3073975.1992,4088872.1448,3796911.1507,0.9864,1.2447,1.0969,SOL_COMPUTED,PSRDIFF,-3.2566e-10,-2.7041e-10,5.8387e-11,0.0008,0.0008,0.0008,"0",0.150,1.000,0.000,7,7,7,7,0,1a,00,01*c7dd0bfa
#RANGEA,USB1_1,0,60.5,FINESTEERING,2000,308465.000,00000000,5103,12778;7,2,0,21426488.339,0.080,-112596954.646037,0.032,1580.483,43.0,343.760,08009c04,23,0,24802197.523,0.075,-130336395.449803,0.031,-2710.137,43.6,485.830,18009c44,5,0,21827873.640,0.038,-114706214.498845,0.032,2196.337,49.5,516.580,18009c84,6,0,20687354.403,0.041,-108712783.063929,0.031,-703.346,48.9,343.944,08009ca4,17,0,22684564.911,0.053,-119208151.729357,0.032,-3221.220,46.7,511.860,18009ce4,9,0,21662425.299,0.048,-113836813.114880,0.031,-1218.713,47.4,343.934,08009d04,19,0,21661499.884,0.049,-113831911.704814,0.032,-2820.864,47.4,510.820,08009d44*f7aa5302
#SATXYZ2A,USB1_1,0,60.5,FINESTEERING,2000,308465.000,00000000,7513,12778;7,GPS,2,-2657755.5340,15493389.0176,21974049.4893,36154.194,0.000,0.000,0.0,0.0,GPS,23,-11407357.8119,-10813370.7807,21696634.2622,-65119.163,0.000,0.000,0.0,0.0,GPS,5,998919.1947,25029816.3315,8405154.3973,-2476.439,0.000,0.000,0.0,0.0,GPS,6,-17290157.4747,8435286.3668,18357362.2899,121255.447,0.000,0.000,0.0,0.0,GPS,17,-21040085.0568,15499551.0876,-3965205.1994,-29860.198,0.000,0.000,0.0,0.0,GPS,9,-19414617.3733,1575883.1980,18031392.5584,153912.003,0.000,0.000,0.0,0.0,GPS,19,-19347127.0958,18128034.2490,2516543.0956,-131211.069,0.000,0.000,0.0,0.0*efdabe21
#BESTPOSA,USB1_1,0,60.5,FINESTEERING,2000,308465.000,00000000,7145,12778;SOL_COMPUTED,PSRDIFF,36.76858586727,126.93549731656,75.4944,23.3000,WGS84,0.6797,0.6225,1.6931,"0",1.400,0.000,7,7,7,7,0,1a,00,01*40eb9185
#BESTXYZA,USB1_1,0,60.5,FINESTEERING,2000,308465.000,00000000,bde7,12778;SOL_COMPUTED,PSRDIFF,-3073975.1980,4088872.1414,3796911.1486,0.9855,1.2430,1.0955,SOL_COMPUTED,PSRDIFF,-9.3977e-10,0.0000,-1.9605e-10,0.0008,0.0008,0.0008,"0",0.150,1.400,0.000,7,7,7,7,0,1a,00,01*b81538d2
#RANGEA,USB1_1,0,60.5,FINESTEERING,2000,308466.000,00000000,5103,12778;7,2,0,21426187.501,0.080,-112595373.753487,0.031,1581.473,43.0,344.760,08009c04,23,0,24802713.173,0.076,-130339105.206464,0.031,-2709.025,43.6,486.830,18009c44,5,0,21827455.623,0.039,-114704017.824355,0.029,2197.268,49.4,517.580,18009c84,6,0,20687488.235,0.041,-108713486.384284,0.029,-702.885,48.9,344.944,08009ca4,17,0,22685177.806,0.055,-119211372.681021,0.029,-3220.346,46.3,512.860,18009ce4,9,0,21662657.181,0.049,-113838031.663253,0.029,-1218.156,47.3,344.934,08009d04,19,0,21662036.610,0.049,-113834732.312413,0.030,-2820.175,47.3,511.820,08009d44*6f8eacfb
#SATXYZ2A,USB1_1,0,60.5,FINESTEERING,2000,308466.000,00000000,7513,12778;7,GPS,2,-2660360.2546,15492841.4731,21974097.6786,36154.192,0.000,0.000,0.0,0.0,GPS,23,-11405468.2758,-10815291.3621,21696627.8961,-65119.162,0.000,0.000,0.0,0.0,GPS,5,998309.6528,25028859.4529,8408062.2753,-2476.439,0.000,0.000,0.0,0.0,GPS,6,-17292367.0143,8434565.1388,18355611.7649,121255.446,0.000,0.000,0.0,0.0,GPS,17,-21039825.3022,15499014.5583,-3968384.4311,-29860.197,0.000,0.000,0.0,0.0,GPS,9,-19413136.0331,1574118.4533,18033137.1682,153912.003,0.000,0.000,0.0,0.0,GPS,19,-19347529.6749,18128100.4453,2513357.8813,-131211.068,0.000,0.000,0.0,0.0*2247586a
#BESTPOSA,USB1_1,0,60.5,FINESTEERING,2000,308466.000,00000000,7145,12778;SOL_COMPUTED,PSRDIFF,36.76858586727,126.93549731656,75.4944,23.3000,WGS84,0.6797,0.6225,1.6931,"0",1.200,0.000,7,7,7,7,0,1a,00,01*a144f9ba
#BESTXYZA,USB1_1,0,60.5,FINESTEERING,2000,308466.000,00000000,bde7,12778;SOL_COMPUTED,PSRDIFF,-3073975.1980,4088872.1414,3796911.1486,0.9855,1.2430,1.0955,SOL_COMPUTED,PSRDIFF,-1.3639e-10,-2.1514e-10,-2.8453e-11,0.0010,0.0010,0.0010,"0",0.150,1.200,0.000,7,7,7,7,0,1a,00,01*ed2a388d
#RANGEA,USB1_1,0,60.5,FINESTEERING,2000,308467.000,00000000,5103,12778;7,2,0,21425886.672,0.080,-112593792.841168,0.030,1578.416,43.1,345.760,08009c04,23,0,24803228.848,0.077,-130341815.117608,0.030,-2712.701,43.4,487.830,18009c44,5,0,21827037.643,0.038,-114701821.337836,0.029,2193.783,49.4,518.580,18009c84,6,0,20687622.090,0.041,-108714189.833361,0.029,-706.346,49.0,345.944,08009ca4,17,0,22685790.751,0.054,-119214593.786498,0.029,-3223.808,46.4,513.860,18009ce4,9,0,21662889.154,0.049,-113839250.679848,0.029,-1222.039,47.3,345.934,08009d04,19,0,21662573.401,0.048,-113837553.183169,0.029,-2823.653,47.4,512.820,08009d44*f76e5cdd
#SATXYZ2A,USB1_1,0,60.5,FINESTEERING,2000,308467.000,00000000,7513,12778;7,GPS,2,-2662965.0154,15492294.0777,21974145.4238,36154.190,0.000,0.000,0.0,0.0,GPS,23,-11403578.8441,-10817212.0525,21696621.0802,-65119.161,0.000,0.000,0.0,0.0,GPS,5,997699.9551,25027902.2553,8410969.9715,-2476.440,0.000,0.000,0.0,0.0,GPS,6,-17294576.3844,8433844.0990,18353860.8508,121255.445,0.000,0.000,0.0,0.0,GPS,17,-21039565.2835,15498477.7389,-3971563.5772,-29860.196,0.000,0.000,0.0,0.0,GPS,9,-19411654.6398,1572353.4674,18034881.3936,153912.003,0.000,0.000,0.0,0.0,GPS,19,-19347931.9390,18128166.4141,2510172.6140,-131211.067,0.000,0.000,0.0,0.0*e8c81c12
#BESTPOSA,USB1_1,0,60.5,FINESTEERING,2000,308467.000,00000000,7145,12778;SOL_COMPUTED,PSRDIFF,36.76858586945,126.93549732572,75.4915,23.3000,WGS84,0.6790,0.6220,1.6917,"0",1.000,0.000,7,7,7,7,0,1a,00,01*34fd0df1
#BESTXYZA,USB1_1,0,60.5,FINESTEERING,2000,308467.000,00000000,bde7,12778;SOL_COMPUTED,PSRDIFF,-3073975.1972,4088872.1390,3796911.1471,0.9848,1.2418,1.0944,SOL_COMPUTED,PSRDIFF,0.0000,0.0000,-6.3199e-10,0.0008,0.0008,0.0008,"0",0.150,1.000,0.000,7,7,7,7,0,1a,00,01*097142af
#RANGEA,USB1_1,0,62.5,FINESTEERING,2000,308468.000,00000000,5103,12778;7,2,0,21425586.138,0.080,-112592213.564501,0.028,1580.608,43.1,346.760,08009c04,23,0,24803744.878,0.076,-130344526.820084,0.027,-2710.700,43.6,488.830,18009c44,5,0,21826620.008,0.038,-114699626.686553,0.026,2195.787,49.5,519.580,18009c84,6,0,20687756.291,0.041,-108714895.076802,0.027,-703.937,48.9,346.944,08009ca4,17,0,22686404.024,0.056,-119217816.699000,0.027,-3221.610,46.2,514.860,18009ce4,9,0,21663121.513,0.049,-113840471.784314,0.026,-1220.144,47.3,346.934,08009d04,19,0,21663110.555,0.048,-113840375.976445,0.027,-2821.596,47.5,513.820,08009d44*0c6fc2ea
#SATXYZ2A,USB1_1,0,62.5,FINESTEERING,2000,308468.000,00000000,7513,12778;7,GPS,2,-2665569.8165,15491746.8316,21974192.7249,36154.189,0.000,0.000,0.0,0.0,GPS,23,-11401689.5169,-10819132.8518,21696613.8147,-65119.160,0.000,0.000,0.0,0.0,GPS,5,997090.1015,25026944.7390,8413877.4860,-2476.440,0.000,0.000,0.0,0.0,GPS,6,-17296785.5850,8433123.2475,18352109.5476,121255.445,0.000,0.000,0.0,0.0,GPS,17,-21039305.0009,15497940.6295,-3974742.6374,-29860.196,0.000,0.000,0.0,0.0,GPS,9,-19410173.1934,1570588.2403,18036625.2345,153912.003,0.000,0.000,0.0,0.0,GPS,19,-19348333.8880,18128232.1555,2506987.2937,-131211.066,0.000,0.000,0.0,0.0*f1349784
#BESTPOSA,USB1_1,0,62.5,FINESTEERING,2000,308468.000,00000000,7145,12778;SOL_COMPUTED,PSRDIFF,36.76858586945,126.93549732572,75.4915,23.3000,WGS84,0.6790,0.6220,1.6917,"0",1.400,0.000,7,7,7,7,0,1a,00,01*7d5edb38
#BESTXYZA,USB1_1,0,62.5,FINESTEERING,2000,308468.000,00000000,bde7,12778;SOL_COMPUTED,PSRDIFF,-3073975.1972,4088872.1390,3796911.1471,0.9848,1.2418,1.0944,SOL_COMPUTED,PSRDIFF,-9.9154e-11,-1.9720e-10,-2.7324e-11,0.0008,0.0008,0.0008,"0",0.150,1.400,0.000,7,7,7,7,0,1a,00,01*ffc67945
#RANGEA,USB1_1,0,58.5,FINESTEERING,2000,308469.000,00000000,5103,12778;7,2,0,21425285.872,0.077,-112590635.654305,0.028,1577.261,43.4,347.760,08009c04,23,0,24804261.191,0.077,-130347240.041089,0.026,-2714.099,43.4,489.830,18009c44,5,0,21826202.676,0.038,-114697433.576932,0.025,2192.431,49.6,520.580,18009c84,6,0,20687890.777,0.041,-108715601.831458,0.025,-707.359,48.9,347.944,08009ca4,17,0,22687017.587,0.056,-119221041.147961,0.026,-3225.169,46.1,515.860,18009ce4,9,0,21663354.226,0.050,-113841694.717436,0.025,-1223.804,47.2,347.934,08009d04,19,0,21663648.023,0.047,-113843200.417506,0.025,-2825.293,47.6,514.820,08009d44*52c3746e
#SATXYZ2A,USB1_1,0,58.5,FINESTEERING,2000,308469.000,00000000,7513,12778;7,GPS,2,-2668174.6576,15491199.7347,21974239.5819,36154.187,0.000,0.000,0.0,0.0,GPS,23,-11399800.2942,-10821053.7600,21696606.0995,-65119.159,0.000,0.000,0.0,0.0,GPS,5,996480.0920,25025986.9039,8416784.8186,-2476.440,0.000,0.000,0.0,0.0,GPS,6,-17298994.6161,8432402.5843,18350357.8553,121255.444,0.000,0.000,0.0,0.0,GPS,17,-21039044.4543,15497403.2299,-3977921.6119,-29860.195,0.000,0.000,0.0,0.0,GPS,9,-19408691.6940,1568822.7720,18038368.6910,153912.003,0.000,0.000,0.0,0.0,GPS,19,-19348735.5221,18128297.6692,2503801.9204,-131211.064,0.000,0.000,0.0,0.0*4237c583
#BESTPOSA,USB1_1,0,58.5,FINESTEERING,2000,308469.000,00000000,7145,12778;SOL_COMPUTED,PSRDIFF,36.76858586945,126.93549732572,75.4915,23.3000,WGS84,0.6790,0.6220,1.6917,"0",1.200,0.000,7,7,7,7,0,1a,00,01*a3ec18bf
#BESTXYZA,USB1_1,0,58.5,FINESTEERING,2000,308469.000,00000000,bde7,12778;SOL_COMPUTED,PSRDIFF,-3073975.1972,4088872.1390,3796911.1471,0.9848,1.2418,1.0944,SOL_COMPUTED,PSRDIFF,-1.1972e-11,-2.3810e-11,-3.2992e-12,0.0009,0.0009,0.0009,"0",0.150,1.200,0.000,7,7,7,7,0,1a,00,01*1389f2e0
#RANGEA,USB1_1,0,58.5,FINESTEERING,2000,308470.000,00000000,5103,12778;7,2,0,21424985.446,0.077,-112589056.910983,0.027,1577.278,43.4,348.760,08009c04,23,0,24804777.378,0.075,-130349952.575102,0.027,-2714.131,43.6,490.830,18009c44,5,0,21825785.217,0.038,-114695239.833981,0.025,2192.292,49.5,521.580,18009c84,6,0,20688025.132,0.041,-108716307.900012,0.026,-707.642,48.9,348.944,08009ca4,17,0,22687631.026,0.057,-119224264.915303,0.025,-3225.282,46.1,516.860,18009ce4,9,0,21663586.873,0.050,-113842917.283162,0.027,-1224.090,47.1,348.934,08009d04,19,0,21664185.381,0.047,-113846024.295939,0.025,-2825.412,47.6,515.820,08009d44*94976f9f
#SATXYZ2A,USB1_1,0,58.5,FINESTEERING,2000,308470.000,00000000,7513,12778;7,GPS,2,-2670779.5388,15490652.7871,21974285.9948,36154.185,0.000,0.000,0.0,0.0,GPS,23,-11397911.1760,-10822974.7770,21696597.9345,-65119.158,0.000,0.000,0.0,0.0,GPS,5,995869.9265,25025028.7500,8419691.9692,-2476.441,0.000,0.000,0.0,0.0,GPS,6,-17301203.4776,8431682.1094,18348605.7739,121255.444,0.000,0.000,0.0,0.0,GPS,17,-21038783.6438,15496865.5402,-3981100.5004,-29860.195,0.000,0.000,0.0,0.0,GPS,9,-19407210.1417,1567057.0626,18040111.7630,153912.003,0.000,0.000,0.0,0.0,GPS,19,-19349136.8412,18128362.9553,2500616.4944,-131211.063,0.000,0.000,0.0,0.0*dce3e7e8
#BESTPOSA,USB1_1,0,58.5,FINESTEERING,2000,308470.000,00000000,7145,12778;SOL_COMPUTED,PSRDIFF,36.76858587112,126.93549733484,75.4886,23.3000,WGS84,0.6783,0.6214,1.6902,"0",1.000,0.000,7,7,7,7,0,1a,00,01*076d3b44
#BESTXYZA,USB1_1,0,58.5,FINESTEERING,2000,308470.000,00000000,bde7,12778;SOL_COMPUTED,PSRDIFF,-3073975.1964,4088872.1365,3796911.1455,0.9842,1.2406,1.0934,SOL_COMPUTED,PSRDIFF,-5.1633e-10,-9.6822e-10,-1.9481e-10,0.0008,0.0008,0.0008,"0",0.150,1.000,0.000,7,7,7,7,0,1a,00,01*2adb3533
#RANGEA,USB1_1,0,60.5,FINESTEERING,2000,308471.000,00000000,5103,12778;7,2,0,21424685.324,0.076,-112587479.816853,0.026,1575.078,43.6,349.760,08009c04,23,0,24805293.908,0.077,-130352666.900403,0.030,-2715.817,43.3,491.830,18009c44,5,0,21825368.112,0.038,-114693047.932160,0.025,2189.922,49.6,522.580,18009c84,6,0,20688159.820,0.041,-108717015.774001,0.024,-709.953,48.8,349.944,08009ca4,17,0,22688244.807,0.056,-119227490.518834,0.025,-3227.699,46.2,517.860,18009ce4,9,0,21663819.928,0.051,-113844141.993457,0.026,-1226.887,47.0,349.934,08009d04,19,0,21664723.103,0.047,-113848850.116015,0.026,-2827.893,47.6,516.820,08009d44*1a20a0c1
#SATXYZ2A,USB1_1,0,60.5,FINESTEERING,2000,308471.000,00000000,7513,12778;7,GPS,2,-2673384.4600,15490105.9887,21974331.9636,36154.184,0.000,0.000,0.0,0.0,GPS,23,-11396022.1624,-10824895.9027,21696589.3199,-65119.157,0.000,0.000,0.0,0.0,GPS,5,995259.6051,25024070.2774,8422598.9379,-2476.441,0.000,0.000,0.0,0.0,GPS,6,-17303412.1695,8430961.8227,18346853.3036,121255.443,0.000,0.000,0.0,0.0,GPS,17,-21038522.5694,15496327.5603,-3984279.3030,-29860.194,0.000,0.000,0.0,0.0,GPS,9,-19405728.5366,1565291.1120,18041854.4504,153912.004,0.000,0.000,0.0,0.0,GPS,19,-19349537.8453,18128428.0138,2497431.0155,-131211.062,0.000,0.000,0.0,0.0*b71a3f47
#BESTPOSA,USB1_1,0,60.5,FINESTEERING,2000,308471.000,00000000,7145,12778;SOL_COMPUTED,PSRDIFF,36.76858587112,126.93549733484,75.4886,23.3000,WGS84,0.6783,0.6214,1.6902,"0",1.400,0.000,7,7,7,7,0,1a,00,01*577cd373
#BESTXYZA,USB1_1,0,60.5,FINESTEERING,2000,308471.000,00000000,bde7,12778;SOL_COMPUTED,PSRDIFF,-3073975.1964,4088872.1365,3796911.1455,0.9842,1.2406,1.0934,SOL_COMPUTED,PSRDIFF,-2.2329e-11,-4.1871e-11,-8.4247e-12,0.0008,0.0008,0.0008,"0",0.150,1.400,0.000,7,7,7,7,0,1a,00,01*20c7f349
#RANGEA,USB1_1,0,60.5,FINESTEERING,2000,308472.000,00000000,5103,12778;7,2,0,21424385.249,0.075,-112585902.925948,0.026,1576.563,43.7,350.760,08009c04,23,0,24805810.498,0.077,-130355381.608010,0.028,-2714.923,43.4,492.830,18009c44,5,0,21824951.086,0.037,-114690856.428549,0.024,2191.159,49.7,523.580,18009c84,6,0,20688294.576,0.041,-108717723.997992,0.025,-708.414,48.9,350.944,08009ca4,17,0,22688858.665,0.055,-119230716.475390,0.025,-3226.099,46.3,518.860,18009ce4,9,0,21664053.100,0.051,-113845367.353308,0.025,-1225.989,47.0,350.934,08009d04,19,0,21665260.927,0.047,-113851676.405942,0.026,-2826.513,47.7,517.820,08009d44*466a6804
#SATXYZ2A,USB1_1,0,60.5,FINESTEERING,2000,308472.000,00000000,7513,12778;7,GPS,2,-2675989.4211,15489559.3396,21974377.4882,36154.182,0.000,0.000,0.0,0.0,GPS,23,-11394133.2535,-10826817.1372,21696580.2555,-65119.156,0.000,0.000,0.0,0.0,GPS,5,994649.1276,25023111.4861,8425505.7246,-2476.441,0.000,0.000,0.0,0.0,GPS,6,-17305620.6916,8430241.7242,18345100.4443,121255.443,0.000,0.000,0.0,0.0,GPS,17,-21038261.2312,15495789.2902,-3987458.0195,-29860.194,0.000,0.000,0.0,0.0,GPS,9,-19404246.8786,1563524.9203,18043596.7532,153912.004,0.000,0.000,0.0,0.0,GPS,19,-19349938.5345,18128492.8446,2494245.4839,-131211.061,0.000,0.000,0.0,0.0*33b39afe
#BESTXYZA,USB1_1,0,60.5,FINESTEERING,2000,308472.000,00000000,bde7,12778;SOL_COMPUTED,PSRDIFF,-3073975.1958,4088872.1346,3796911.1442,0.9836,1.2397,1.0926,SOL_COMPUTED,PSRDIFF,0.0000,0.0000,-7.9089e-10,0.0008,0.0008,0.0008,"0",0.150,1.200,0.000,7,7,7,7,0,1a,00,01*d61d3e2c
#BESTPOSA,USB1_1,0,60.5,FINESTEERING,2000,308472.000,00000000,7145,12778;SOL_COMPUTED,PSRDIFF,36.76858587210,126.93549734269,75.4864,23.3000,WGS84,0.6777,0.6210,1.6891,"0",1.200,0.000,7,7,7,7,0,1a,00,01*dabaf4a1
#RANGEA,USB1_1,0,59.5,FINESTEERING,2000,308473.000,00000000,5103,12778;7,2,0,21424085.092,0.074,-112584325.574090,0.029,1577.911,43.8,351.760,08009c04,23,0,24806327.045,0.077,-130358096.004811,0.030,-2713.702,43.4,493.830,18009c44,5,0,21824534.012,0.037,-114688664.652726,0.028,2192.356,49.7,524.580,18009c84,6,0,20688429.280,0.040,-108718431.917956,0.028,-707.360,49.0,351.944,08009ca4,17,0,22689472.459,0.055,-119233942.156584,0.029,-3224.974,46.3,519.860,18009ce4,9,0,21664286.274,0.050,-113846592.722651,0.028,-1224.928,47.1,351.934,08009d04,19,0,21665798.711,0.047,-113854502.522591,0.029,-2825.430,47.8,518.820,08009d44*8fb7d197
#SATXYZ2A,USB1_1,0,59.5,FINESTEERING,2000,308473.000,00000000,7513,12778;7,GPS,2,-2678594.4221,15489012.8398,21974422.5688,36154.180,0.000,0.000,0.0,0.0,GPS,23,-11392244.4492,-10828738.4804,21696570.7415,-65119.155,0.000,0.000,0.0,0.0,GPS,5,994038.4941,25022152.3762,8428412.3291,-2476.442,0.000,0.000,0.0,0.0,GPS,6,-17307829.0439,8429521.8140,18343347.1961,121255.442,0.000,0.000,0.0,0.0,GPS,17,-21037999.6293,15495250.7298,-3990636.6500,-29860.193,0.000,0.000,0.0,0.0,GPS,9,-19402765.1678,1561758.4875,18045338.6714,153912.004,0.000,0.000,0.0,0.0,GPS,19,-19350338.9089,18128557.4476,2491059.8997,-131211.060,0.000,0.000,0.0,0.0*3a03ed2b
#BESTPOSA,USB1_1,0,59.5,FINESTEERING,2000,308473.000,00000000,7145,12778;SOL_COMPUTED,PSRDIFF,36.76858587210,126.93549734269,75.4864,23.3000,WGS84,0.6777,0.6210,1.6891,"0",1.000,0.000,7,7,7,7,0,1a,00,01*c9f37a1d
#BESTXYZA,USB1_1,0,59.5,FINESTEERING,2000,308473.000,00000000,bde7,12778;SOL_COMPUTED,PSRDIFF,-3073975.1958,4088872.1346,3796911.1442,0.9836,1.2397,1.0926,SOL_COMPUTED,PSRDIFF,-9.0980e-11,-1.4930e-10,-3.4205e-11,0.0008,0.0008,0.0008,"0",0.150,1.000,0.000,7,7,7,7,0,1a,00,01*3c4d448c
#RANGEA,USB1_1,0,59.5,FINESTEERING,2000,308474.000,00000000,5103,12778;7,2,0,21423784.964,0.075,-112582748.376856,0.025,1578.133,43.7,352.760,08009c04,23,0,24806843.644,0.076,-130360810.732785,0.026,-2714.067,43.5,494.830,18009c44,5,0,21824117.000,0.038,-114686473.237010,0.023,2192.301,49.7,525.580,18009c84,6,0,20688564.047,0.041,-108719140.139117,0.024,-707.003,49.0,352.944,08009ca4,17,0,22690086.332,0.055,-119237168.168818,0.024,-3224.934,46.3,520.860,18009ce4,9,0,21664519.573,0.050,-113847818.725197,0.024,-1225.243,47.1,352.934,08009d04,19,0,21666336.580,0.047,-113857329.101411,0.024,-2825.742,47.7,519.820,08009d44*44bad2ab
#SATXYZ2A,USB1_1,0,59.5,FINESTEERING,2000,308474.000,00000000,7513,12778;6,GPS,2,-2681199.4628,15488466.4893,21974467.2052,36154.179,0.000,0.000,0.0,0.0,GPS,5,993427.7044,25021192.9477,8431318.7515,-2476.442,0.000,0.000,0.0,0.0,GPS,6,-17310037.2264,8428802.0920,18341593.5590,121255.441,0.000,0.000,0.0,0.0,GPS,17,-21037737.7636,15494711.8792,-3993815.1943,-29860.192,0.000,0.000,0.0,0.0,GPS,9,-19401283.4043,1559991.8137,18047080.2050,153912.004,0.000,0.000,0.0,0.0,GPS,19,-19350738.9683,18128621.8228,2487874.2629,-131211.059,0.000,0.000,0.0,0.0*bc8b6afe
