#RANGEA,USB2_1,0,62.5,FINESTEERING,2000,298736.000,00000000,5103,12778;10,1,0,23953029.065,0.072,-125873991.055623,0.028,-2852.196,44.0,7939.120,18009c04,9,0,24375739.390,0.082,-128095385.030162,0.028,2969.396,42.9,1297.650,08009c24,3,0,21661920.581,0.044,-113834167.904782,0.026,-2160.778,48.3,7932.580,08009c44,17,0,20800200.779,0.052,-109305761.621756,0.027,1129.310,46.9,2498.290,08009c64,28,0,21672268.441,0.040,-113888512.817731,0.027,-2583.694,49.1,7904.580,18009c84,23,0,23968322.348,0.055,-125954375.688451,0.028,1818.855,46.3,3178.594,18009cc4,22,0,23962575.768,0.078,-125924181.730822,0.030,-3057.846,43.3,7912.120,08009ce4,19,0,21145277.422,0.166,-111119165.833947,0.045,1953.437,40.0,62.924,18009d04,11,0,24415952.945,0.129,-128306675.544232,0.039,-3014.602,38.9,7938.930,18009d44,6,0,21636685.666,0.042,-113701582.928176,0.027,1643.504,48.7,5972.860,18009d64*2f0ba945
#SATXYZ2A,USB2_1,0,62.5,FINESTEERING,2000,298736.000,00000000,7513,12778;10,GPS,1,-19192179.6545,-8358379.4314,16380569.2516,-13946.961,3.982,7.938,0.0,0.0,GPS,9,-23440706.7783,8595961.4782,-9109878.7263,153909.712,4.834,11.889,0.0,0.0,GPS,3,-16801910.6755,1968819.9567,20444954.9945,20064.879,2.777,3.506,0.0,0.0,GPS,17,-8640126.7555,14255351.7411,21032539.7027,-29873.737,2.299,2.627,0.0,0.0,GPS,28,-13724040.6962,22744344.2780,-393079.3680,213958.925,3.155,3.708,0.0,0.0,GPS,23,-26558594.0517,-364669.1156,3822287.4113,-65131.242,3.863,6.893,0.0,0.0,GPS,22,-14280831.3025,-7564153.1427,21326633.2801,-115598.983,3.971,6.896,0.0,0.0,GPS,19,-1004601.4992,14630612.9946,21857359.1761,-131215.753,2.773,3.129,0.0,0.0,GPS,11,-23973284.9230,-7375115.6476,7944115.1656,-220825.362,4.137,11.143,0.0,0.0,GPS,6,2922667.2415,21942523.5102,14691650.3493,121261.174,3.253,3.564,0.0,0.0*da8ac2eb
#BESTPOSA,USB2_1,0,62.5,FINESTEERING,2000,298736.000,00000000,7145,12778;SOL_COMPUTED,SINGLE,36.76858963865,126.93549526890,74.7990,23.3000,WGS84,0.9453,0.8212,1.5493,"",0.000,0.000,10,10,10,10,0,12,00,01*9552bdc1
#BESTXYZA,USB2_1,0,62.5,FINESTEERING,2000,298736.000,00000000,bde7,12778;SOL_COMPUTED,SINGLE,-3073974.5666,4088871.6058,3796911.0676,1.2948,1.0706,1.0705,SOL_COMPUTED,SINGLE,0.0000,0.0000,0.0000,0.0011,0.0011,0.0011,"",0.150,0.000,0.000,10,10,10,10,0,12,00,01*1bc38ed7
#RANGEA,USB2_1,0,62.5,FINESTEERING,2000,298737.000,00000000,5103,12778;10,1,0,23953572.036,0.071,-125876844.361670,0.028,-2852.452,44.1,7940.120,18009c04,9,0,24375174.552,0.080,-128092416.643595,0.029,2969.481,43.1,1298.650,08009c24,3,0,21662331.981,0.043,-113836329.884213,0.025,-2161.284,48.4,7933.580,08009c44,17,0,20799986.131,0.053,-109304633.632520,0.026,1128.661,46.7,2499.290,08009c64,28,0,21672760.357,0.040,-113891097.803969,0.026,-2584.207,49.2,7905.580,18009c84,23,0,23967976.509,0.054,-125952558.230941,0.026,1818.178,46.6,3179.594,18009cc4,22,0,23963157.928,0.075,-125927241.015681,0.027,-3058.417,43.7,7913.120,08009ce4,19,0,21144906.009,0.159,-111117213.709769,0.035,1952.920,40.3,63.924,18009d04,11,0,24416526.721,0.126,-128309690.920771,0.036,-3014.336,39.1,7939.930,18009d44,6,0,21636373.148,0.042,-113699940.691832,0.027,1643.169,48.7,5973.860,18009d64*373f4b3f
#SATXYZ2A,USB2_1,0,62.5,FINESTEERING,2000,298737.000,00000000,7513,12778;10,GPS,1,-19193228.0961,-8360196.8861,16378461.5221,-13946.961,3.982,7.940,0.0,0.0,GPS,9,-23441880.0603,8595788.7184,-9107014.1003,153909.712,4.833,11.883,0.0,0.0,GPS,3,-16800874.6119,1966431.5276,20446041.0051,20064.881,2.777,3.506,0.0,0.0,GPS,17,-8642707.5287,14255350.8837,21031448.0976,-29873.735,2.298,2.627,0.0,0.0,GPS,28,-13724149.0831,22744134.6629,-396306.3908,213958.926,3.156,3.708,0.0,0.0,GPS,23,-26558176.1719,-364998.9647,3825348.0546,-65131.241,3.863,6.892,0.0,0.0,GPS,22,-14279800.5489,-7566611.5262,21326450.0359,-115598.986,3.970,6.898,0.0,0.0,GPS,19,-1007440.6355,14630557.3097,21857284.7601,-131215.753,2.772,3.128,0.0,0.0,GPS,11,-23973987.4026,-7376067.6489,7941291.1394,-220825.363,4.137,11.147,0.0,0.0,GPS,6,2921458.1225,21941099.4620,14694025.3720,121261.174,3.252,3.563,0.0,0.0*eca12e75
#BESTPOSA,USB2_1,0,62.5,FINESTEERING,2000,298737.000,00000000,7145,12778;SOL_COMPUTED,SINGLE,36.76858963865,126.93549526890,74.7990,23.3000,WGS84,0.9453,0.8212,1.5493,"",0.000,0.000,10,10,10,10,0,12,00,01*e4fe6586
#BESTXYZA,USB2_1,0,62.5,FINESTEERING,2000,298737.000,00000000,bde7,12778;SOL_COMPUTED,SINGLE,-3073974.5666,4088871.6058,3796911.0676,1.2948,1.0706,1.0705,SOL_COMPUTED,SINGLE,0.0000,0.0000,0.0000,0.0011,0.0011,0.0011,"",0.150,0.000,0.000,10,10,10,10,0,12,00,01*68fc74dc
#RANGEA,USB2_1,0,66.5,FINESTEERING,2000,298738.000,00000000,5103,12778;10,1,0,23954114.870,0.070,-125879697.008401,0.072,-2853.636,44.3,7941.120,18009c04,9,0,24374609.601,0.079,-128089447.547560,0.032,2968.357,43.2,1299.650,08009c24,3,0,21662743.350,0.043,-113838491.680632,0.027,-2162.808,48.4,7934.580,08009c44,17,0,20799771.413,0.052,-109303505.263243,0.027,1127.527,46.8,2500.290,08009c64,28,0,21673252.220,0.040,-113893682.539511,0.028,-2585.720,49.2,7906.580,18009c84,23,0,23967630.586,0.053,-125950740.416142,0.028,1816.888,46.7,3180.594,18009cc4,22,0,23963740.012,0.075,-125930299.856089,0.030,-3059.473,43.6,7914.120,08009ce4,19,0,21144534.514,0.157,-111115261.200476,0.035,1951.630,40.4,64.924,18009d04,11,0,24417100.386,0.122,-128312705.676137,0.100,-3014.928,39.4,7940.930,18009d44,6,0,21636060.553,0.042,-113698298.052684,0.028,1641.694,48.7,5974.860,18009d64*1fe69b22
#SATXYZ2A,USB2_1,0,66.5,FINESTEERING,2000,298738.000,00000000,7513,12778;10,GPS,1,-19194276.4974,-8362014.0550,16376353.4450,-13946.962,3.982,7.942,0.0,0.0,GPS,9,-23443052.9945,8595615.9929,-9104149.2810,153909.713,4.832,11.878,0.0,0.0,GPS,3,-16799838.6278,1964042.9159,20447126.5795,20064.883,2.777,3.507,0.0,0.0,GPS,17,-8645288.1698,14255350.1845,21030356.0587,-29873.732,2.298,2.627,0.0,0.0,GPS,28,-13724257.2817,22743924.7010,-399533.4052,213958.927,3.156,3.709,0.0,0.0,GPS,23,-26557757.9336,-365328.8692,3828408.6190,-65131.240,3.862,6.891,0.0,0.0,GPS,22,-14278769.9328,-7569069.9428,21326266.3480,-115598.989,3.970,6.900,0.0,0.0,GPS,19,-1010279.7632,14630501.7970,21857209.8663,-131215.753,2.772,3.128,0.0,0.0,GPS,11,-23974689.6237,-7377019.4255,7938466.9393,-220825.364,4.136,11.152,0.0,0.0,GPS,6,2920248.7493,21939675.2406,14696400.0824,121261.173,3.251,3.563,0.0,0.0*db93f3fa
#BESTPOSA,USB2_1,0,66.5,FINESTEERING,2000,298738.000,00000000,7145,12778;SOL_COMPUTED,SINGLE,36.76858960265,126.93549535019,74.7946,23.3000,WGS84,0.9419,0.8187,1.5471,"",0.000,0.000,10,10,10,10,0,12,00,01*3e6e2922
#BESTXYZA,USB2_1,0,66.5,FINESTEERING,2000,298738.000,00000000,bde7,12778;SOL_COMPUTED,SINGLE,-3073974.5717,4088871.6005,3796911.0618,1.2929,1.0679,1.0671,SOL_COMPUTED,SINGLE,0.0000,0.0000,0.0000,0.0011,0.0011,0.0011,"",0.150,0.000,0.000,10,10,10,10,0,12,00,01*edacc370
#RANGEA,USB2_1,0,67.5,FINESTEERING,2000,298739.000,00000000,5103,12778;10,1,0,23954657.650,0.069,-125882549.307835,0.050,-2851.936,44.3,7942.120,18009c04,9,0,24374044.586,0.076,-128086478.110942,0.113,2970.219,43.6,1300.650,08009c24,3,0,21663154.749,0.043,-113840653.658938,0.030,-2161.590,48.4,7935.580,08009c44,17,0,20799556.703,0.052,-109302376.900563,0.029,1128.720,46.8,2501.290,08009c64,28,0,21673744.099,0.040,-113896267.373578,0.030,-2584.415,49.1,7907.580,18009c84,23,0,23967284.673,0.053,-125948922.569602,0.030,1818.223,46.6,3181.594,18009cc4,22,0,23964322.084,0.075,-125933358.576173,0.031,-3058.236,43.6,7915.120,08009ce4,19,0,21144162.996,0.153,-111113308.642922,0.115,1953.331,40.5,65.924,18009d04,11,0,24417674.025,0.119,-128315720.271210,0.067,-3014.043,39.6,7941.930,18009d44,6,0,21635747.943,0.042,-113696655.323306,0.029,1643.411,48.7,5975.860,18009d64*79e3397f
#SATXYZ2A,USB2_1,0,67.5,FINESTEERING,2000,298739.000,00000000,7513,12778;10,GPS,1,-19195324.8585,-8363830.9379,16374245.0202,-13946.963,3.982,7.944,0.0,0.0,GPS,9,-23444225.5807,8595443.3016,-9101284.2683,153909.713,4.832,11.873,0.0,0.0,GPS,3,-16798802.7230,1961654.1217,20448211.7178,20064.886,2.777,3.507,0.0,0.0,GPS,17,-8647868.6787,14255349.6436,21029263.5862,-29873.730,2.298,2.627,0.0,0.0,GPS,28,-13724365.2922,22743714.3923,-402760.4111,213958.928,3.156,3.709,0.0,0.0,GPS,23,-26557339.3367,-365658.8291,3831469.1044,-65131.239,3.861,6.890,0.0,0.0,GPS,22,-14277739.4540,-7571528.3925,21326082.2164,-115598.993,3.970,6.902,0.0,0.0,GPS,19,-1013118.8824,14630446.4564,21857134.4948,-131215.753,2.771,3.128,0.0,0.0,GPS,11,-23975391.5864,-7377970.9775,7935642.5654,-220825.365,4.136,11.156,0.0,0.0,GPS,6,2919039.1218,21938250.8459,14698774.4804,121261.172,3.251,3.563,0.0,0.0*2a598e1c
#BESTPOSA,USB2_1,0,67.5,FINESTEERING,2000,298739.000,00000000,7145,12778;SOL_COMPUTED,SINGLE,36.76858960265,126.93549535019,74.7946,23.3000,WGS84,0.9419,0.8187,1.5471,"",0.000,0.000,10,10,10,10,0,12,00,01*ba267de0
#BESTXYZA,USB2_1,0,67.5,FINESTEERING,2000,298739.000,00000000,bde7,12778;SOL_COMPUTED,SINGLE,-3073974.5717,4088871.6005,3796911.0618,1.2929,1.0679,1.0671,SOL_COMPUTED,SINGLE,0.0000,0.0000,0.0000,0.0011,0.0011,0.0011,"",0.150,0.000,0.000,10,10,10,10,0,12,00,01*e963347b
#RANGEA,USB2_1,0,67.5,FINESTEERING,2000,298740.000,00000000,5103,12778;10,1,0,23955200.387,0.068,-125885401.369599,0.037,-2852.252,44.5,7943.120,18009c04,9,0,24373479.521,0.076,-128083508.402095,0.072,2969.358,43.5,1301.650,08009c24,3,0,21663566.199,0.043,-113842815.886624,0.027,-2163.063,48.4,7936.580,08009c44,17,0,20799342.006,0.052,-109301248.595847,0.028,1127.732,46.9,2502.290,08009c64,28,0,21674236.010,0.040,-113898852.375760,0.027,-2585.842,49.1,7908.580,18009c84,23,0,23966938.758,0.053,-125947104.794524,0.027,1817.228,46.7,3182.594,18009cc4,22,0,23964904.127,0.074,-125936417.256335,0.029,-3059.118,43.8,7916.120,08009ce4,19,0,21143791.475,0.146,-111111356.177445,0.073,1951.328,40.8,66.924,18009d04,11,0,24418247.627,0.122,-128318734.656047,0.050,-3016.036,39.4,7942.930,18009d44,6,0,21635435.336,0.042,-113695012.601207,0.028,1642.165,48.6,5976.860,18009d64*540c83c7
#SATXYZ2A,USB2_1,0,67.5,FINESTEERING,2000,298740.000,00000000,7513,12778;10,GPS,1,-19196373.1792,-8365647.5349,16372136.2478,-13946.964,3.981,7.947,0.0,0.0,GPS,9,-23445397.8190,8595270.6445,-9098419.0624,153909.713,4.831,11.868,0.0,0.0,GPS,3,-16797766.8977,1959265.1450,20449296.4199,20064.888,2.777,3.508,0.0,0.0,GPS,17,-8650449.0553,14255349.2609,21028170.6801,-29873.728,2.298,2.626,0.0,0.0,GPS,28,-13724473.1147,22743503.7367,-405987.4085,213958.929,3.156,3.710,0.0,0.0,GPS,23,-26556920.3814,-365988.8444,3834529.5107,-65131.238,3.861,6.888,0.0,0.0,GPS,22,-14276709.1128,-7573986.8752,21325897.6411,-115598.996,3.970,6.903,0.0,0.0,GPS,19,-1015957.9928,14630391.2879,21857058.6455,-131215.753,2.771,3.128,0.0,0.0,GPS,11,-23976093.2906,-7378922.3049,7932818.0177,-220825.366,4.136,11.160,0.0,0.0,GPS,6,2917829.2400,21936826.2780,14701148.5660,121261.172,3.250,3.562,0.0,0.0*08a06784
#BESTPOSA,USB2_1,0,67.5,FINESTEERING,2000,298740.000,00000000,7145,12778;SOL_COMPUTED,SINGLE,36.76858960265,126.93549535019,74.7946,23.3000,WGS84,0.9419,0.8187,1.5471,"",0.000,0.000,10,10,10,10,0,12,00,01*07e30b4f
#BESTXYZA,USB2_1,0,67.5,FINESTEERING,2000,298740.000,00000000,bde7,12778;SOL_COMPUTED,SINGLE,-3073974.5717,4088871.6005,3796911.0618,1.2929,1.0679,1.0671,SOL_COMPUTED,SINGLE,0.0000,0.0000,0.0000,0.0011,0.0011,0.0011,"",0.150,0.000,0.000,10,10,10,10,0,12,00,01*e5c6ad76
#RANGEA,USB2_1,0,65.0,FINESTEERING,2000,298741.000,00000000,5103,12778;10,1,0,23955743.226,0.067,-125888254.051619,0.032,-2851.078,44.6,7944.120,18009c04,9,0,24372914.561,0.076,-128080539.310069,0.050,2970.837,43.5,1302.650,08009c24,3,0,21663977.858,0.043,-113844979.210187,0.029,-2161.803,48.4,7937.580,08009c44,17,0,20799127.485,0.051,-109300121.230241,0.028,1128.799,46.9,2503.290,08009c64,28,0,21674728.121,0.040,-113901438.407832,0.028,-2584.438,49.1,7909.580,18009c84,23,0,23966593.027,0.052,-125945287.944033,0.027,1818.175,46.8,3183.594,18009cc4,22,0,23965486.347,0.075,-125939476.820981,0.029,-3058.240,43.6,7917.120,08009ce4,19,0,21143420.113,0.142,-111109404.553654,0.053,1953.266,41.0,67.924,18009d04,11,0,24418821.381,0.118,-128321749.760583,0.073,-3013.972,39.7,7943.930,18009d44,6,0,21635122.895,0.043,-113693370.756320,0.028,1643.303,48.6,5977.860,18009d64*a96b72f5
#SATXYZ2A,USB2_1,0,65.0,FINESTEERING,2000,298741.000,00000000,7513,12778;10,GPS,1,-19197421.4595,-8367463.8460,16370027.1279,-13946.964,3.981,7.949,0.0,0.0,GPS,9,-23446569.7093,8595098.0215,-9095553.6632,153909.714,4.830,11.862,0.0,0.0,GPS,3,-16796731.1519,1956875.9858,20450380.6858,20064.890,2.777,3.508,0.0,0.0,GPS,17,-8653029.2997,14255349.0365,21027077.3402,-29873.726,2.297,2.626,0.0,0.0,GPS,28,-13724580.7490,22743292.7343,-409214.3972,213958.930,3.156,3.711,0.0,0.0,GPS,23,-26556501.0675,-366318.9153,3837589.8380,-65131.237,3.860,6.887,0.0,0.0,GPS,22,-14275678.9091,-7576445.3909,21325712.6221,-115598.999,3.970,6.905,0.0,0.0,GPS,19,-1018797.0945,14630336.2916,21856982.3185,-131215.753,2.770,3.127,0.0,0.0,GPS,11,-23976794.7362,-7379873.4077,7929993.2965,-220825.366,4.135,11.164,0.0,0.0,GPS,6,2916619.1039,21935401.5369,14703522.3390,121261.171,3.250,3.562,0.0,0.0*49f4e79f
#BESTPOSA,USB2_1,0,65.0,FINESTEERING,2000,298741.000,00000000,7145,12778;SOL_COMPUTED,SINGLE,36.76858957028,126.93549543209,74.7903,23.3000,WGS84,0.9384,0.8162,1.5449,"",0.000,0.000,10,10,10,10,0,12,00,01*1a4f5adb
#BESTXYZA,USB2_1,0,65.0,FINESTEERING,2000,298741.000,00000000,bde7,12778;SOL_COMPUTED,SINGLE,-3073974.5768,4088871.5951,3796911.0563,1.2911,1.0653,1.0638,SOL_COMPUTED,SINGLE,0.0000,0.0000,0.0000,0.0011,0.0011,0.0011,"",0.150,0.000,0.000,10,10,10,10,0,12,00,01*7ebe7245
#RANGEA,USB2_1,0,65.0,FINESTEERING,2000,298742.000,00000000,5103,12778;10,1,0,23956285.840,0.065,-125891105.470950,0.035,-2849.751,44.9,7945.120,18009c04,9,0,24372349.364,0.074,-128077568.937566,0.043,2972.265,43.8,1303.650,08009c24,3,0,21664389.375,0.043,-113847141.783654,0.033,-2161.140,48.4,7938.580,08009c44,17,0,20798912.776,0.051,-109298992.898804,0.034,1129.868,47.0,2504.290,08009c64,28,0,21675220.069,0.040,-113904023.598151,0.033,-2583.642,49.1,7910.580,18009c84,23,0,23966247.119,0.051,-125943470.130545,0.033,1819.332,47.0,3184.594,18009cc4,22,0,23966068.365,0.074,-125942535.310406,0.035,-3057.124,43.7,7918.120,08009ce4,19,0,21143048.605,0.141,-111107451.975377,0.045,1954.890,41.0,68.924,18009d04,11,0,24419394.884,0.119,-128324763.639046,0.099,-3011.993,39.7,7944.930,18009d44,6,0,21634810.260,0.042,-113691727.890879,0.033,1644.544,48.7,5978.860,18009d64*fceed2ff
#SATXYZ2A,USB2_1,0,65.0,FINESTEERING,2000,298742.000,00000000,7513,12778;10,GPS,1,-19198469.6993,-8369279.8711,16367917.6605,-13946.965,3.981,7.951,0.0,0.0,GPS,9,-23447741.2515,8594925.4326,-9092688.0708,153909.714,4.829,11.857,0.0,0.0,GPS,3,-16795695.4857,1954486.6443,20451464.5154,20064.892,2.777,3.508,0.0,0.0,GPS,17,-8655609.4116,14255348.9702,21025983.5668,-29873.724,2.297,2.626,0.0,0.0,GPS,28,-13724688.1954,22743081.3849,-412441.3772,213958.931,3.156,3.711,0.0,0.0,GPS,23,-26556081.3952,-366649.0418,3840650.0860,-65131.236,3.859,6.886,0.0,0.0,GPS,22,-14274648.8428,-7578903.9396,21325527.1595,-115599.002,3.970,6.907,0.0,0.0,GPS,19,-1021636.1873,14630281.4675,21856905.5138,-131215.753,2.770,3.127,0.0,0.0,GPS,11,-23977495.9233,-7380824.2859,7927168.4016,-220825.367,4.135,11.168,0.0,0.0,GPS,6,2915408.7136,21933976.6229,14705895.7994,121261.170,3.249,3.562,0.0,0.0*3bfd715a
#BESTXYZA,USB2_1,0,65.0,FINESTEERING,2000,298742.000,00000000,bde7,12778;SOL_COMPUTED,SINGLE,-3073974.5768,4088871.5951,3796911.0563,1.2911,1.0653,1.0638,SOL_COMPUTED,SINGLE,0.0000,0.0000,0.0000,0.0011,0.0011,0.0011,"",0.150,0.000,0.000,10,10,10,10,0,12,00,01*ebfe7c58
#BESTPOSA,USB2_1,0,65.0,FINESTEERING,2000,298742.000,00000000,7145,12778;SOL_COMPUTED,SINGLE,36.76858957028,126.93549543209,74.7903,23.3000,WGS84,0.9384,0.8162,1.5449,"",0.000,0.000,10,10,10,10,0,12,00,01*88ba3212
#RANGEA,USB2_1,0,65.0,FINESTEERING,2000,298743.000,00000000,5103,12778;10,1,0,23956828.813,0.065,-125893958.742451,0.030,-2855.477,44.9,7946.120,18009c04,9,0,24371784.518,0.073,-128074600.363555,0.034,2966.229,43.9,1304.650,08009c24,3,0,21664801.336,0.044,-113849306.681590,0.030,-2167.476,48.3,7939.580,08009c44,17,0,20798698.491,0.051,-109297866.743342,0.030,1123.720,47.0,2505.290,08009c64,28,0,21675712.449,0.040,-113906611.051463,0.029,-2589.933,49.0,7911.580,18009c84,23,0,23965901.607,0.050,-125941654.451915,0.029,1813.394,47.1,3185.594,18009cc4,22,0,23966650.770,0.075,-125945595.815915,0.032,-3062.974,43.7,7919.120,08009ce4,19,0,21142677.483,0.138,-111105501.552321,0.070,1948.062,41.1,69.924,18009d04,11,0,24419968.797,0.120,-128327779.471202,0.092,-3018.367,39.6,7945.930,18009d44,6,0,21634498.025,0.043,-113690087.118966,0.030,1638.318,48.6,5979.860,18009d64*890a55af
#SATXYZ2A,USB2_1,0,65.0,FINESTEERING,2000,298743.000,00000000,7513,12778;10,GPS,1,-19199517.8987,-8371095.6102,16365807.8457,-13946.966,3.981,7.953,0.0,0.0,GPS,9,-23448912.4458,8594752.8777,-9089822.2853,153909.714,4.828,11.852,0.0,0.0,GPS,3,-16794659.8991,1952097.1205,20452547.9088,20064.894,2.777,3.509,0.0,0.0,GPS,17,-8658189.3911,14255349.0620,21024889.3598,-29873.722,2.297,2.626,0.0,0.0,GPS,28,-13724795.4538,22742869.6886,-415668.3484,213958.932,3.156,3.712,0.0,0.0,GPS,23,-26555661.3644,-366979.2239,3843710.2548,-65131.235,3.859,6.885,0.0,0.0,GPS,22,-14273618.9141,-7581362.5211,21325341.2531,-115599.005,3.970,6.909,0.0,0.0,GPS,19,-1024475.2712,14630226.8154,21856828.2313,-131215.754,2.769,3.127,0.0,0.0,GPS,11,-23978196.8517,-7381774.9396,7924343.3332,-220825.368,4.135,11.173,0.0,0.0,GPS,6,2914198.0690,21932551.5358,14708268.9472,121261.170,3.249,3.562,0.0,0.0*923b59cf
#BESTPOSA,USB2_1,0,65.0,FINESTEERING,2000,298743.000,00000000,7145,12778;SOL_COMPUTED,SINGLE,36.76858954169,126.93549551252,74.7862,23.3000,WGS84,0.9350,0.8138,1.5427,"",0.000,0.000,10,10,10,10,0,12,00,01*9529984b
#BESTXYZA,USB2_1,0,65.0,FINESTEERING,2000,298743.000,00000000,bde7,12778;SOL_COMPUTED,SINGLE,-3073974.5817,4088871.5897,3796911.0514,1.2893,1.0627,1.0605,SOL_COMPUTED,SINGLE,0.0000,0.0000,0.0000,0.0011,0.0011,0.0011,"",0.150,0.000,0.000,10,10,10,10,0,12,00,01*48ea1af5
#RANGEA,USB2_1,0,65.5,FINESTEERING,2000,298744.000,00000000,5103,12778;10,1,0,23957372.585,0.064,-125896816.186242,0.028,-2857.938,44.9,7947.120,18009c04,9,0,24371220.463,0.073,-128071635.957782,0.031,2964.090,43.9,1305.650,08009c24,3,0,21665214.190,0.043,-113851476.247268,0.027,-2170.047,48.4,7940.580,08009c44,17,0,20798485.057,0.050,-109296745.067008,0.028,1121.124,47.1,2506.290,08009c64,28,0,21676205.699,0.041,-113909203.104176,0.027,-2592.555,49.0,7912.580,18009c84,23,0,23965556.967,0.050,-125939843.275023,0.028,1810.498,47.2,3186.594,18009cc4,22,0,23967233.998,0.075,-125948660.744225,0.030,-3065.562,43.6,7920.120,08009ce4,19,0,21142307.219,0.133,-111103555.594062,0.050,1945.939,41.3,70.924,18009d04,11,0,24420543.491,0.125,-128330799.544467,0.061,-3020.404,39.2,7946.930,18009d44,6,0,21634186.629,0.043,-113688450.779301,0.028,1635.875,48.6,5980.860,18009d64*b237c6de
#SATXYZ2A,USB2_1,0,65.5,FINESTEERING,2000,298744.000,00000000,7513,12778;10,GPS,1,-19200566.0574,-8372911.0633,16363697.6834,-13946.967,3.981,7.955,0.0,0.0,GPS,9,-23450083.2919,8594580.3568,-9086956.3068,153909.714,4.827,11.847,0.0,0.0,GPS,3,-16793624.3920,1949707.4144,20453630.8659,20064.896,2.777,3.509,0.0,0.0,GPS,17,-8660769.2381,14255349.3120,21023794.7192,-29873.720,2.296,2.626,0.0,0.0,GPS,28,-13724902.5243,22742657.6454,-418895.3107,213958.933,3.157,3.712,0.0,0.0,GPS,23,-26555240.9752,-367309.4616,3846770.3443,-65131.233,3.858,6.883,0.0,0.0,GPS,22,-14272589.1230,-7583821.1353,21325154.9031,-115599.008,3.970,6.911,0.0,0.0,GPS,19,-1027314.3462,14630172.3355,21856750.4711,-131215.754,2.768,3.126,0.0,0.0,GPS,11,-23978897.5215,-7382725.3688,7921518.0913,-220825.369,4.134,11.177,0.0,0.0,GPS,6,2912987.1701,21931126.2758,14710641.7824,121261.169,3.248,3.561,0.0,0.0*6e52ddc4
#BESTPOSA,USB2_1,0,65.5,FINESTEERING,2000,298744.000,00000000,7145,12778;SOL_COMPUTED,SINGLE,36.76858954169,126.93549551252,74.7862,23.3000,WGS84,0.9350,0.8138,1.5427,"",0.000,0.000,10,10,10,10,0,12,00,01*9c1a5a4f
#BESTXYZA,USB2_1,0,65.5,FINESTEERING,2000,298744.000,00000000,bde7,12778;SOL_COMPUTED,SINGLE,-3073974.5817,4088871.5897,3796911.0514,1.2893,1.0627,1.0605,SOL_COMPUTED,SINGLE,0.0000,0.0000,0.0000,0.0011,0.0011,0.0011,"",0.150,0.000,0.000,10,10,10,10,0,12,00,01*3191d200
#RANGEA,USB2_1,0,66.0,FINESTEERING,2000,298745.000,00000000,5103,12778;10,1,0,23957915.854,0.065,-125899671.036567,0.028,-2854.085,44.9,7948.120,18009c04,9,0,24370655.905,0.074,-128068668.921855,0.029,2967.881,43.8,1306.650,08009c24,3,0,21665626.632,0.043,-113853643.697825,0.027,-2166.843,48.5,7941.580,08009c44,17,0,20798271.181,0.051,-109295621.107590,0.028,1124.506,47.0,2507.290,08009c64,28,0,21676698.532,0.041,-113911792.961011,0.028,-2589.215,48.9,7913.580,18009c84,23,0,23965211.885,0.049,-125938029.790660,0.027,1814.229,47.3,3187.594,18009cc4,22,0,23967816.787,0.075,-125951723.308011,0.029,-3062.266,43.7,7921.120,08009ce4,19,0,21141936.502,0.134,-111101607.312541,0.038,1949.029,41.3,71.924,18009d04,11,0,24421117.719,0.120,-128333817.080737,0.047,-3016.723,39.6,7947.930,18009d44,6,0,21633874.788,0.042,-113686812.086047,0.028,1639.504,48.6,5981.860,18009d64*b37f7278
#SATXYZ2A,USB2_1,0,66.0,FINESTEERING,2000,298745.000,00000000,7513,12778;10,GPS,1,-19201614.1755,-8374726.2304,16361587.1739,-13946.968,3.980,7.957,0.0,0.0,GPS,9,-23451253.7900,8594407.8699,-9084090.1352,153909.715,4.826,11.842,0.0,0.0,GPS,3,-16792588.9647,1947317.5261,20454713.3867,20064.898,2.777,3.509,0.0,0.0,GPS,17,-8663348.9526,14255349.7202,21022699.6450,-29873.718,2.296,2.626,0.0,0.0,GPS,28,-13725009.4069,22742445.2552,-422122.2642,213958.934,3.157,3.713,0.0,0.0,GPS,23,-26554820.2275,-367639.7551,3849830.3544,-65131.232,3.858,6.882,0.0,0.0,GPS,22,-14271559.4694,-7586279.7824,21324968.1094,-115599.012,3.970,6.913,0.0,0.0,GPS,19,-1030153.4120,14630118.0278,21856672.2332,-131215.754,2.768,3.126,0.0,0.0,GPS,11,-23979597.9326,-7383675.5735,7918692.6761,-220825.370,4.134,11.181,0.0,0.0,GPS,6,2911776.0169,21929700.8429,14713014.3048,121261.168,3.248,3.561,0.0,0.0*e96968d8
#BESTPOSA,USB2_1,0,66.0,FINESTEERING,2000,298745.000,00000000,7145,12778;SOL_COMPUTED,SINGLE,36.76858954169,126.93549551252,74.7862,23.3000,WGS84,0.9350,0.8138,1.5427,"",0.000,0.000,10,10,10,10,0,12,00,01*aeeedc56
#BESTXYZA,USB2_1,0,66.0,FINESTEERING,2000,298745.000,00000000,bde7,12778;SOL_COMPUTED,SINGLE,-3073974.5817,4088871.5897,3796911.0514,1.2893,1.0627,1.0605,SOL_COMPUTED,SINGLE,0.0000,0.0000,0.0000,0.0011,0.0011,0.0011,"",0.150,0.000,0.000,10,10,10,10,0,12,00,01*210b178e
#RANGEA,USB2_1,0,67.0,FINESTEERING,2000,298746.000,00000000,5103,12778;10,1,0,23958459.310,0.063,-125902526.877162,0.029,-2856.438,45.1,7949.120,18009c04,9,0,24370091.520,0.073,-128065702.874972,0.030,2965.396,43.9,1307.650,08009c24,3,0,21666039.368,0.043,-113855812.648253,0.028,-2169.688,48.5,7942.580,08009c44,17,0,20798057.548,0.050,-109294498.449460,0.027,1122.026,47.1,2508.290,08009c64,28,0,21677191.633,0.042,-113914384.248708,0.028,-2591.973,48.7,7914.580,18009c84,23,0,23964867.056,0.049,-125936217.613108,0.028,1811.514,47.4,3188.594,18009cc4,22,0,23968399.800,0.076,-125954787.033963,0.032,-3064.548,43.5,7922.120,08009ce4,19,0,21141566.045,0.131,-111099660.339261,0.034,1946.316,41.4,72.924,18009d04,11,0,24421692.154,0.118,-128336835.722247,0.087,-3019.155,39.7,7948.930,18009d44,6,0,21633563.185,0.042,-113685174.633956,0.029,1636.959,48.6,5982.860,18009d64*dcecc9bb
#SATXYZ2A,USB2_1,0,67.0,FINESTEERING,2000,298746.000,00000000,7513,12778;10,GPS,1,-19202662.2529,-8376541.1114,16359476.3170,-13946.968,3.980,7.960,0.0,0.0,GPS,9,-23452423.9400,8594235.4169,-9081223.7708,153909.715,4.825,11.837,0.0,0.0,GPS,3,-16791553.6171,1944927.4556,20455795.4712,20064.900,2.777,3.510,0.0,0.0,GPS,17,-8665928.5344,14255350.2864,21021604.1373,-29873.716,2.296,2.626,0.0,0.0,GPS,28,-13725116.1017,22742232.5180,-425349.2087,213958.935,3.157,3.714,0.0,0.0,GPS,23,-26554399.1214,-367970.1043,3852890.2851,-65131.231,3.857,6.881,0.0,0.0,GPS,22,-14270529.9535,-7588738.4621,21324780.8720,-115599.015,3.970,6.915,0.0,0.0,GPS,19,-1032992.4688,14630063.8922,21856593.5175,-131215.754,2.767,3.126,0.0,0.0,GPS,11,-23980298.0850,-7384625.5537,7915867.0874,-220825.370,4.134,11.185,0.0,0.0,GPS,6,2910564.6094,21928275.2372,14715386.5145,121261.168,3.247,3.561,0.0,0.0*4e4abfcf
#BESTPOSA,USB2_1,0,67.0,FINESTEERING,2000,298746.000,00000000,7145,12778;SOL_COMPUTED,SINGLE,36.76858951734,126.93549559132,74.7824,23.3000,WGS84,0.9317,0.8113,1.5405,"",0.000,0.000,10,10,10,10,0,12,00,01*e2643739
#BESTXYZA,USB2_1,0,67.0,FINESTEERING,2000,298746.000,00000000,bde7,12778;SOL_COMPUTED,SINGLE,-3073974.5864,4088871.5843,3796911.0469,1.2875,1.0601,1.0573,SOL_COMPUTED,SINGLE,0.0000,0.0000,0.0000,0.0011,0.0011,0.0011,"",0.150,0.000,0.000,10,10,10,10,0,12,00,01*64e9fe9b
#RANGEA,USB2_1,0,67.5,FINESTEERING,2000,298747.000,00000000,5103,12778;10,1,0,23959002.862,0.065,-125905383.273961,0.031,-2853.628,44.8,7950.120,18009c04,9,0,24369527.231,0.073,-128062737.347119,0.033,2967.781,43.8,1308.650,08009c24,3,0,21666452.301,0.043,-113857982.657105,0.031,-2167.974,48.4,7943.580,08009c44,17,0,20797844.084,0.051,-109293376.657870,0.030,1124.464,47.0,2509.290,08009c64,28,0,21677684.918,0.043,-113916976.523413,0.031,-2590.234,48.6,7915.580,18009c84,23,0,23964522.395,0.050,-125934406.310019,0.031,1813.792,47.1,3189.594,18009cc4,22,0,23968982.969,0.077,-125957851.578227,0.077,-3061.901,43.4,7923.120,08009ce4,19,0,21141195.734,0.129,-111097714.201304,0.097,1948.337,41.5,73.924,18009d04,11,0,24422266.701,0.119,-128339855.026444,0.083,-3017.333,39.6,7949.930,18009d44,6,0,21633251.738,0.042,-113683538.015158,0.031,1638.863,48.6,5983.860,18009d64*b7f206b3
#SATXYZ2A,USB2_1,0,67.5,FINESTEERING,2000,298747.000,00000000,7513,12778;10,GPS,1,-19203710.2896,-8378355.7063,16357365.1129,-13946.969,3.980,7.962,0.0,0.0,GPS,9,-23453593.7418,8594062.9977,-9078357.2135,153909.715,4.824,11.831,0.0,0.0,GPS,3,-16790518.3492,1942537.2030,20456877.1193,20064.902,2.777,3.510,0.0,0.0,GPS,17,-8668507.9835,14255351.0107,21020508.1961,-29873.714,2.296,2.626,0.0,0.0,GPS,28,-13725222.6088,22742019.4337,-428576.1441,213958.936,3.157,3.714,0.0,0.0,GPS,23,-26553977.6570,-368300.5093,3855950.1363,-65131.230,3.856,6.880,0.0,0.0,GPS,22,-14269500.5751,-7591197.1745,21324593.1909,-115599.018,3.970,6.917,0.0,0.0,GPS,19,-1035831.5163,14630009.9287,21856514.3241,-131215.754,2.767,3.125,0.0,0.0,GPS,11,-23980997.9785,-7385575.3095,7913041.3255,-220825.371,4.133,11.190,0.0,0.0,GPS,6,2909352.9475,21926849.4587,14717758.4114,121261.167,3.246,3.560,0.0,0.0*a204e2a1
#BESTPOSA,USB2_1,0,67.5,FINESTEERING,2000,298747.000,00000000,7145,12778;SOL_COMPUTED,SINGLE,36.76858951734,126.93549559132,74.7824,23.3000,WGS84,0.9317,0.8114,1.5405,"",0.000,0.000,10,10,10,10,0,12,00,01*b1c1e656
#BESTXYZA,USB2_1,0,67.5,FINESTEERING,2000,298747.000,00000000,bde7,12778;SOL_COMPUTED,SINGLE,-3073974.5864,4088871.5843,3796911.0469,1.2875,1.0601,1.0573,SOL_COMPUTED,SINGLE,0.0000,0.0000,0.0000,0.0011,0.0011,0.0011,"",0.150,0.000,0.000,10,10,10,10,0,12,00,01*ec632c15
#RANGEA,USB2_1,0,67.5,FINESTEERING,2000,298748.000,00000000,5103,12778;10,1,0,23959546.094,0.065,-125908237.941016,0.081,-2854.935,44.9,7951.120,18009c04,9,0,24368962.616,0.074,-128059770.047461,0.029,2967.496,43.8,1309.650,08009c24,3,0,21666864.992,0.044,-113860151.395156,0.027,-2168.931,48.3,7944.580,08009c44,17,0,20797630.351,0.051,-109292253.439315,0.026,1123.023,47.0,2510.290,08009c64,28,0,21678177.947,0.042,-113919567.461301,0.027,-2591.174,48.6,7916.580,18009c84,23,0,23964177.446,0.050,-125932593.548184,0.027,1812.633,47.2,3190.594,18009cc4,22,0,23969565.834,0.077,-125960914.585456,0.078,-3063.361,43.4,7924.120,08009ce4,19,0,21140825.142,0.130,-111095766.624661,0.077,1947.521,41.3,74.924,18009d04,11,0,24422840.929,0.119,-128342872.639613,0.058,-3017.893,39.7,7950.930,18009d44,6,0,21632939.998,0.042,-113681899.883233,0.027,1638.171,48.6,5984.860,18009d64*b11bcf04
#SATXYZ2A,USB2_1,0,67.5,FINESTEERING,2000,298748.000,00000000,7513,12778;10,GPS,1,-19204758.2855,-8380170.0151,16355253.5616,-13946.970,3.980,7.964,0.0,0.0,GPS,9,-23454763.1955,8593890.6122,-9075490.4633,153909.716,4.823,11.826,0.0,0.0,GPS,3,-16789483.1611,1940146.7683,20457958.3311,20064.905,2.777,3.511,0.0,0.0,GPS,17,-8671087.2999,14255351.8931,21019411.8214,-29873.712,2.295,2.626,0.0,0.0,GPS,28,-13725328.9281,22741806.0024,-431803.0704,213958.937,3.157,3.715,0.0,0.0,GPS,23,-26553555.8341,-368630.9701,3859009.9079,-65131.229,3.856,6.878,0.0,0.0,GPS,22,-14268471.3344,-7593655.9194,21324405.0662,-115599.021,3.970,6.919,0.0,0.0,GPS,19,-1038670.5546,14629956.1374,21856434.6531,-131215.754,2.766,3.125,0.0,0.0,GPS,11,-23981697.6133,-7386524.8408,7910215.3904,-220825.372,4.133,11.194,0.0,0.0,GPS,6,2908141.0314,21925423.5075,14720129.9954,121261.167,3.246,3.560,0.0,0.0*3cd89837
#BESTPOSA,USB2_1,0,67.5,FINESTEERING,2000,298748.000,00000000,7145,12778;SOL_COMPUTED,SINGLE,36.76858949569,126.93549566905,74.7787,23.3000,WGS84,0.9284,0.8090,1.5383,"",0.000,0.000,10,10,10,10,0,12,00,01*7795d1af
#BESTXYZA,USB2_1,0,67.5,FINESTEERING,2000,298748.000,00000000,bde7,12778;SOL_COMPUTED,SINGLE,-3073974.5911,4088871.5789,3796911.0428,1.2857,1.0576,1.0541,SOL_COMPUTED,SINGLE,0.0000,0.0000,0.0000,0.0011,0.0011,0.0011,"",0.150,0.000,0.000,10,10,10,10,0,12,00,01*8cdf676e
#RANGEA,USB2_1,0,68.0,FINESTEERING,2000,298749.000,00000000,5103,12778;10,1,0,23960089.022,0.065,-125911091.040128,0.054,-2850.236,44.8,7952.120,18009c04,9,0,24368397.695,0.073,-128056801.202414,0.029,2972.008,43.8,1310.650,08009c24,3,0,21667277.488,0.044,-113862319.096375,0.027,-2165.074,48.3,7945.580,08009c44,17,0,20797416.378,0.050,-109291128.985123,0.027,1127.384,47.2,2511.290,08009c64,28,0,21678670.763,0.042,-113922157.268288,0.027,-2587.045,48.7,7917.580,18009c84,23,0,23963832.272,0.050,-125930779.570784,0.026,1816.803,47.2,3191.594,18009cc4,22,0,23970148.442,0.077,-125963976.244523,0.053,-3058.752,43.4,7925.120,08009ce4,19,0,21140454.346,0.131,-111093817.780144,0.053,1951.798,41.2,75.924,18009d04,11,0,24423414.896,0.126,-128345888.813111,0.045,-3013.048,39.1,7951.930,18009d44,6,0,21632628.026,0.043,-113680260.467389,0.027,1642.224,48.6,5985.860,18009d64*ff7542b6
#SATXYZ2A,USB2_1,0,68.0,FINESTEERING,2000,298749.000,00000000,7513,12778;10,GPS,1,-19205806.2405,-8381984.0378,16353141.6631,-13946.971,3.979,7.966,0.0,0.0,GPS,9,-23455932.3011,8593718.2606,-9072623.5204,153909.716,4.822,11.821,0.0,0.0,GPS,3,-16788448.0529,1937756.1516,20459039.1065,20064.907,2.777,3.511,0.0,0.0,GPS,17,-8673666.4835,14255352.9335,21018315.0132,-29873.709,2.295,2.625,0.0,0.0,GPS,28,-13725435.0597,22741592.2239,-435029.9876,213958.938,3.157,3.715,0.0,0.0,GPS,23,-26553133.6529,-368961.4869,3862069.5999,-65131.228,3.855,6.877,0.0,0.0,GPS,22,-14267442.2314,-7596114.6969,21324216.4978,-115599.024,3.970,6.921,0.0,0.0,GPS,19,-1041509.5836,14629902.5182,21856354.5042,-131215.754,2.766,3.125,0.0,0.0,GPS,11,-23982396.9891,-7387474.1477,7907389.2821,-220825.373,4.133,11.198,0.0,0.0,GPS,6,2906928.8609,21923997.3837,14722501.2665,121261.166,3.245,3.560,0.0,0.0*a27231a4
#BESTPOSA,USB2_1,0,68.0,FINESTEERING,2000,298749.000,00000000,7145,12778;SOL_COMPUTED,SINGLE,36.76858949569,126.93549566905,74.7787,23.3000,WGS84,0.9284,0.8090,1.5383,"",0.000,0.000,10,10,10,10,0,12,00,01*e6f1140c
#BESTXYZA,USB2_1,0,68.0,FINESTEERING,2000,298749.000,00000000,bde7,12778;SOL_COMPUTED,SINGLE,-3073974.5911,4088871.5789,3796911.0428,1.2857,1.0576,1.0541,SOL_COMPUTED,SINGLE,0.0000,0.0000,0.0000,0.0011,0.0011,0.0011,"",0.150,0.000,0.000,10,10,10,10,0,12,00,01*9196f423
#RANGEA,USB2_1,0,68.5,FINESTEERING,2000,298750.000,00000000,5103,12778;10,1,0,23960632.083,0.066,-125913944.828683,0.043,-2855.054,44.7,7953.120,18009c04,9,0,24367832.919,0.074,-128053832.999343,0.034,2967.034,43.8,1311.650,08009c24,3,0,21667690.197,0.043,-113864487.940249,0.032,-2170.425,48.5,7946.580,08009c44,17,0,20797202.604,0.050,-109290005.513133,0.033,1122.187,47.1,2512.290,08009c64,28,0,21679163.782,0.042,-113924748.169661,0.032,-2592.465,48.6,7918.580,18009c84,23,0,23963487.276,0.050,-125928966.557719,0.032,1811.608,47.1,3192.594,18009cc4,22,0,23970731.238,0.077,-125967038.805222,0.044,-3063.756,43.4,7926.120,08009ce4,19,0,21140083.725,0.131,-111091869.916177,0.092,1946.038,41.2,76.924,18009d04,11,0,24423989.016,0.120,-128348905.649192,0.080,-3017.830,39.6,7952.930,18009d44,6,0,21632316.218,0.043,-113678621.971419,0.033,1637.081,48.6,5986.860,18009d64*6abf209c
#SATXYZ2A,USB2_1,0,68.5,FINESTEERING,2000,298750.000,00000000,7513,12778;10,GPS,1,-19206854.1546,-8383797.7743,16351029.4175,-13946.971,3.979,7.969,0.0,0.0,GPS,9,-23457101.0584,8593545.9426,-9069756.3849,153909.716,4.821,11.816,0.0,0.0,GPS,3,-16787413.0246,1935365.3529,20460119.4454,20064.909,2.777,3.511,0.0,0.0,GPS,17,-8676245.5342,14255354.1320,21017217.7716,-29873.707,2.295,2.625,0.0,0.0,GPS,28,-13725541.0037,22741378.0983,-438256.8955,213958.939,3.158,3.716,0.0,0.0,GPS,23,-26552711.1134,-369292.0596,3865129.2122,-65131.227,3.854,6.876,0.0,0.0,GPS,22,-14266413.2660,-7598573.5068,21324027.4857,-115599.027,3.970,6.922,0.0,0.0,GPS,19,-1044348.6031,14629849.0712,21856273.8777,-131215.754,2.765,3.125,0.0,0.0,GPS,11,-23983096.1061,-7388423.2303,7904563.0008,-220825.373,4.132,11.203,0.0,0.0,GPS,6,2905716.4362,21922571.0873,14724872.2246,121261.165,3.245,3.559,0.0,0.0*556c8b48
#BESTPOSA,USB2_1,0,68.5,FINESTEERING,2000,298750.000,00000000,7145,12778;SOL_COMPUTED,SINGLE,36.76858949569,126.93549566905,74.7787,23.3000,WGS84,0.9284,0.8090,1.5383,"",0.000,0.000,10,10,10,10,0,12,00,01*c214b78a
#BESTXYZA,USB2_1,0,68.5,FINESTEERING,2000,298750.000,00000000,bde7,12778;SOL_COMPUTED,SINGLE,-3073974.5911,4088871.5789,3796911.0428,1.2857,1.0576,1.0541,SOL_COMPUTED,SINGLE,0.0000,0.0000,0.0000,0.0011,0.0011,0.0011,"",0.150,0.000,0.000,10,10,10,10,0,12,00,01*a1a01c05
#RANGEA,USB2_1,0,65.0,FINESTEERING,2000,298751.000,00000000,5103,12778;10,1,0,23961175.538,0.065,-125916800.647464,0.038,-2854.495,44.8,7954.120,18009c04,9,0,24367268.513,0.075,-128050866.819484,0.035,2967.302,43.6,1312.650,08009c24,3,0,21668103.401,0.043,-113866659.340829,0.033,-2170.616,48.6,7947.580,08009c44,17,0,20796989.264,0.050,-109288884.400843,0.034,1122.360,47.1,2513.290,08009c64,28,0,21679657.266,0.043,-113927341.538316,0.033,-2592.623,48.6,7919.580,18009c84,23,0,23963142.726,0.052,-125927155.897410,0.033,1811.730,46.9,3193.594,18009cc4,22,0,23971314.462,0.075,-125970103.617602,0.039,-3063.570,43.6,7927.120,08009ce4,19,0,21139713.517,0.129,-111089924.379906,0.092,1946.231,41.2,77.924,18009d04,11,0,24424563.547,0.117,-128351924.730309,0.057,-3018.206,39.8,7953.930,18009d44,6,0,21632004.853,0.043,-113676985.785098,0.033,1637.029,48.4,5987.860,18009d64*846cdecf
#SATXYZ2A,USB2_1,0,65.0,FINESTEERING,2000,298751.000,00000000,7513,12778;10,GPS,1,-19207902.0277,-8385611.2247,16348916.8249,-13946.972,3.979,7.971,0.0,0.0,GPS,9,-23458269.4675,8593373.6583,-9066889.0567,153909.717,4.820,11.811,0.0,0.0,GPS,3,-16786378.0762,1932974.3722,20461199.3479,20064.911,2.777,3.512,0.0,0.0,GPS,17,-8678824.4519,14255355.4884,21016120.0965,-29873.705,2.294,2.625,0.0,0.0,GPS,28,-13725646.7601,22741163.6256,-441483.7940,213958.940,3.158,3.717,0.0,0.0,GPS,23,-26552288.2155,-369622.6883,3868188.7448,-65131.226,3.854,6.875,0.0,0.0,GPS,22,-14265384.4383,-7601032.3491,21323838.0300,-115599.030,3.970,6.924,0.0,0.0,GPS,19,-1047187.6132,14629795.7963,21856192.7735,-131215.754,2.765,3.124,0.0,0.0,GPS,11,-23983794.9641,-7389372.0885,7901736.5464,-220825.374,4.132,11.207,0.0,0.0,GPS,6,2904503.7570,21921144.6184,14727242.8697,121261.165,3.244,3.559,0.0,0.0*5633bec9
#BESTPOSA,USB2_1,0,65.0,FINESTEERING,2000,298751.000,00000000,7145,12778;SOL_COMPUTED,SINGLE,36.76858947709,126.93549574604,74.7751,23.3000,WGS84,0.9251,0.8066,1.5361,"",0.000,0.000,10,10,10,10,0,12,00,01*4cc615d1
#BESTXYZA,USB2_1,0,65.0,FINESTEERING,2000,298751.000,00000000,bde7,12778;SOL_COMPUTED,SINGLE,-3073974.5956,4088871.5735,3796911.0390,1.2839,1.0551,1.0509,SOL_COMPUTED,SINGLE,0.0000,0.0000,0.0000,0.0011,0.0011,0.0011,"",0.150,0.000,0.000,10,10,10,10,0,12,00,01*971326cf
#RANGEA,USB2_1,0,65.0,FINESTEERING,2000,298752.000,00000000,5103,12778;10,1,0,23961718.476,0.064,-125919653.751353,0.034,-2852.332,44.9,7955.120,18009c04,9,0,24366703.599,0.075,-128047897.916964,0.032,2969.521,43.6,1313.650,08009c24,3,0,21668516.176,0.043,-113868828.505730,0.031,-2168.843,48.6,7948.580,08009c44,17,0,20796775.472,0.050,-109287760.880635,0.033,1124.186,47.1,2514.290,08009c64,28,0,21680150.312,0.044,-113929932.605899,0.032,-2590.729,48.3,7920.580,18009c84,23,0,23962797.729,0.052,-125925342.822823,0.032,1813.693,46.8,3194.594,18009cc4,22,0,23971897.211,0.077,-125973165.932254,0.035,-3061.698,43.4,7928.120,08009ce4,19,0,21139342.874,0.125,-111087976.424248,0.062,1948.188,41.5,78.924,18009d04,11,0,24425137.580,0.121,-128354941.123671,0.095,-3015.753,39.5,7954.930,18009d44,6,0,21631693.020,0.043,-113675347.117154,0.031,1638.950,48.5,5988.860,18009d64*b697d5ba
#SATXYZ2A,USB2_1,0,65.0,FINESTEERING,2000,298752.000,00000000,7513,12778;10,GPS,1,-19208949.8597,-8387424.3889,16346803.8852,-13946.973,3.979,7.973,0.0,0.0,GPS,9,-23459437.5283,8593201.4076,-9064021.5359,153909.717,4.819,11.806,0.0,0.0,GPS,3,-16785343.2078,1930583.2097,20462278.8140,20064.913,2.777,3.512,0.0,0.0,GPS,17,-8681403.2366,14255357.0029,21015021.9880,-29873.703,2.294,2.625,0.0,0.0,GPS,28,-13725752.3290,22740948.8057,-444710.6832,213958.941,3.158,3.717,0.0,0.0,GPS,23,-26551864.9593,-369953.3730,3871248.1976,-65131.224,3.853,6.874,0.0,0.0,GPS,22,-14264355.7484,-7603491.2237,21323648.1306,-115599.034,3.969,6.926,0.0,0.0,GPS,19,-1050026.6136,14629742.6935,21856111.1915,-131215.754,2.764,3.124,0.0,0.0,GPS,11,-23984493.5631,-7390320.7224,7898909.9190,-220825.375,4.132,11.211,0.0,0.0,GPS,6,2903290.8236,21919717.9771,14729613.2017,121261.164,3.244,3.559,0.0,0.0*09d5a64f
#BESTPOSA,USB2_1,0,65.0,FINESTEERING,2000,298752.000,00000000,7145,12778;SOL_COMPUTED,SINGLE,36.76858947709,126.93549574604,74.7751,23.3000,WGS84,0.9251,0.8066,1.5361,"",0.000,0.000,10,10,10,10,0,12,00,01*de337d18
#BESTXYZA,USB2_1,0,65.0,FINESTEERING,2000,298752.000,00000000,bde7,12778;SOL_COMPUTED,SINGLE,-3073974.5956,4088871.5735,3796911.0390,1.2839,1.0551,1.0509,SOL_COMPUTED,SINGLE,0.0000,0.0000,0.0000,0.0011,0.0011,0.0011,"",0.150,0.000,0.000,10,10,10,10,0,12,00,01*025328d2
#RANGEA,USB2_1,0,65.0,FINESTEERING,2000,298753.000,00000000,5103,12778;10,1,0,23962261.741,0.065,-125922508.552148,0.035,-2857.242,44.9,7956.120,18009c04,9,0,24366138.989,0.073,-128044930.674296,0.034,2964.964,43.8,1314.650,08009c24,3,0,21668929.366,0.043,-113870999.844958,0.034,-2174.015,48.5,7949.580,08009c44,17,0,20796562.063,0.050,-109286639.371714,0.035,1119.014,47.2,2515.290,08009c64,28,0,21680643.759,0.044,-113932525.780841,0.034,-2595.906,48.3,7921.580,18009c84,23,0,23962453.110,0.052,-125923531.757676,0.034,1808.572,46.8,3195.594,18009cc4,22,0,23972480.322,0.077,-125976230.159579,0.037,-3066.485,43.4,7929.120,08009ce4,19,0,21138972.574,0.131,-111086030.428082,0.049,1943.203,41.0,79.924,18009d04,11,0,24425711.923,0.120,-128357959.278006,0.098,-3020.702,39.6,7955.930,18009d44,6,0,21631381.551,0.043,-113673710.392590,0.034,1633.967,48.4,5989.860,18009d64*3e8057a8
#SATXYZ2A,USB2_1,0,65.0,FINESTEERING,2000,298753.000,00000000,7513,12778;10,GPS,1,-19209997.6507,-8389237.2669,16344690.5985,-13946.974,3.978,7.975,0.0,0.0,GPS,9,-23460605.2409,8593029.1905,-9061153.8227,153909.717,4.818,11.800,0.0,0.0,GPS,3,-16784308.4194,1928191.8654,20463357.8435,20064.915,2.777,3.512,0.0,0.0,GPS,17,-8683981.8883,14255358.6753,21013923.4462,-29873.701,2.294,2.625,0.0,0.0,GPS,28,-13725857.7104,22740733.6386,-447937.5629,213958.942,3.158,3.718,0.0,0.0,GPS,23,-26551441.3448,-370284.1139,3874307.5705,-65131.223,3.852,6.872,0.0,0.0,GPS,22,-14263327.1962,-7605950.1307,21323457.7876,-115599.037,3.969,6.928,0.0,0.0,GPS,19,-1052865.6045,14629689.7629,21856029.1319,-131215.754,2.764,3.124,0.0,0.0,GPS,11,-23985191.9031,-7391269.1319,7896083.1188,-220825.376,4.131,11.215,0.0,0.0,GPS,6,2902077.6358,21918291.1633,14731983.2206,121261.163,3.243,3.558,0.0,0.0*5735142d
#BESTPOSA,USB2_1,0,65.0,FINESTEERING,2000,298753.000,00000000,7145,12778;SOL_COMPUTED,SINGLE,36.76858946091,126.93549582029,74.7720,23.3000,WGS84,0.9219,0.8043,1.5340,"",0.000,0.000,10,10,10,10,0,12,00,01*f201a5d0
#BESTXYZA,USB2_1,0,65.0,FINESTEERING,2000,298753.000,00000000,bde7,12778;SOL_COMPUTED,SINGLE,-3073974.6000,4088871.5683,3796911.0357,1.2822,1.0526,1.0478,SOL_COMPUTED,SINGLE,0.0000,0.0000,0.0000,0.0011,0.0011,0.0011,"",0.150,0.000,0.000,10,10,10,10,0,12,00,01*78f6d4ed
#RANGEA,USB2_1,0,68.5,FINESTEERING,2000,298754.000,00000000,5103,12778;10,1,0,23962805.526,0.065,-125925366.089637,0.034,-2858.802,44.9,7957.120,18009c04,9,0,24365574.885,0.073,-128041966.176566,0.035,2963.354,43.8,1315.650,08009c24,3,0,21669343.185,0.043,-113873174.441884,0.033,-2176.005,48.4,7950.580,08009c44,17,0,20796349.223,0.050,-109285520.911397,0.034,1117.048,47.1,2516.290,08009c64,28,0,21681137.817,0.044,-113935122.113417,0.033,-2597.468,48.2,7922.580,18009c84,23,0,23962109.060,0.053,-125921723.734942,0.033,1806.648,46.7,3196.594,18009cc4,22,0,23973064.011,0.079,-125979297.348428,0.035,-3068.625,43.2,7930.120,08009ce4,19,0,21138602.900,0.126,-111084087.480490,0.043,1941.625,41.3,80.924,18009d04,11,0,24426286.816,0.126,-128360980.315589,0.085,-3022.315,39.1,7956.930,18009d44,6,0,21631070.660,0.043,-113672076.654200,0.032,1632.629,48.4,5990.860,18009d64*e03c492d
#SATXYZ2A,USB2_1,0,68.5,FINESTEERING,2000,298754.000,00000000,7513,12778;10,GPS,1,-19211045.4006,-8391049.8586,16342576.9649,-13946.975,3.978,7.977,0.0,0.0,GPS,9,-23461772.6052,8592857.0068,-9058285.9170,153909.717,4.817,11.795,0.0,0.0,GPS,3,-16783273.7111,1925800.3393,20464436.4366,20064.917,2.777,3.513,0.0,0.0,GPS,17,-8686560.4068,14255360.5056,21012824.4710,-29873.699,2.293,2.625,0.0,0.0,GPS,28,-13725962.9043,22740518.1243,-451164.4331,213958.943,3.158,3.718,0.0,0.0,GPS,23,-26551017.3720,-370614.9108,3877366.8634,-65131.222,3.852,6.871,0.0,0.0,GPS,22,-14262298.7817,-7608409.0698,21323267.0009,-115599.040,3.969,6.930,0.0,0.0,GPS,19,-1055704.5856,14629637.0044,21855946.5945,-131215.754,2.763,3.123,0.0,0.0,GPS,11,-23985889.9840,-7392217.3172,7893256.1457,-220825.377,4.131,11.220,0.0,0.0,GPS,6,2900864.1936,21916864.1772,14734352.9264,121261.163,3.243,3.558,0.0,0.0*14848453
#BESTPOSA,USB2_1,0,68.5,FINESTEERING,2000,298754.000,00000000,7145,12778;SOL_COMPUTED,SINGLE,36.76858946091,126.93549582029,74.7720,23.3000,WGS84,0.9219,0.8043,1.5340,"",0.000,0.000,10,10,10,10,0,12,00,01*ad46a8eb
#BESTXYZA,USB2_1,0,68.5,FINESTEERING,2000,298754.000,00000000,bde7,12778;SOL_COMPUTED,SINGLE,-3073974.6000,4088871.5683,3796911.0357,1.2822,1.0526,1.0478,SOL_COMPUTED,SINGLE,0.0000,0.0000,0.0000,0.0011,0.0011,0.0011,"",0.150,0.000,0.000,10,10,10,10,0,12,00,01*7bae47db
#RANGEA,USB2_1,0,64.0,FINESTEERING,2000,298755.000,00000000,5103,12778;10,1,0,23963349.548,0.064,-125928224.883496,0.032,-2858.338,45.0,7958.120,18009c04,9,0,24365011.037,0.075,-128039002.886067,0.033,2963.279,43.7,1316.650,08009c24,3,0,21669757.326,0.044,-113875350.745492,0.032,-2176.184,48.3,7951.580,08009c44,17,0,20796136.689,0.050,-109284404.032927,0.033,1117.097,47.1,2517.290,08009c64,28,0,21681632.189,0.044,-113937720.130738,0.033,-2598.017,48.2,7923.580,18009c84,23,0,23961765.302,0.054,-125919917.274953,0.033,1806.617,46.6,3197.594,18009cc4,22,0,23973647.948,0.078,-125982365.991521,0.034,-3068.405,43.2,7931.120,08009ce4,19,0,21138233.477,0.125,-111082146.076455,0.038,1941.965,41.3,81.924,18009d04,11,0,24426861.966,0.123,-128364002.651641,0.059,-3022.295,39.4,7957.930,18009d44,6,0,21630760.052,0.043,-113670444.425404,0.033,1632.174,48.6,5991.860,18009d64*c52e712c
#SATXYZ2A,USB2_1,0,64.0,FINESTEERING,2000,298755.000,00000000,7513,12778;10,GPS,1,-19212093.1092,-8392862.1641,16340462.9844,-13946.975,3.978,7.979,0.0,0.0,GPS,9,-23462939.6211,8592684.8566,-9055417.8189,153909.718,4.816,11.790,0.0,0.0,GPS,3,-16782239.0829,1923408.6315,20465514.5931,20064.919,2.777,3.513,0.0,0.0,GPS,17,-8689138.7922,14255362.4939,21011725.0624,-29873.697,2.293,2.625,0.0,0.0,GPS,28,-13726067.9109,22740302.2626,-454391.2937,213958.944,3.158,3.719,0.0,0.0,GPS,23,-26550593.0410,-370945.7639,3880426.0764,-65131.221,3.851,6.870,0.0,0.0,GPS,22,-14261270.5051,-7610868.0411,21323075.7706,-115599.043,3.969,6.932,0.0,0.0,GPS,19,-1058543.5570,14629584.4181,21855863.5795,-131215.754,2.763,3.123,0.0,0.0,GPS,11,-23986587.8059,-7393165.2782,7890428.9998,-220825.377,4.131,11.224,0.0,0.0,GPS,6,2899650.4971,21915437.0188,14736722.3189,121261.162,3.242,3.558,0.0,0.0*87ee80ef
#BESTPOSA,USB2_1,0,64.0,FINESTEERING,2000,298755.000,00000000,7145,12778;SOL_COMPUTED,SINGLE,36.76858946091,126.93549582029,74.7720,23.3000,WGS84,0.9219,0.8043,1.5340,"",0.000,0.000,10,10,10,10,0,12,00,01*f97efe86
#BESTXYZA,USB2_1,0,64.0,FINESTEERING,2000,298755.000,00000000,bde7,12778;SOL_COMPUTED,SINGLE,-3073974.6000,4088871.5683,3796911.0357,1.2822,1.0526,1.0478,SOL_COMPUTED,SINGLE,0.0000,0.0000,0.0000,0.0011,0.0011,0.0011,"",0.150,0.000,0.000,10,10,10,10,0,12,00,01*fef7c396
#RANGEA,USB2_1,0,64.0,FINESTEERING,2000,298756.000,00000000,5103,12778;10,1,0,23963893.171,0.063,-125931081.538264,0.035,-2854.199,45.2,7959.120,18009c04,9,0,24364446.775,0.072,-128036037.444449,0.034,2967.825,44.0,1317.650,08009c24,3,0,21670171.157,0.044,-113877525.439296,0.034,-2172.572,48.3,7952.580,08009c44,17,0,20795923.815,0.050,-109283285.315335,0.034,1121.100,47.2,2518.290,08009c64,28,0,21682126.232,0.045,-113940316.427731,0.035,-2594.145,48.1,7924.580,18009c84,23,0,23961421.213,0.055,-125918109.002038,0.035,1810.401,46.3,3198.594,18009cc4,22,0,23974231.544,0.076,-125985432.714360,0.078,-3063.950,43.6,7932.120,08009ce4,19,0,21137863.694,0.123,-111080202.793566,0.037,1946.303,41.4,82.924,18009d04,11,0,24427436.716,0.118,-128367022.948952,0.047,-3018.198,39.7,7958.930,18009d44,6,0,21630449.088,0.043,-113668810.310431,0.035,1636.347,48.5,5992.860,18009d64*6d56bb74
#SATXYZ2A,USB2_1,0,64.0,FINESTEERING,2000,298756.000,00000000,7513,12778;10,GPS,1,-19213140.7765,-8394674.1832,16338348.6571,-13946.976,3.978,7.982,0.0,0.0,GPS,9,-23464106.2887,8592512.7399,-9052549.5285,153909.718,4.815,11.785,0.0,0.0,GPS,3,-16781204.5348,1921016.7420,20466592.3131,20064.922,2.777,3.514,0.0,0.0,GPS,17,-8691717.0443,14255364.6400,21010625.2206,-29873.695,2.293,2.625,0.0,0.0,GPS,28,-13726172.7300,22740086.0537,-457618.1446,213958.945,3.158,3.719,0.0,0.0,GPS,23,-26550168.3517,-371276.6733,3883485.2093,-65131.220,3.850,6.869,0.0,0.0,GPS,22,-14260242.3662,-7613327.0445,21322884.0967,-115599.046,3.969,6.934,0.0,0.0,GPS,19,-1061382.5186,14629532.0039,21855780.0867,-131215.754,2.762,3.123,0.0,0.0,GPS,11,-23987285.3685,-7394113.0150,7887601.6812,-220825.378,4.130,11.228,0.0,0.0,GPS,6,2898436.5463,21914009.6882,14739091.3982,121261.161,3.241,3.557,0.0,0.0*44551aca
#BESTXYZA,USB2_1,0,64.0,FINESTEERING,2000,298756.000,00000000,bde7,12778;SOL_COMPUTED,SINGLE,-3073974.6045,4088871.5634,3796911.0326,1.2804,1.0501,1.0447,SOL_COMPUTED,SINGLE,0.0000,0.0000,0.0000,0.0011,0.0011,0.0011,"",0.150,0.000,0.000,10,10,10,10,0,12,00,01*46a164e0
#BESTPOSA,USB2_1,0,64.0,FINESTEERING,2000,298756.000,00000000,7145,12778;SOL_COMPUTED,SINGLE,36.76858944579,126.93549589325,74.7692,23.3000,WGS84,0.9187,0.8020,1.5318,"",0.000,0.000,10,10,10,10,0,12,00,01*1763f899
#RANGEA,USB2_1,0,66.5,FINESTEERING,2000,298757.000,00000000,5103,12778;10,1,0,23964436.754,0.063,-125933937.982592,0.076,-2855.815,45.1,7960.120,18009c04,9,0,24363882.472,0.071,-128033071.774625,0.036,2966.172,44.1,1318.650,08009c24,3,0,21670585.037,0.043,-113879700.401528,0.035,-2174.401,48.4,7953.580,08009c44,17,0,20795710.950,0.050,-109282166.700507,0.035,1119.325,47.1,2519.290,08009c64,28,0,21682620.312,0.044,-113942912.925528,0.035,-2595.904,48.2,7925.580,18009c84,23,0,23961077.128,0.055,-125916300.790631,0.036,1808.771,46.3,3199.594,18009cc4,22,0,23974815.152,0.076,-125988499.469121,0.083,-3066.077,43.5,7933.120,08009ce4,19,0,21137493.953,0.119,-111078259.635478,0.076,1944.097,41.6,83.924,18009d04,11,0,24428011.451,0.121,-128370043.060982,0.092,-3019.759,39.5,7959.930,18009d44,6,0,21630138.132,0.043,-113667176.231753,0.035,1634.833,48.5,5993.860,18009d64*5dcaab40
#SATXYZ2A,USB2_1,0,66.5,FINESTEERING,2000,298757.000,00000000,7513,12778;10,GPS,1,-19214188.4026,-8396485.9161,16336233.9830,-13946.977,3.978,7.984,0.0,0.0,GPS,9,-23465272.6080,8592340.6565,-9049681.0459,153909.718,4.814,11.780,0.0,0.0,GPS,3,-16780170.0669,1918624.6709,20467669.5965,20064.924,2.777,3.514,0.0,0.0,GPS,17,-8694295.1630,14255366.9441,21009524.9454,-29873.693,2.293,2.625,0.0,0.0,GPS,28,-13726277.3619,22739869.4975,-460844.9858,213958.946,3.159,3.720,0.0,0.0,GPS,23,-26549743.3042,-371607.6390,3886544.2620,-65131.219,3.850,6.867,0.0,0.0,GPS,22,-14259214.3652,-7615786.0800,21322691.9791,-115599.049,3.969,6.936,0.0,0.0,GPS,19,-1064221.4702,14629479.7618,21855696.1163,-131215.754,2.762,3.122,0.0,0.0,GPS,11,-23987982.6720,-7395060.5276,7884774.1900,-220825.379,4.130,11.232,0.0,0.0,GPS,6,2897222.3410,21912582.1854,14741460.1641,121261.161,3.241,3.557,0.0,0.0*dc77f5a7
#BESTPOSA,USB2_1,0,66.5,FINESTEERING,2000,298757.000,00000000,7145,12778;SOL_COMPUTED,SINGLE,36.76858944579,126.93549589325,74.7692,23.3000,WGS84,0.9187,0.8020,1.5318,"",0.000,0.000,10,10,10,10,0,12,00,01*d073f205
#BESTXYZA,USB2_1,0,66.5,FINESTEERING,2000,298757.000,00000000,bde7,12778;SOL_COMPUTED,SINGLE,-3073974.6045,4088871.5634,3796911.0326,1.2804,1.0501,1.0447,SOL_COMPUTED,SINGLE,0.0000,0.0000,0.0000,0.0011,0.0011,0.0011,"",0.150,0.000,0.000,10,10,10,10,0,12,00,01*21cbac6e
#RANGEA,USB2_1,0,65.0,FINESTEERING,2000,298758.000,00000000,5103,12778;10,1,0,23964979.938,0.063,-125936792.365922,0.053,-2853.489,45.1,7961.120,18009c04,9,0,24363317.770,0.071,-128030104.016631,0.035,2968.473,44.1,1319.650,08009c24,3,0,21670998.609,0.043,-113881873.774487,0.033,-2172.449,48.6,7954.580,08009c44,17,0,20795497.752,0.050,-109281046.321042,0.033,1121.551,47.1,2520.290,08009c64,28,0,21683114.070,0.045,-113945507.752269,0.033,-2593.866,48.1,7926.580,18009c84,23,0,23960732.701,0.055,-125914490.831048,0.035,1810.899,46.3,3200.594,18009cc4,22,0,23975398.386,0.076,-125991564.349032,0.058,-3063.915,43.6,7934.120,08009ce4,19,0,21137123.904,0.123,-111076314.710313,0.054,1945.417,41.3,84.924,18009d04,11,0,24428585.809,0.116,-128373061.280211,0.100,-3017.748,39.9,7960.930,18009d44,6,0,21629826.829,0.043,-113665540.352620,0.034,1636.625,48.6,5994.860,18009d64*5b58a17e
#SATXYZ2A,USB2_1,0,65.0,FINESTEERING,2000,298758.000,00000000,7513,12778;10,GPS,1,-19215235.9873,-8398297.3627,16334118.9621,-13946.978,3.977,7.986,0.0,0.0,GPS,9,-23466438.5789,8592168.6064,-9046812.3710,153909.719,4.813,11.775,0.0,0.0,GPS,3,-16779135.6793,1916232.4182,20468746.4433,20064.926,2.777,3.514,0.0,0.0,GPS,17,-8696873.1484,14255369.4060,21008424.2369,-29873.691,2.292,2.624,0.0,0.0,GPS,28,-13726381.8065,22739652.5939,-464071.8172,213958.947,3.159,3.721,0.0,0.0,GPS,23,-26549317.8985,-371938.6609,3889603.2346,-65131.218,3.849,6.866,0.0,0.0,GPS,22,-14258186.5020,-7618245.1474,21322499.4179,-115599.052,3.969,6.938,0.0,0.0,GPS,19,-1067060.4118,14629427.6919,21855611.6682,-131215.754,2.761,3.122,0.0,0.0,GPS,11,-23988679.7162,-7396007.8159,7881946.5262,-220825.380,4.130,11.237,0.0,0.0,GPS,6,2896007.8814,21911154.5106,14743828.6167,121261.160,3.240,3.557,0.0,0.0*5064afb6
#BESTPOSA,USB2_1,0,65.0,FINESTEERING,2000,298758.000,00000000,7145,12778;SOL_COMPUTED,SINGLE,36.76858943239,126.93549596477,74.7668,23.3000,WGS84,0.9155,0.7997,1.5297,"",0.000,0.000,10,10,10,10,0,12,00,01*7f78db33
#BESTXYZA,USB2_1,0,65.0,FINESTEERING,2000,298758.000,00000000,bde7,12778;SOL_COMPUTED,SINGLE,-3073974.6090,4088871.5587,3796911.0300,1.2787,1.0476,1.0417,SOL_COMPUTED,SINGLE,0.0000,0.0000,0.0000,0.0011,0.0011,0.0011,"",0.150,0.000,0.000,10,10,10,10,0,12,00,01*061e56b7
#RANGEA,USB2_1,0,65.0,FINESTEERING,2000,298759.000,00000000,5103,12778;10,1,0,23965522.974,0.063,-125939646.047297,0.044,-2852.168,45.1,7962.120,18009c04,9,0,24362752.928,0.068,-128027135.555978,0.037,2969.633,44.5,1320.650,08009c24,3,0,21671412.161,0.042,-113884046.979556,0.036,-2172.344,48.6,7955.580,08009c44,17,0,20795284.483,0.050,-109279925.612633,0.105,1121.801,47.1,2521.290,08009c64,28,0,21683607.780,0.045,-113948102.342316,0.035,-2593.595,48.0,7927.580,18009c84,23,0,23960388.213,0.055,-125912680.511250,0.037,1812.010,46.4,3201.594,18009cc4,22,0,23975981.537,0.076,-125994628.776089,0.101,-3063.575,43.4,7935.120,08009ce4,19,0,21136753.757,0.119,-111074369.404557,0.101,1945.509,41.5,85.924,18009d04,11,0,24429160.042,0.115,-128376078.813315,0.069,-3015.985,39.9,7961.930,18009d44,6,0,21629515.445,0.042,-113663904.031335,0.036,1637.521,48.7,5995.860,18009d64*525084ee
#SATXYZ2A,USB2_1,0,65.0,FINESTEERING,2000,298759.000,00000000,7513,12778;10,GPS,1,-19216283.5305,-8400108.5229,16332003.5946,-13946.978,3.977,7.988,0.0,0.0,GPS,9,-23467604.2013,8591996.5895,-9043943.5040,153909.719,4.812,11.770,0.0,0.0,GPS,3,-16778101.3720,1913839.9840,20469822.8535,20064.928,2.777,3.515,0.0,0.0,GPS,17,-8699451.0003,14255372.0257,21007323.0952,-29873.688,2.292,2.624,0.0,0.0,GPS,28,-13726486.0639,22739435.3429,-467298.6387,213958.948,3.159,3.721,0.0,0.0,GPS,23,-26548892.1345,-372269.7393,3892662.1270,-65131.217,3.848,6.865,0.0,0.0,GPS,22,-14257158.7767,-7620704.2468,21322306.4131,-115599.056,3.969,6.940,0.0,0.0,GPS,19,-1069899.3434,14629375.7941,21855526.7423,-131215.754,2.761,3.122,0.0,0.0,GPS,11,-23989376.5011,-7396954.8801,7879118.6898,-220825.380,4.129,11.241,0.0,0.0,GPS,6,2894793.1674,21909726.6636,14746196.7559,121261.159,3.240,3.556,0.0,0.0*8e0c5059
#BESTPOSA,USB2_1,0,65.0,FINESTEERING,2000,298759.000,00000000,7145,12778;SOL_COMPUTED,SINGLE,36.76858943239,126.93549596477,74.7668,23.3000,WGS84,0.9155,0.7997,1.5297,"",0.000,0.000,10,10,10,10,0,12,00,01*0ed40374
#BESTXYZA,USB2_1,0,65.0,FINESTEERING,2000,298759.000,00000000,bde7,12778;SOL_COMPUTED,SINGLE,-3073974.6090,4088871.5587,3796911.0300,1.2787,1.0476,1.0417,SOL_COMPUTED,SINGLE,0.0000,0.0000,0.0000,0.0011,0.0011,0.0011,"",0.150,0.000,0.000,10,10,10,10,0,12,00,01*7521acbc
#RANGEA,USB2_1,0,66.5,FINESTEERING,2000,298760.000,00000000,5103,12778;10,1,0,23966066.105,0.062,-125942500.134208,0.035,-2854.169,45.3,7963.120,18009c04,9,0,24362188.159,0.067,-128024167.464459,0.034,2968.137,44.6,1321.650,08009c24,3,0,21671825.867,0.043,-113886221.035777,0.033,-2174.072,48.4,7956.580,08009c44,17,0,20795071.354,0.050,-109278805.567742,0.068,1119.803,47.2,2522.290,08009c64,28,0,21684101.645,0.045,-113950697.717326,0.033,-2595.463,48.0,7928.580,18009c84,23,0,23960043.858,0.054,-125910870.881051,0.033,1809.387,46.4,3202.594,18009cc4,22,0,23976564.790,0.076,-125997693.767102,0.066,-3065.209,43.6,7936.120,08009ce4,19,0,21136383.699,0.121,-111072424.712689,0.068,1944.588,41.3,86.924,18009d04,11,0,24429734.365,0.108,-128379096.850703,0.050,-3017.736,40.5,7962.930,18009d44,6,0,21629204.186,0.041,-113662268.344386,0.033,1635.740,48.8,5996.860,18009d64*837a7609
#SATXYZ2A,USB2_1,0,66.5,FINESTEERING,2000,298760.000,00000000,7513,12778;10,GPS,1,-19217331.0322,-8401919.3967,16329887.8803,-13946.979,3.977,7.990,0.0,0.0,GPS,9,-23468769.4753,8591824.6059,-9041074.4449,153909.719,4.811,11.764,0.0,0.0,GPS,3,-16777067.1449,1911447.3682,20470898.8270,20064.930,2.777,3.515,0.0,0.0,GPS,17,-8702028.7188,14255374.8033,21006221.5203,-29873.686,2.292,2.624,0.0,0.0,GPS,28,-13726590.1342,22739217.7446,-470525.4503,213958.949,3.159,3.722,0.0,0.0,GPS,23,-26548466.0124,-372600.8740,3895720.9390,-65131.215,3.848,6.864,0.0,0.0,GPS,22,-14256131.1892,-7623163.3781,21322112.9646,-115599.059,3.969,6.941,0.0,0.0,GPS,19,-1072738.2648,14629324.0685,21855441.3388,-131215.755,2.760,3.121,0.0,0.0,GPS,11,-23990073.0268,-7397901.7202,7876290.6810,-220825.381,4.129,11.245,0.0,0.0,GPS,6,2893578.1990,21908298.6448,14748564.5816,121261.159,3.239,3.556,0.0,0.0*c4e2c2b3
#BESTPOSA,USB2_1,0,66.5,FINESTEERING,2000,298760.000,00000000,7145,12778;SOL_COMPUTED,SINGLE,36.76858943239,126.93549596477,74.7668,23.3000,WGS84,0.9155,0.7997,1.5297,"",0.000,0.000,10,10,10,10,0,12,00,01*e58ec4ab
#BESTXYZA,USB2_1,0,66.5,FINESTEERING,2000,298760.000,00000000,bde7,12778;SOL_COMPUTED,SINGLE,-3073974.6090,4088871.5587,3796911.0300,1.2787,1.0476,1.0417,SOL_COMPUTED,SINGLE,0.0000,0.0000,0.0000,0.0011,0.0011,0.0011,"",0.150,0.000,0.000,10,10,10,10,0,12,00,01*2935993f
#RANGEA,USB2_1,0,66.5,FINESTEERING,2000,298761.000,00000000,5103,12778;10,1,0,23966609.519,0.063,-125945355.753516,0.034,-2854.515,45.1,7964.120,18009c04,9,0,24361623.682,0.067,-128021200.907315,0.033,2967.670,44.6,1322.650,08009c24,3,0,21672239.968,0.043,-113888397.160226,0.032,-2175.379,48.5,7957.580,08009c44,17,0,20794858.578,0.050,-109277687.406935,0.048,1119.052,47.1,2523.290,08009c64,28,0,21684595.889,0.045,-113953295.073964,0.032,-2596.575,48.0,7929.580,18009c84,23,0,23959699.857,0.055,-125909063.104798,0.032,1808.721,46.2,3203.594,18009cc4,22,0,23977148.387,0.074,-126000760.542367,0.048,-3065.637,43.7,7937.120,08009ce4,19,0,21136014.029,0.122,-111070481.892140,0.048,1943.833,41.2,87.924,18009d04,11,0,24430309.010,0.111,-128382116.531527,0.076,-3018.466,40.2,7963.930,18009d44,6,0,21628893.271,0.041,-113660634.468486,0.032,1634.759,48.9,5997.860,18009d64*ee3a245f
#SATXYZ2A,USB2_1,0,66.5,FINESTEERING,2000,298761.000,00000000,7513,12778;10,GPS,1,-19218378.4924,-8403729.9842,16327771.8195,-13946.980,3.977,7.993,0.0,0.0,GPS,9,-23469934.4009,8591652.6555,-9038205.1939,153909.720,4.810,11.759,0.0,0.0,GPS,3,-16776032.9983,1909054.5711,20471974.3639,20064.932,2.777,3.515,0.0,0.0,GPS,17,-8704606.3036,14255377.7386,21005119.5121,-29873.684,2.291,2.624,0.0,0.0,GPS,28,-13726694.0173,22738999.7988,-473752.2518,213958.950,3.159,3.722,0.0,0.0,GPS,23,-26548039.5321,-372932.0653,3898779.6706,-65131.214,3.847,6.862,0.0,0.0,GPS,22,-14255103.7397,-7625622.5412,21321919.0726,-115599.062,3.969,6.943,0.0,0.0,GPS,19,-1075577.1760,14629272.5150,21855355.4576,-131215.755,2.760,3.121,0.0,0.0,GPS,11,-23990769.2930,-7398848.3361,7873462.4998,-220825.382,4.129,11.249,0.0,0.0,GPS,6,2892362.9763,21906870.4540,14750932.0937,121261.158,3.239,3.556,0.0,0.0*a61acd83
#BESTPOSA,USB2_1,0,66.5,FINESTEERING,2000,298761.000,00000000,7145,12778;SOL_COMPUTED,SINGLE,36.76858942101,126.93549603538,74.7646,23.3000,WGS84,0.9124,0.7975,1.5276,"",0.000,0.000,10,10,10,10,0,12,00,01*6ed31ac7
#BESTXYZA,USB2_1,0,66.5,FINESTEERING,2000,298761.000,00000000,bde7,12778;SOL_COMPUTED,SINGLE,-3073974.6134,4088871.5542,3796911.0277,1.2770,1.0452,1.0387,SOL_COMPUTED,SINGLE,0.0000,0.0000,0.0000,0.0011,0.0011,0.0011,"",0.150,0.000,0.000,10,10,10,10,0,12,00,01*82907cf9
#RANGEA,USB2_1,0,62.5,FINESTEERING,2000,298762.000,00000000,5103,12778;10,1,0,23967152.661,0.062,-125948209.892573,0.031,-2855.251,45.3,7965.120,18009c04,9,0,24361058.909,0.066,-128018232.808697,0.032,2967.168,44.7,1323.650,08009c24,3,0,21672653.866,0.044,-113890572.251138,0.030,-2176.387,48.3,7958.580,08009c44,17,0,20794645.573,0.050,-109276568.022553,0.036,1118.245,47.1,2524.290,08009c64,28,0,21685089.912,0.045,-113955891.327037,0.030,-2597.482,48.0,7930.580,18009c84,23,0,23959355.627,0.056,-125907254.125922,0.031,1807.905,46.2,3204.594,18009cc4,22,0,23977731.762,0.075,-126003826.018552,0.038,-3066.579,43.7,7938.120,08009ce4,19,0,21135644.137,0.120,-111068537.865609,0.075,1942.823,41.3,88.924,18009d04,11,0,24430883.383,0.114,-128385134.800442,0.054,-3019.099,40.0,7964.930,18009d44,6,0,21628582.116,0.041,-113658999.315038,0.031,1634.037,48.9,5998.860,18009d64*14acd13c
