#RANGEA,USB1_1,0,67.0,FINESTEERING,2000,462854.000,00000000,5103,12778;10,1,0,20245793.307,0.030,-106392293.244588,0.031,-1177.555,51.7,7500.110,08009c04,17,0,23621922.865,0.051,-124134061.891765,0.033,2139.968,46.9,779.910,08009c24,30,0,22625634.951,0.071,-118898483.150926,0.035,-2352.728,44.1,2808.560,08009c44,18,0,21218969.308,0.045,-111506359.525720,0.033,-2548.997,48.1,7492.880,08009c64,28,0,21018915.848,0.039,-110455163.606452,0.031,1680.069,49.3,6284.540,18009c84,22,0,21857869.119,0.042,-114863906.994180,0.031,918.219,48.6,6056.850,18009ca4,7,0,23507986.471,0.048,-123535172.401828,0.032,-3220.631,47.4,7506.880,08009cc4,8,0,22987368.487,0.065,-120799341.125382,0.035,-2163.945,44.8,7509.840,08009ce4,11,0,20618537.898,0.038,-108351072.021569,0.031,-1474.205,49.6,7502.610,08009d44,3,0,22160328.292,0.050,-116453346.480323,0.034,2661.715,47.2,3786.540,08009d64*075f49b7
#SATXYZ2A,USB1_1,0,67.0,FINESTEERING,2000,462854.000,00000000,7513,12778;10,GPS,1,-13262839.0184,12039069.4528,19362971.6882,-14086.348,0.000,0.000,0.0,0.0,GPS,17,11089335.5594,19138989.5301,15176259.0595,-29708.275,0.000,0.000,0.0,0.0,GPS,30,-277230.5566,26434606.3677,1390309.3396,22602.392,0.000,0.000,0.0,0.0,GPS,18,-15093956.3237,2661977.9428,21227434.3151,2289.588,0.000,0.000,0.0,0.0,GPS,28,-4122819.1202,17025104.7924,20601547.0321,214115.675,0.000,0.000,0.0,0.0,GPS,22,-23858865.5514,7468988.0678,9206049.6876,-116243.714,0.000,0.000,0.0,0.0,GPS,7,-5944197.3921,24310628.8382,-7959069.4550,58065.598,0.000,0.000,0.0,0.0,GPS,8,-22944549.7699,-2292378.7326,13360676.7203,-30240.317,0.000,0.000,0.0,0.0,GPS,11,-14115061.9163,7882331.5214,20523259.9265,-220780.739,0.000,0.000,0.0,0.0,GPS,3,-23121147.8780,12997005.3626,519617.6816,20430.845,0.000,0.000,0.0,0.0*c56e50a0
#BESTPOSA,USB1_1,0,67.0,FINESTEERING,2000,462854.000,00000000,7145,12778;SOL_COMPUTED,PSRDIFF,36.76833460314,126.93455551265,76.2734,23.3000,WGS84,0.4169,0.3427,0.7189,"0",6.200,0.000,10,10,10,10,0,1a,00,01*f21ac887
#BESTXYZA,USB1_1,0,67.0,FINESTEERING,2000,462854.000,00000000,bde7,12778;SOL_COMPUTED,PSRDIFF,-3073918.3910,4088936.5098,3796889.2781,0.5092,0.6035,0.4297,SOL_COMPUTED,PSRDIFF,0.0000,0.0000,6.0381e-10,0.0011,0.0011,0.0011,"0",0.150,6.200,0.000,10,10,10,10,0,1a,00,01*17f25078
#RANGEA,USB1_1,0,59.5,FINESTEERING,2000,462855.000,00000000,5103,12778;10,1,0,20246017.703,0.030,-106393472.431491,0.033,-1178.156,51.7,7501.110,08009c04,17,0,23621515.876,0.051,-124131923.194222,0.034,2140.166,47.0,780.910,08009c24,30,0,22626082.933,0.070,-118900837.187442,0.034,-2352.951,44.2,2809.560,08009c44,18,0,21219454.583,0.045,-111508909.676499,0.034,-2549.060,48.1,7493.880,08009c64,28,0,21018596.365,0.039,-110453484.742665,0.033,1679.884,49.3,6285.540,18009c84,22,0,21857694.648,0.043,-114862990.205495,0.033,917.814,48.4,6057.850,18009ca4,7,0,23508599.598,0.048,-123538394.340005,0.087,-3220.425,47.5,7507.880,08009cc4,8,0,22987780.562,0.067,-120801506.523824,0.035,-2164.190,44.6,7510.840,08009ce4,11,0,20618818.725,0.038,-108352547.792428,0.033,-1474.460,49.6,7503.610,08009d44,3,0,22159822.039,0.050,-116450686.132943,0.034,2661.583,47.2,3787.540,08009d64*bca8d6fe
#SATXYZ2A,USB1_1,0,59.5,FINESTEERING,2000,462855.000,00000000,7513,12778;10,GPS,1,-13262968.3395,12036572.0843,19364454.1586,-14086.349,0.000,0.000,0.0,0.0,GPS,17,11087705.5055,19138104.3520,15178614.8581,-29708.273,0.000,0.000,0.0,0.0,GPS,30,-277585.9054,26434766.3805,1387166.6486,22602.390,0.000,0.000,0.0,0.0,GPS,18,-15094117.1996,2659173.3678,21227684.6068,2289.588,0.000,0.000,0.0,0.0,GPS,28,-4125081.6139,17026097.8858,20600237.6843,214115.678,0.000,0.000,0.0,0.0,GPS,22,-23858107.4748,7468064.3845,9208838.5160,-116243.717,0.000,0.000,0.0,0.0,GPS,7,-5944491.2112,24309571.5637,-7962045.3812,58065.595,0.000,0.000,0.0,0.0,GPS,8,-22945925.5561,-2293363.2452,13358150.4577,-30240.317,0.000,0.000,0.0,0.0,GPS,11,-14116213.0352,7879824.7629,20523411.0601,-220780.740,0.000,0.000,0.0,0.0,GPS,3,-23121233.1505,12996721.9979,522795.5696,20430.847,0.000,0.000,0.0,0.0*763040e4
#BESTXYZA,USB1_1,0,59.5,FINESTEERING,2000,462855.000,00000000,bde7,12778;SOL_COMPUTED,PSRDIFF,-3073918.3911,4088936.5113,3796889.2788,0.5086,0.6031,0.4291,SOL_COMPUTED,PSRDIFF,0.0000,0.0000,0.0000,0.0011,0.0011,0.0011,"0",0.150,5.400,0.000,10,10,10,10,0,1a,00,01*5112d0c2
#BESTPOSA,USB1_1,0,59.5,FINESTEERING,2000,462855.000,00000000,7145,12778;SOL_COMPUTED,PSRDIFF,36.76833460188,126.93455550267,76.2748,23.3000,WGS84,0.4165,0.3422,0.7183,"0",5.400,0.000,10,10,10,10,0,1a,00,01*156096f1
#RANGEA,USB1_1,0,59.5,FINESTEERING,2000,462856.000,00000000,5103,12778;10,1,0,20246241.875,0.030,-106394650.446835,0.033,-1177.298,51.7,7502.110,08009c04,17,0,23621108.583,0.050,-124129782.869607,0.033,2141.246,47.1,781.910,08009c24,30,0,22626530.659,0.070,-118903189.938661,0.034,-2352.100,44.2,2810.560,08009c44,18,0,21219939.611,0.044,-111511458.500583,0.033,-2547.819,48.1,7494.880,08009c64,28,0,21018276.643,0.039,-110451804.583260,0.033,1680.942,49.3,6286.540,18009c84,22,0,21857519.971,0.043,-114862072.317464,0.032,918.578,48.6,6058.850,18009ca4,7,0,23509212.428,0.049,-123541614.709250,0.059,-3219.448,47.3,7508.880,08009cc4,8,0,22988192.329,0.069,-120803670.362712,0.035,-2163.386,44.3,7511.840,08009ce4,11,0,20619099.308,0.038,-108354022.259942,0.032,-1473.613,49.6,7504.610,08009d44,3,0,22159315.544,0.050,-116448024.510568,0.033,2662.313,47.2,3788.540,08009d64*a4cd140c
#SATXYZ2A,USB1_1,0,59.5,FINESTEERING,2000,462856.000,00000000,7513,12778;10,GPS,1,-13263097.8074,12034074.5373,19365936.2084,-14086.351,0.000,0.000,0.0,0.0,GPS,17,11086075.1525,19137219.1182,15180970.3432,-29708.271,0.000,0.000,0.0,0.0,GPS,30,-277941.2265,26434926.0176,1384023.9278,22602.389,0.000,0.000,0.0,0.0,GPS,18,-15094278.2296,2656368.7715,21227934.4271,2289.588,0.000,0.000,0.0,0.0,GPS,28,-4127343.9016,17027091.0566,20598927.9213,214115.681,0.000,0.000,0.0,0.0,GPS,22,-23857349.1570,7467140.4730,9211627.1504,-116243.721,0.000,0.000,0.0,0.0,GPS,7,-5944785.0852,24308513.9264,-7965021.1322,58065.592,0.000,0.000,0.0,0.0,GPS,8,-22947301.1247,-2294347.5210,13355623.9137,-30240.317,0.000,0.000,0.0,0.0,GPS,11,-14117364.2793,7877318.0382,20523561.7351,-220780.742,0.000,0.000,0.0,0.0,GPS,3,-23121318.0936,12996438.4373,525973.4463,20430.849,0.000,0.000,0.0,0.0*94a74ea9
#BESTPOSA,USB1_1,0,59.5,FINESTEERING,2000,462856.000,00000000,7145,12778;SOL_COMPUTED,PSRDIFF,36.76833460188,126.93455550267,76.2748,23.3000,WGS84,0.4165,0.3422,0.7184,"0",3.400,0.000,10,10,10,10,0,1a,00,01*6d01948a
#BESTXYZA,USB1_1,0,59.5,FINESTEERING,2000,462856.000,00000000,bde7,12778;SOL_COMPUTED,PSRDIFF,-3073918.3911,4088936.5113,3796889.2788,0.5086,0.6031,0.4291,SOL_COMPUTED,PSRDIFF,0.0000,0.0000,0.0000,0.0011,0.0011,0.0011,"0",0.150,3.400,0.000,10,10,10,10,0,1a,00,01*76be6ade
#RANGEA,USB1_1,0,54.5,FINESTEERING,2000,462857.000,00000000,5103,12778;10,1,0,20246466.467,0.030,-106395830.668795,0.032,-1184.003,51.7,7503.110,08009c04,17,0,23620701.627,0.050,-124127644.300189,0.033,2135.043,47.2,782.910,08009c24,30,0,22626978.791,0.071,-118905544.750623,0.034,-2358.708,44.1,2811.560,08009c44,18,0,21220425.038,0.045,-111514009.412192,0.033,-2554.495,48.1,7495.880,08009c64,28,0,21017957.322,0.039,-110450126.511762,0.033,1674.526,49.4,6287.540,18009c84,22,0,21857345.733,0.043,-114861156.701487,0.032,911.976,48.5,6059.850,18009ca4,7,0,23509825.598,0.049,-123544836.895951,0.044,-3225.802,47.3,7509.880,08009cc4,8,0,22988604.440,0.068,-120805836.034963,0.034,-2169.475,44.5,7512.840,08009ce4,11,0,20619380.277,0.038,-108355498.784633,0.033,-1480.190,49.6,7505.610,08009d44,3,0,22158809.441,0.050,-116445364.986554,0.033,2655.814,47.2,3789.540,08009d64*73b8e401
#SATXYZ2A,USB1_1,0,54.5,FINESTEERING,2000,462857.000,00000000,7513,12778;10,GPS,1,-13263227.4221,12031576.8119,19367417.8376,-14086.352,0.000,0.000,0.0,0.0,GPS,17,11084444.5004,19136333.8289,15183325.5148,-29708.269,0.000,0.000,0.0,0.0,GPS,30,-278296.5198,26435085.2791,1380881.1772,22602.387,0.000,0.000,0.0,0.0,GPS,18,-15094439.4139,2653564.1538,21228183.7760,2289.588,0.000,0.000,0.0,0.0,GPS,28,-4129605.9832,17028084.3046,20597617.7431,214115.684,0.000,0.000,0.0,0.0,GPS,22,-23856590.5979,7466216.3331,9214415.5905,-116243.724,0.000,0.000,0.0,0.0,GPS,7,-5945079.0143,24307455.9262,-7967996.7079,58065.589,0.000,0.000,0.0,0.0,GPS,8,-22948676.4755,-2295331.5602,13353097.0884,-30240.317,0.000,0.000,0.0,0.0,GPS,11,-14118515.6485,7874811.3472,20523711.9513,-220780.743,0.000,0.000,0.0,0.0,GPS,3,-23121402.7074,12996154.6807,529151.3119,20430.851,0.000,0.000,0.0,0.0*b1251f5c
#BESTPOSA,USB1_1,0,54.5,FINESTEERING,2000,462857.000,00000000,7145,12778;SOL_COMPUTED,PSRDIFF,36.76833460017,126.93455549356,76.2763,23.3000,WGS84,0.4160,0.3416,0.7178,"0",4.400,0.000,10,10,10,10,0,1a,00,01*76dc3c3e
#BESTXYZA,USB1_1,0,54.5,FINESTEERING,2000,462857.000,00000000,bde7,12778;SOL_COMPUTED,PSRDIFF,-3073918.3912,4088936.5128,3796889.2796,0.5081,0.6027,0.4286,SOL_COMPUTED,PSRDIFF,0.0000,0.0000,0.0000,0.0011,0.0011,0.0011,"0",0.150,4.400,0.000,10,10,10,10,0,1a,00,01*f53785d1
#RANGEA,USB1_1,0,54.5,FINESTEERING,2000,462858.000,00000000,5103,12778;10,1,0,20246691.790,0.029,-106397014.730027,0.027,-1180.868,51.8,7504.110,08009c04,17,0,23620295.320,0.048,-124125509.102858,0.029,2138.533,47.5,783.910,08009c24,30,0,22627427.614,0.072,-118907903.260903,0.031,-2355.067,44.0,2812.560,08009c44,18,0,21220911.148,0.043,-111516563.966891,0.028,-2551.293,48.4,7496.880,08009c64,28,0,21017638.704,0.039,-110448452.151656,0.029,1677.597,49.3,6288.540,18009c84,22,0,21857172.230,0.043,-114860244.988444,0.028,914.889,48.4,6060.850,18009ca4,7,0,23510439.427,0.049,-123548062.500682,0.034,-3222.255,47.2,7510.880,08009cc4,8,0,22989017.221,0.069,-120808005.183093,0.030,-2165.686,44.3,7513.840,08009ce4,11,0,20619661.962,0.038,-108356979.012626,0.028,-1476.984,49.6,7506.610,08009d44,3,0,22158304.053,0.049,-116442709.162925,0.028,2658.879,47.2,3790.540,08009d64*ca08e658
#SATXYZ2A,USB1_1,0,54.5,FINESTEERING,2000,462858.000,00000000,7513,12778;10,GPS,1,-13263357.1836,12029078.9081,19368899.0461,-14086.354,0.000,0.000,0.0,0.0,GPS,17,11082813.5493,19135448.4840,15185680.3729,-29708.267,0.000,0.000,0.0,0.0,GPS,30,-278651.7855,26435244.1650,1377738.3970,22602.386,0.000,0.000,0.0,0.0,GPS,18,-15094600.7523,2650759.5148,21228432.6534,2289.588,0.000,0.000,0.0,0.0,GPS,28,-4131867.8587,17029077.6299,20596307.1497,214115.687,0.000,0.000,0.0,0.0,GPS,22,-23855831.7975,7465291.9649,9217203.8363,-116243.728,0.000,0.000,0.0,0.0,GPS,7,-5945372.9986,24306397.5632,-7970972.1082,58065.586,0.000,0.000,0.0,0.0,GPS,8,-22950051.6087,-2296315.3626,13350569.9818,-30240.317,0.000,0.000,0.0,0.0,GPS,11,-14119667.1429,7872304.6900,20523861.7087,-220780.745,0.000,0.000,0.0,0.0,GPS,3,-23121486.9918,12995870.7280,532329.1661,20430.854,0.000,0.000,0.0,0.0*a73e7893
#BESTPOSA,USB1_1,0,54.5,FINESTEERING,2000,462858.000,00000000,7145,12778;SOL_COMPUTED,PSRDIFF,36.76833460017,126.93455549356,76.2763,23.3000,WGS84,0.4160,0.3417,0.7178,"0",2.400,0.000,10,10,10,10,0,1a,00,01*23cc9e56
#BESTXYZA,USB1_1,0,54.5,FINESTEERING,2000,462858.000,00000000,bde7,12778;SOL_COMPUTED,PSRDIFF,-3073918.3912,4088936.5128,3796889.2796,0.5081,0.6027,0.4286,SOL_COMPUTED,PSRDIFF,0.0000,0.0000,0.0000,0.0011,0.0011,0.0011,"0",0.150,2.400,0.000,10,10,10,10,0,1a,00,01*96fc41ef
#RANGEA,USB1_1,0,57.5,FINESTEERING,2000,462859.000,00000000,5103,12778;10,1,0,20246917.072,0.030,-106398198.581767,0.025,-1187.410,51.7,7505.110,08009c04,17,0,23619888.872,0.047,-124123373.236297,0.026,2132.758,47.7,784.910,08009c24,30,0,22627876.374,0.071,-118910261.466161,0.027,-2361.532,44.1,2813.560,08009c44,18,0,21221397.192,0.044,-111519118.147378,0.026,-2557.438,48.4,7497.880,08009c64,28,0,21017320.020,0.039,-110446777.450698,0.026,1671.452,49.4,6289.540,18009c84,22,0,21856998.699,0.043,-114859333.125230,0.025,908.497,48.4,6061.850,18009ca4,7,0,23511053.136,0.050,-123551287.496879,0.028,-3228.248,47.2,7511.880,08009cc4,8,0,22989429.885,0.068,-120810173.749509,0.028,-2171.660,44.5,7514.840,08009ce4,11,0,20619943.568,0.038,-108358458.869756,0.025,-1483.278,49.7,7507.610,08009d44,3,0,22157798.591,0.049,-116440053.003322,0.026,2652.870,47.3,3791.540,08009d64*85b314f1
#SATXYZ2A,USB1_1,0,57.5,FINESTEERING,2000,462859.000,00000000,7513,12778;10,GPS,1,-13263487.0919,12026580.8260,19370379.8339,-14086.355,0.000,0.000,0.0,0.0,GPS,17,11081182.2992,19134563.0836,15188034.9173,-29708.265,0.000,0.000,0.0,0.0,GPS,30,-279007.0234,26435402.6752,1374595.5872,22602.384,0.000,0.000,0.0,0.0,GPS,18,-15094762.2448,2647954.8547,21228681.0595,2289.588,0.000,0.000,0.0,0.0,GPS,28,-4134129.5279,17030071.0325,20594996.1412,214115.689,0.000,0.000,0.0,0.0,GPS,22,-23855072.7560,7464367.3683,9219991.8878,-116243.731,0.000,0.000,0.0,0.0,GPS,7,-5945667.0379,24305338.8373,-7973947.3330,58065.583,0.000,0.000,0.0,0.0,GPS,8,-22951426.5240,-2297298.9284,13348042.5940,-30240.317,0.000,0.000,0.0,0.0,GPS,11,-14120818.7623,7869798.0668,20524011.0074,-220780.746,0.000,0.000,0.0,0.0,GPS,3,-23121570.9470,12995586.5792,535507.0090,20430.856,0.000,0.000,0.0,0.0*bbc23b7b
#BESTPOSA,USB1_1,0,57.5,FINESTEERING,2000,462859.000,00000000,7145,12778;SOL_COMPUTED,PSRDIFF,36.76833460017,126.93455549356,76.2763,23.3000,WGS84,0.4160,0.3417,0.7178,"0",3.400,0.000,10,10,10,10,0,1a,00,01*0c01c08a
#BESTXYZA,USB1_1,0,57.5,FINESTEERING,2000,462859.000,00000000,bde7,12778;SOL_COMPUTED,PSRDIFF,-3073918.3912,4088936.5128,3796889.2796,0.5081,0.6027,0.4286,SOL_COMPUTED,PSRDIFF,0.0000,0.0000,6.4340e-10,0.0011,0.0011,0.0011,"0",0.150,3.400,0.000,10,10,10,10,0,1a,00,01*524b26d4
#RANGEA,USB1_1,0,57.5,FINESTEERING,2000,462860.000,00000000,5103,12778;10,1,0,20247143.105,0.029,-106399386.387069,0.027,-1188.457,51.8,7506.110,08009c04,17,0,23619483.103,0.046,-124121240.876111,0.027,2131.794,47.9,785.910,08009c24,30,0,22628325.857,0.072,-118912623.452193,0.029,-2362.626,44.0,2814.560,08009c44,18,0,21221883.959,0.043,-111521676.117165,0.027,-2558.809,48.5,7498.880,08009c64,28,0,21017002.065,0.038,-110445106.592938,0.028,1670.020,49.4,6290.540,18009c84,22,0,21856825.941,0.043,-114858425.293797,0.027,906.859,48.4,6062.850,18009ca4,7,0,23511667.518,0.050,-123554516.053224,0.101,-3228.972,47.2,7512.880,08009cc4,8,0,22989843.235,0.068,-120812345.919415,0.029,-2172.792,44.4,7515.840,08009ce4,11,0,20620225.904,0.037,-108359942.550242,0.028,-1484.255,49.7,7508.610,08009d44,3,0,22157293.878,0.050,-116437400.712628,0.028,2651.449,47.2,3792.540,08009d64*761b7748
#SATXYZ2A,USB1_1,0,57.5,FINESTEERING,2000,462860.000,00000000,7513,12778;10,GPS,1,-13263617.1470,12024082.5656,19371860.2010,-14086.357,0.000,0.000,0.0,0.0,GPS,17,11079550.7500,19133677.6279,15190389.1481,-29708.263,0.000,0.000,0.0,0.0,GPS,30,-279362.2338,26435560.8098,1371452.7478,22602.382,0.000,0.000,0.0,0.0,GPS,18,-15094923.8915,2645150.1733,21228928.9941,2289.588,0.000,0.000,0.0,0.0,GPS,28,-4136390.9910,17031064.5122,20593684.7175,214115.692,0.000,0.000,0.0,0.0,GPS,22,-23854313.4733,7463442.5434,9222779.7449,-116243.735,0.000,0.000,0.0,0.0,GPS,7,-5945961.1325,24304279.7487,-7976922.3823,58065.580,0.000,0.000,0.0,0.0,GPS,8,-22952801.2214,-2298282.2575,13345514.9251,-30240.317,0.000,0.000,0.0,0.0,GPS,11,-14121970.5069,7867291.4774,20524159.8473,-220780.748,0.000,0.000,0.0,0.0,GPS,3,-23121654.5729,12995302.2342,538684.8404,20430.858,0.000,0.000,0.0,0.0*aab0590a
#BESTPOSA,USB1_1,0,57.5,FINESTEERING,2000,462860.000,00000000,7145,12778;SOL_COMPUTED,PSRDIFF,36.76833459830,126.93455548495,76.2777,23.3000,WGS84,0.4155,0.3411,0.7172,"0",3.200,0.000,10,10,10,10,0,1a,00,01*403b64bb
#BESTXYZA,USB1_1,0,57.5,FINESTEERING,2000,462860.000,00000000,bde7,12778;SOL_COMPUTED,PSRDIFF,-3073918.3913,4088936.5143,3796889.2802,0.5075,0.6022,0.4280,SOL_COMPUTED,PSRDIFF,0.0000,0.0000,0.0000,0.0011,0.0011,0.0011,"0",0.150,3.200,0.000,10,10,10,10,0,1a,00,01*5e791c67
#RANGEA,USB1_1,0,53.5,FINESTEERING,2000,462861.000,00000000,5103,12778;10,1,0,20247369.392,0.029,-106400575.512792,0.027,-1189.440,51.8,7507.110,08009c04,17,0,23619077.491,0.045,-124119109.369155,0.028,2131.355,48.0,786.910,08009c24,30,0,22628775.567,0.073,-118914986.637803,0.029,-2363.434,43.9,2815.560,08009c44,18,0,21222370.946,0.044,-111524235.251368,0.028,-2559.396,48.3,7499.880,08009c64,28,0,21016684.343,0.038,-110443436.941276,0.028,1669.053,49.5,6291.540,18009c84,22,0,21856653.442,0.043,-114857518.838202,0.027,905.841,48.4,6063.850,18009ca4,7,0,23512282.079,0.050,-123557745.536723,0.065,-3229.760,47.1,7513.880,08009cc4,8,0,22990256.749,0.069,-120814519.003543,0.030,-2173.463,44.3,7516.840,08009ce4,11,0,20620508.461,0.037,-108361427.406928,0.028,-1485.237,49.7,7509.610,08009d44,3,0,22156789.398,0.050,-116434749.605555,0.029,2650.749,47.1,3793.540,08009d64*42408b17
#SATXYZ2A,USB1_1,0,53.5,FINESTEERING,2000,462861.000,00000000,7513,12778;10,GPS,1,-13263747.3490,12021584.1271,19373340.1473,-14086.358,0.000,0.000,0.0,0.0,GPS,17,11077918.9019,19132792.1167,15192743.0651,-29708.261,0.000,0.000,0.0,0.0,GPS,30,-279717.4166,26435718.5687,1368309.8790,22602.381,0.000,0.000,0.0,0.0,GPS,18,-15095085.6924,2642345.4709,21229176.4572,2289.588,0.000,0.000,0.0,0.0,GPS,28,-4138652.2478,17032058.0690,20592372.8787,214115.695,0.000,0.000,0.0,0.0,GPS,22,-23853553.9495,7462517.4900,9225567.4076,-116243.739,0.000,0.000,0.0,0.0,GPS,7,-5946255.2823,24303220.2973,-7979897.2559,58065.577,0.000,0.000,0.0,0.0,GPS,8,-22954175.7010,-2299265.3499,13342986.9751,-30240.317,0.000,0.000,0.0,0.0,GPS,11,-14123122.3765,7864784.9221,20524308.2285,-220780.749,0.000,0.000,0.0,0.0,GPS,3,-23121737.8695,12995017.6931,541862.6603,20430.860,0.000,0.000,0.0,0.0*14d75a40
#BESTPOSA,USB1_1,0,53.5,FINESTEERING,2000,462861.000,00000000,7145,12778;SOL_COMPUTED,PSRDIFF,36.76833459830,126.93455548495,76.2777,23.3000,WGS84,0.4156,0.3411,0.7173,"0",2.400,0.000,10,10,10,10,0,1a,00,01*5116e9e0
#BESTXYZA,USB1_1,0,53.5,FINESTEERING,2000,462861.000,00000000,bde7,12778;SOL_COMPUTED,PSRDIFF,-3073918.3913,4088936.5143,3796889.2802,0.5075,0.6023,0.4280,SOL_COMPUTED,PSRDIFF,0.0000,0.0000,0.0000,0.0011,0.0011,0.0011,"0",0.150,2.400,0.000,10,10,10,10,0,1a,00,01*4602c786
#RANGEA,USB1_1,0,53.5,FINESTEERING,2000,462862.000,00000000,5103,12778;10,1,0,20247595.311,0.029,-106401762.704783,0.031,-1183.866,51.8,7508.110,08009c04,17,0,23618671.413,0.045,-124116975.450103,0.031,2137.704,48.0,787.910,08009c24,30,0,22629224.884,0.072,-118917347.768727,0.032,-2357.699,43.9,2816.560,08009c44,18,0,21222857.531,0.044,-111526792.294244,0.031,-2553.780,48.3,7500.880,08009c64,28,0,21016366.225,0.038,-110441765.202447,0.031,1674.878,49.5,6292.540,18009c84,22,0,21856480.586,0.043,-114856610.509717,0.031,911.538,48.4,6064.850,18009ca4,7,0,23512896.185,0.050,-123560972.643914,0.048,-3223.581,47.2,7514.880,08009cc4,8,0,22990669.843,0.072,-120816689.806500,0.032,-2167.777,44.0,7517.840,08009ce4,11,0,20620790.623,0.037,-108362910.186116,0.031,-1479.329,49.8,7510.610,08009d44,3,0,22156284.516,0.051,-116432096.452237,0.032,2656.335,47.0,3794.540,08009d64*541601ca
#SATXYZ2A,USB1_1,0,53.5,FINESTEERING,2000,462862.000,00000000,7513,12778;10,GPS,1,-13263877.6979,12019085.5104,19374819.6729,-14086.360,0.000,0.000,0.0,0.0,GPS,17,11076286.7548,19131906.5503,15195096.6684,-29708.259,0.000,0.000,0.0,0.0,GPS,30,-280072.5719,26435875.9519,1365166.9808,22602.379,0.000,0.000,0.0,0.0,GPS,18,-15095247.6474,2639540.7475,21229423.4490,2289.588,0.000,0.000,0.0,0.0,GPS,28,-4140913.2983,17033051.7029,20591060.6248,214115.698,0.000,0.000,0.0,0.0,GPS,22,-23852794.1847,7461592.2083,9228354.8757,-116243.742,0.000,0.000,0.0,0.0,GPS,7,-5946549.4874,24302160.4832,-7982871.9540,58065.574,0.000,0.000,0.0,0.0,GPS,8,-22955549.9626,-2300248.2057,13340458.7440,-30240.317,0.000,0.000,0.0,0.0,GPS,11,-14124274.3712,7862278.4008,20524456.1509,-220780.750,0.000,0.000,0.0,0.0,GPS,3,-23121820.8369,12994732.9557,545040.4687,20430.862,0.000,0.000,0.0,0.0*3d54193c
#BESTPOSA,USB1_1,0,53.5,FINESTEERING,2000,462862.000,00000000,7145,12778;SOL_COMPUTED,PSRDIFF,36.76833459687,126.93455547638,76.2791,23.3000,WGS84,0.4151,0.3406,0.7167,"0",2.200,0.000,10,10,10,10,0,1a,00,01*8aef14cd
#BESTXYZA,USB1_1,0,53.5,FINESTEERING,2000,462862.000,00000000,bde7,12778;SOL_COMPUTED,PSRDIFF,-3073918.3914,4088936.5157,3796889.2809,0.5070,0.6018,0.4275,SOL_COMPUTED,PSRDIFF,0.0000,0.0000,0.0000,0.0011,0.0011,0.0011,"0",0.150,2.200,0.000,10,10,10,10,0,1a,00,01*f71d2ed2
#RANGEA,USB1_1,0,53.5,FINESTEERING,2000,462863.000,00000000,5103,12778;10,1,0,20247821.330,0.030,-106402950.389026,0.031,-1189.673,51.7,7509.110,08009c04,17,0,23618265.348,0.046,-124114841.583230,0.031,2132.225,47.9,788.910,08009c24,30,0,22629674.264,0.073,-118919709.258548,0.032,-2363.455,43.8,2817.560,08009c44,18,0,21223344.193,0.043,-111529349.705960,0.031,-2559.382,48.4,7501.880,08009c64,28,0,21016048.175,0.038,-110440093.862647,0.030,1669.311,49.4,6293.540,18009c84,22,0,21856307.838,0.043,-114855702.751105,0.030,905.793,48.4,6065.850,18009ca4,7,0,23513510.321,0.050,-123564199.904410,0.038,-3228.996,47.1,7515.880,08009cc4,8,0,22991082.932,0.070,-120818860.687577,0.033,-2172.681,44.2,7518.840,08009ce4,11,0,20621072.858,0.037,-108364393.327126,0.030,-1485.086,49.8,7511.610,08009d44,3,0,22155779.711,0.050,-116429443.671857,0.031,2650.659,47.1,3795.540,08009d64*1f30c19f
#SATXYZ2A,USB1_1,0,53.5,FINESTEERING,2000,462863.000,00000000,7513,12778;10,GPS,1,-13264008.1937,12016586.7156,19376298.7777,-14086.361,0.000,0.000,0.0,0.0,GPS,17,11074654.3087,19131020.9286,15197449.9579,-29708.257,0.000,0.000,0.0,0.0,GPS,30,-280427.6998,26436032.9595,1362024.0532,22602.378,0.000,0.000,0.0,0.0,GPS,18,-15095409.7566,2636736.0032,21229669.9692,2289.588,0.000,0.000,0.0,0.0,GPS,28,-4143174.1424,17034045.4139,20589747.9559,214115.700,0.000,0.000,0.0,0.0,GPS,22,-23852034.1789,7460666.6981,9231142.1493,-116243.746,0.000,0.000,0.0,0.0,GPS,7,-5946843.7478,24301100.3064,-7985846.4763,58065.571,0.000,0.000,0.0,0.0,GPS,8,-22956924.0061,-2301230.8249,13337930.2320,-30240.317,0.000,0.000,0.0,0.0,GPS,11,-14125426.4909,7859771.9137,20524603.6146,-220780.752,0.000,0.000,0.0,0.0,GPS,3,-23121903.4751,12994448.0220,548218.2654,20430.864,0.000,0.000,0.0,0.0*23afd7cc
#BESTPOSA,USB1_1,0,53.5,FINESTEERING,2000,462863.000,00000000,7145,12778;SOL_COMPUTED,PSRDIFF,36.76833459687,126.93455547638,76.2791,23.3000,WGS84,0.4151,0.3406,0.7167,"0",3.200,0.000,10,10,10,10,0,1a,00,01*995db773
#BESTXYZA,USB1_1,0,53.5,FINESTEERING,2000,462863.000,00000000,bde7,12778;SOL_COMPUTED,PSRDIFF,-3073918.3914,4088936.5157,3796889.2809,0.5070,0.6018,0.4275,SOL_COMPUTED,PSRDIFF,0.0000,0.0000,0.0000,0.0011,0.0011,0.0011,"0",0.150,3.200,0.000,10,10,10,10,0,1a,00,01*87ffb47c
#RANGEA,USB1_1,0,62.5,FINESTEERING,2000,462864.000,00000000,5103,12778;10,1,0,20248047.048,0.030,-106404136.535781,0.032,-1185.781,51.8,7510.110,08009c04,17,0,23617858.906,0.045,-124112705.718358,0.032,2136.370,48.0,789.910,08009c24,30,0,22630123.332,0.072,-118922069.063554,0.032,-2359.417,43.9,2818.560,08009c44,18,0,21223830.529,0.043,-111531905.418843,0.071,-2555.306,48.5,7502.880,08009c64,28,0,21015729.817,0.038,-110438420.852246,0.031,1673.460,49.6,6294.540,18009c84,22,0,21856134.811,0.043,-114854793.518512,0.031,909.473,48.6,6066.850,18009ca4,7,0,23514124.081,0.050,-123567425.195327,0.074,-3224.777,47.1,7516.880,08009cc4,8,0,22991495.683,0.068,-120821029.658584,0.068,-2168.426,44.4,7519.840,08009ce4,11,0,20621354.771,0.037,-108365874.778079,0.031,-1481.057,49.8,7512.610,08009d44,3,0,22155274.586,0.051,-116426789.237895,0.077,2654.892,47.0,3796.540,08009d64*4e4fb640
#SATXYZ2A,USB1_1,0,62.5,FINESTEERING,2000,462864.000,00000000,7513,12778;10,GPS,1,-13264138.8365,12014087.7429,19377777.4616,-14086.363,0.000,0.000,0.0,0.0,GPS,17,11073021.5637,19130135.2518,15199802.9336,-29708.255,0.000,0.000,0.0,0.0,GPS,30,-280782.8002,26436189.5913,1358881.0963,22602.376,0.000,0.000,0.0,0.0,GPS,18,-15095572.0200,2633931.2379,21229916.0181,2289.588,0.000,0.000,0.0,0.0,GPS,28,-4145434.7801,17035039.2019,20588434.8719,214115.703,0.000,0.000,0.0,0.0,GPS,22,-23851273.9321,7459740.9595,9233929.2282,-116243.749,0.000,0.000,0.0,0.0,GPS,7,-5947138.0636,24300039.7669,-7988820.8228,58065.568,0.000,0.000,0.0,0.0,GPS,8,-22958297.8316,-2302213.2075,13335401.4390,-30240.317,0.000,0.000,0.0,0.0,GPS,11,-14126578.7356,7857265.4607,20524750.6195,-220780.753,0.000,0.000,0.0,0.0,GPS,3,-23121985.7842,12994162.8920,551396.0504,20430.866,0.000,0.000,0.0,0.0*0a0a0055
#BESTPOSA,USB1_1,0,62.5,FINESTEERING,2000,462864.000,00000000,7145,12778;SOL_COMPUTED,PSRDIFF,36.76833459687,126.93455547638,76.2791,23.3000,WGS84,0.4151,0.3406,0.7167,"0",1.200,0.000,10,10,10,10,0,1a,00,01*54b1e1cf
#BESTXYZA,USB1_1,0,62.5,FINESTEERING,2000,462864.000,00000000,bde7,12778;SOL_COMPUTED,PSRDIFF,-3073918.3914,4088936.5157,3796889.2809,0.5070,0.6018,0.4275,SOL_COMPUTED,PSRDIFF,0.0000,0.0000,6.7733e-10,0.0011,0.0011,0.0011,"0",0.150,1.200,0.000,10,10,10,10,0,1a,00,01*da44499d
#RANGEA,USB1_1,0,55.0,FINESTEERING,2000,462865.000,00000000,5103,12778;10,1,0,20248272.338,0.030,-106405320.412774,0.028,-1182.109,51.8,7511.110,08009c04,17,0,23617451.934,0.046,-124110567.108758,0.029,2140.677,47.9,790.910,08009c24,30,0,22630571.925,0.076,-118924426.460832,0.030,-2355.622,43.6,2819.560,08009c44,18,0,21224316.394,0.043,-111534458.684483,0.049,-2551.390,48.4,7503.880,08009c64,28,0,21015410.999,0.038,-110436745.434768,0.029,1677.097,49.6,6295.540,18009c84,22,0,21855961.356,0.043,-114853882.064090,0.030,913.162,48.5,6067.850,18009ca4,7,0,23514737.325,0.051,-123570647.803960,0.051,-3220.672,47.0,7517.880,08009cc4,8,0,22991907.929,0.071,-120823195.957238,0.048,-2164.273,44.1,7520.840,08009ce4,11,0,20621636.223,0.037,-108367353.794650,0.030,-1477.112,49.8,7513.610,08009d44,3,0,22154769.002,0.051,-116424132.407969,0.051,2658.562,47.0,3797.540,08009d64*f05d0c85
#SATXYZ2A,USB1_1,0,55.0,FINESTEERING,2000,462865.000,00000000,7513,12778;10,GPS,1,-13264269.6262,12011588.5922,19379255.7246,-14086.365,0.000,0.000,0.0,0.0,GPS,17,11071388.5198,19129249.5198,15202155.5954,-29708.253,0.000,0.000,0.0,0.0,GPS,30,-281137.8733,26436345.8475,1355738.1103,22602.374,0.000,0.000,0.0,0.0,GPS,18,-15095734.4375,2631126.4519,21230161.5954,2289.588,0.000,0.000,0.0,0.0,GPS,28,-4147695.2114,17036033.0667,20587121.3729,214115.706,0.000,0.000,0.0,0.0,GPS,22,-23850513.4445,7458814.9924,9236716.1125,-116243.753,0.000,0.000,0.0,0.0,GPS,7,-5947432.4349,24298978.8647,-7991794.9934,58065.565,0.000,0.000,0.0,0.0,GPS,8,-22959671.4389,-2303195.3535,13332872.3651,-30240.317,0.000,0.000,0.0,0.0,GPS,11,-14127731.1052,7854759.0419,20524897.1656,-220780.755,0.000,0.000,0.0,0.0,GPS,3,-23122067.7641,12993877.5656,554573.8236,20430.868,0.000,0.000,0.0,0.0*ab88fdb4
#BESTXYZA,USB1_1,0,55.0,FINESTEERING,2000,462865.000,00000000,bde7,12778;SOL_COMPUTED,PSRDIFF,-3073918.3916,4088936.5171,3796889.2816,0.5064,0.6014,0.4270,SOL_COMPUTED,PSRDIFF,0.0000,0.0000,0.0000,0.0011,0.0011,0.0011,"0",0.150,2.200,0.000,10,10,10,10,0,1a,00,01*091ae8a1
#BESTPOSA,USB1_1,0,55.0,FINESTEERING,2000,462865.000,00000000,7145,12778;SOL_COMPUTED,PSRDIFF,36.76833459515,126.93455546812,76.2804,23.3000,WGS84,0.4146,0.3401,0.7161,"0",2.200,0.000,10,10,10,10,0,1a,00,01*3ac08e2d
#RANGEA,USB1_1,0,55.0,FINESTEERING,2000,462866.000,00000000,5103,12778;10,1,0,20248497.727,0.030,-106406504.825143,0.029,-1184.118,51.7,7512.110,08009c04,17,0,23617044.981,0.047,-124108428.589955,0.029,2139.126,47.8,791.910,08009c24,30,0,22631020.606,0.076,-118926784.272212,0.031,-2357.419,43.5,2820.560,08009c44,18,0,21224802.333,0.043,-111537012.332658,0.037,-2553.505,48.5,7504.880,08009c64,28,0,21015092.262,0.038,-110435070.445683,0.029,1675.031,49.5,6296.540,18009c84,22,0,21855788.016,0.043,-114852971.235854,0.029,910.910,48.5,6068.850,18009ca4,7,0,23515350.597,0.051,-123573870.567138,0.039,-3222.441,47.0,7518.880,08009cc4,8,0,22992320.215,0.072,-120825362.442881,0.039,-2165.980,44.0,7521.840,08009ce4,11,0,20621917.756,0.037,-108368833.234509,0.030,-1478.978,49.8,7514.610,08009d44,3,0,22154263.504,0.052,-116421476.004905,0.039,2656.584,46.8,3798.540,08009d64*ca832f4d
#SATXYZ2A,USB1_1,0,55.0,FINESTEERING,2000,462866.000,00000000,7513,12778;10,GPS,1,-13264400.5630,12009089.2636,19380733.5668,-14086.366,0.000,0.000,0.0,0.0,GPS,17,11069755.1770,19128363.7328,15204507.9432,-29708.251,0.000,0.000,0.0,0.0,GPS,30,-281492.9191,26436501.7280,1352595.0951,22602.373,0.000,0.000,0.0,0.0,GPS,18,-15095897.0092,2628321.6451,21230406.7014,2289.588,0.000,0.000,0.0,0.0,GPS,28,-4149955.4362,17037027.0085,20585807.4590,214115.709,0.000,0.000,0.0,0.0,GPS,22,-23849752.7159,7457888.7968,9239502.8021,-116243.757,0.000,0.000,0.0,0.0,GPS,7,-5947726.8616,24297917.5999,-7994768.9882,58065.562,0.000,0.000,0.0,0.0,GPS,8,-22961044.8280,-2304177.2629,13330343.0104,-30240.317,0.000,0.000,0.0,0.0,GPS,11,-14128883.5998,7852252.6575,20525043.2529,-220780.756,0.000,0.000,0.0,0.0,GPS,3,-23122149.4149,12993592.0429,557751.5850,20430.870,0.000,0.000,0.0,0.0*51baca7b
#BESTPOSA,USB1_1,0,55.0,FINESTEERING,2000,462866.000,00000000,7145,12778;SOL_COMPUTED,PSRDIFF,36.76833459515,126.93455546812,76.2804,23.3000,WGS84,0.4147,0.3401,0.7162,"0",1.400,0.000,10,10,10,10,0,1a,00,01*6c4164ee
#BESTXYZA,USB1_1,0,55.0,FINESTEERING,2000,462866.000,00000000,bde7,12778;SOL_COMPUTED,PSRDIFF,-3073918.3916,4088936.5171,3796889.2816,0.5065,0.6014,0.4270,SOL_COMPUTED,PSRDIFF,0.0000,0.0000,0.0000,0.0011,0.0011,0.0011,"0",0.150,1.400,0.000,10,10,10,10,0,1a,00,01*665a5fef
#RANGEA,USB1_1,0,54.5,FINESTEERING,2000,462867.000,00000000,5103,12778;10,1,0,20248723.125,0.030,-106407689.286055,0.031,-1184.797,51.7,7513.110,08009c04,17,0,23616637.951,0.046,-124106289.645905,0.031,2138.761,47.9,792.910,08009c24,30,0,22631469.282,0.076,-118929141.966376,0.034,-2357.945,43.6,2821.560,08009c44,18,0,21225288.250,0.043,-111539565.844901,0.034,-2553.948,48.4,7505.880,08009c64,28,0,21014773.509,0.038,-110433395.368363,0.031,1674.486,49.5,6297.540,18009c84,22,0,21855614.701,0.043,-114852060.496377,0.031,910.087,48.4,6069.850,18009ca4,7,0,23515963.804,0.051,-123577092.940553,0.035,-3222.569,46.9,7519.880,08009cc4,8,0,22992732.431,0.071,-120827528.597503,0.035,-2166.512,44.1,7522.840,08009ce4,11,0,20622199.268,0.037,-108370312.577926,0.031,-1479.650,49.8,7515.610,08009d44,3,0,22153757.983,0.051,-116418819.532897,0.035,2655.934,46.9,3799.540,08009d64*0177aa0f
#SATXYZ2A,USB1_1,0,54.5,FINESTEERING,2000,462867.000,00000000,7513,12778;10,GPS,1,-13264531.6467,12006589.7572,19382210.9880,-14086.368,0.000,0.000,0.0,0.0,GPS,17,11068121.5352,19127477.8907,15206859.9770,-29708.249,0.000,0.000,0.0,0.0,GPS,30,-281847.9376,26436657.2328,1349452.0508,22602.371,0.000,0.000,0.0,0.0,GPS,18,-15096059.7350,2625516.8177,21230651.3358,2289.588,0.000,0.000,0.0,0.0,GPS,28,-4152215.4545,17038021.0272,20584493.1300,214115.711,0.000,0.000,0.0,0.0,GPS,22,-23848991.7466,7456962.3727,9242289.2968,-116243.760,0.000,0.000,0.0,0.0,GPS,7,-5948021.3439,24296855.9725,-7997742.8069,58065.559,0.000,0.000,0.0,0.0,GPS,8,-22962417.9989,-2305158.9358,13327813.3749,-30240.317,0.000,0.000,0.0,0.0,GPS,11,-14130036.2193,7849746.3074,20525188.8814,-220780.758,0.000,0.000,0.0,0.0,GPS,3,-23122230.7367,12993306.3236,560929.3345,20430.872,0.000,0.000,0.0,0.0*72a68ba9
#BESTPOSA,USB1_1,0,54.5,FINESTEERING,2000,462867.000,00000000,7145,12778;SOL_COMPUTED,PSRDIFF,36.76833459294,126.93455546063,76.2818,23.3000,WGS84,0.4142,0.3396,0.7156,"0",2.400,0.000,10,10,10,10,0,1a,00,01*5051b648
#BESTXYZA,USB1_1,0,54.5,FINESTEERING,2000,462867.000,00000000,bde7,12778;SOL_COMPUTED,PSRDIFF,-3073918.3918,4088936.5185,3796889.2822,0.5059,0.6010,0.4264,SOL_COMPUTED,PSRDIFF,0.0000,0.0000,0.0000,0.0011,0.0011,0.0011,"0",0.150,2.400,0.000,10,10,10,10,0,1a,00,01*489388cf
#RANGEA,USB1_1,0,54.5,FINESTEERING,2000,462868.000,00000000,5103,12778;10,1,0,20248948.351,0.030,-106408872.831752,0.029,-1184.747,51.7,7514.110,08009c04,17,0,23616230.665,0.046,-124104149.342639,0.030,2139.235,47.9,793.910,08009c24,30,0,22631917.751,0.076,-118931498.655896,0.032,-2357.771,43.6,2822.560,08009c44,18,0,21225773.966,0.044,-111542118.312198,0.030,-2553.393,48.3,7506.880,08009c64,28,0,21014454.562,0.038,-110431719.262301,0.030,1675.302,49.4,6298.540,18009c84,22,0,21855441.226,0.043,-114851148.921925,0.030,910.383,48.6,6070.850,18009ca4,7,0,23516576.767,0.052,-123580314.020875,0.033,-3221.913,46.9,7520.880,08009cc4,8,0,22993144.389,0.071,-120829693.491439,0.034,-2165.788,44.1,7523.840,08009ce4,11,0,20622480.581,0.037,-108371790.863954,0.029,-1479.504,49.8,7516.610,08009d44,3,0,22153252.282,0.052,-116416162.031760,0.032,2656.530,46.8,3800.540,08009d64*8f6e1651
#SATXYZ2A,USB1_1,0,54.5,FINESTEERING,2000,462868.000,00000000,7513,12778;10,GPS,1,-13264662.8775,12004090.0730,19383687.9882,-14086.369,0.000,0.000,0.0,0.0,GPS,17,11066487.5946,19126591.9937,15209211.6968,-29708.247,0.000,0.000,0.0,0.0,GPS,30,-282202.9289,26436812.3618,1346308.9775,22602.370,0.000,0.000,0.0,0.0,GPS,18,-15096222.6150,2622711.9697,21230895.4988,2289.588,0.000,0.000,0.0,0.0,GPS,28,-4154475.2662,17039015.1226,20583178.3862,214115.714,0.000,0.000,0.0,0.0,GPS,22,-23848230.5365,7456035.7200,9245075.5967,-116243.764,0.000,0.000,0.0,0.0,GPS,7,-5948315.8818,24295793.9825,-8000716.4496,58065.556,0.000,0.000,0.0,0.0,GPS,8,-22963790.9515,-2306140.3722,13325283.4586,-30240.317,0.000,0.000,0.0,0.0,GPS,11,-14131188.9637,7847239.9918,20525334.0512,-220780.759,0.000,0.000,0.0,0.0,GPS,3,-23122311.7293,12993020.4079,564107.0720,20430.874,0.000,0.000,0.0,0.0*5a34a75b
#BESTPOSA,USB1_1,0,54.5,FINESTEERING,2000,462868.000,00000000,7145,12778;SOL_COMPUTED,PSRDIFF,36.76833459294,126.93455546063,76.2818,23.3000,WGS84,0.4142,0.3396,0.7156,"0",3.400,0.000,10,10,10,10,0,1a,00,01*93b7a8c7
#BESTXYZA,USB1_1,0,54.5,FINESTEERING,2000,462868.000,00000000,bde7,12778;SOL_COMPUTED,PSRDIFF,-3073918.3918,4088936.5185,3796889.2822,0.5059,0.6010,0.4264,SOL_COMPUTED,PSRDIFF,0.0000,0.0000,0.0000,0.0011,0.0011,0.0011,"0",0.150,3.400,0.000,10,10,10,10,0,1a,00,01*d4d7fb73
#RANGEA,USB1_1,0,64.0,FINESTEERING,2000,462869.000,00000000,5103,12778;10,1,0,20249173.816,0.030,-106410057.640778,0.027,-1183.758,51.7,7515.110,08009c04,17,0,23615823.529,0.047,-124102009.846610,0.028,2140.767,47.7,794.910,08009c24,30,0,22632366.415,0.074,-118933856.425746,0.029,-2356.630,43.8,2823.560,08009c44,18,0,21226259.883,0.044,-111544671.875642,0.028,-2552.344,48.3,7507.880,08009c64,28,0,21014135.831,0.038,-110430044.302970,0.027,1676.120,49.5,6299.540,18009c84,22,0,21855268.004,0.043,-114850238.654342,0.028,911.408,48.6,6071.850,18009ca4,7,0,23517189.899,0.051,-123583535.973752,0.029,-3220.609,46.9,7521.880,08009cc4,8,0,22993556.553,0.070,-120831859.268937,0.031,-2164.740,44.2,7524.840,08009ce4,11,0,20622762.104,0.037,-108373270.272057,0.027,-1478.312,49.8,7517.610,08009d44,3,0,22152746.793,0.053,-116413505.681596,0.029,2657.480,46.7,3801.540,08009d64*0ab426ae
#SATXYZ2A,USB1_1,0,64.0,FINESTEERING,2000,462869.000,00000000,7513,12778;10,GPS,1,-13264794.2553,12001590.2112,19385164.5675,-14086.371,0.000,0.000,0.0,0.0,GPS,17,11064853.3552,19125706.0418,15211563.1025,-29708.244,0.000,0.000,0.0,0.0,GPS,30,-282557.8931,26436967.1152,1343165.8753,22602.368,0.000,0.000,0.0,0.0,GPS,18,-15096385.6492,2619907.1012,21231139.1903,2289.588,0.000,0.000,0.0,0.0,GPS,28,-4156734.8712,17040009.2949,20581863.2274,214115.717,0.000,0.000,0.0,0.0,GPS,22,-23847469.0856,7455108.8388,9247861.7017,-116243.767,0.000,0.000,0.0,0.0,GPS,7,-5948610.4753,24294731.6299,-8003689.9162,58065.553,0.000,0.000,0.0,0.0,GPS,8,-22965163.6857,-2307121.5720,13322753.2617,-30240.318,0.000,0.000,0.0,0.0,GPS,11,-14132341.8330,7844733.7106,20525478.7622,-220780.761,0.000,0.000,0.0,0.0,GPS,3,-23122392.3930,12992734.2956,567284.7975,20430.877,0.000,0.000,0.0,0.0*76325a35
#BESTPOSA,USB1_1,0,64.0,FINESTEERING,2000,462869.000,00000000,7145,12778;SOL_COMPUTED,PSRDIFF,36.76833459294,126.93455546063,76.2818,23.3000,WGS84,0.4142,0.3396,0.7156,"0",2.000,0.000,10,10,10,10,0,1a,00,01*c69bdcc9
#BESTXYZA,USB1_1,0,64.0,FINESTEERING,2000,462869.000,00000000,bde7,12778;SOL_COMPUTED,PSRDIFF,-3073918.3918,4088936.5185,3796889.2822,0.5059,0.6010,0.4265,SOL_COMPUTED,PSRDIFF,0.0000,0.0000,4.5042e-10,0.0011,0.0011,0.0011,"0",0.150,2.000,0.000,10,10,10,10,0,1a,00,01*9f7295a0
#RANGEA,USB1_1,0,57.5,FINESTEERING,2000,462870.000,00000000,5103,12778;10,1,0,20249398.801,0.030,-106411239.932740,0.028,-1182.092,51.6,7516.110,08009c04,17,0,23615415.830,0.047,-124099867.371171,0.027,2142.820,47.7,795.910,08009c24,30,0,22632814.591,0.073,-118936211.586038,0.029,-2355.043,43.9,2824.560,08009c44,18,0,21226745.306,0.044,-111547222.777783,0.028,-2550.453,48.3,7508.880,08009c64,28,0,21013816.600,0.038,-110428366.698705,0.027,1678.057,49.6,6300.540,18009c84,22,0,21855094.318,0.043,-114849325.950562,0.027,913.063,48.6,6072.850,18009ca4,7,0,23517802.466,0.052,-123586755.007029,0.028,-3218.805,46.9,7522.880,08009cc4,8,0,22993968.141,0.069,-120834022.154059,0.032,-2162.608,44.3,7525.840,08009ce4,11,0,20623043.122,0.037,-108374747.008901,0.028,-1476.423,49.8,7518.610,08009d44,3,0,22152240.814,0.053,-116410846.708501,0.029,2659.116,46.6,3802.540,08009d64*6eaf2677
#SATXYZ2A,USB1_1,0,57.5,FINESTEERING,2000,462870.000,00000000,7513,12778;10,GPS,1,-13264925.7803,11999090.1717,19386640.7257,-14086.372,0.000,0.000,0.0,0.0,GPS,17,11063218.8169,19124820.0351,15213914.1940,-29708.242,0.000,0.000,0.0,0.0,GPS,30,-282912.8301,26437121.4928,1340022.7443,22602.366,0.000,0.000,0.0,0.0,GPS,18,-15096548.8376,2617102.2122,21231382.4103,2289.588,0.000,0.000,0.0,0.0,GPS,28,-4158994.2696,17041003.5438,20580547.6537,214115.720,0.000,0.000,0.0,0.0,GPS,22,-23846707.3941,7454181.7290,9250647.6117,-116243.771,0.000,0.000,0.0,0.0,GPS,7,-5948905.1244,24293668.9148,-8006663.2066,58065.550,0.000,0.000,0.0,0.0,GPS,8,-22966536.2014,-2308102.5353,13320222.7842,-30240.318,0.000,0.000,0.0,0.0,GPS,11,-14133494.8271,7842227.4640,20525623.0143,-220780.762,0.000,0.000,0.0,0.0,GPS,3,-23122472.7277,12992447.9867,570462.5108,20430.879,0.000,0.000,0.0,0.0*d331b5c6
#BESTPOSA,USB1_1,0,57.5,FINESTEERING,2000,462870.000,00000000,7145,12778;SOL_COMPUTED,PSRDIFF,36.76833459107,126.93455545284,76.2831,23.3000,WGS84,0.4138,0.3391,0.7150,"0",3.000,0.000,10,10,10,10,0,1a,00,01*b225534b
#BESTXYZA,USB1_1,0,57.5,FINESTEERING,2000,462870.000,00000000,bde7,12778;SOL_COMPUTED,PSRDIFF,-3073918.3919,4088936.5199,3796889.2828,0.5054,0.6005,0.4259,SOL_COMPUTED,PSRDIFF,0.0000,0.0000,0.0000,0.0011,0.0011,0.0011,"0",0.150,3.000,0.000,10,10,10,10,0,1a,00,01*981d68b7
#RANGEA,USB1_1,0,57.5,FINESTEERING,2000,462871.000,00000000,5103,12778;10,1,0,20249624.089,0.030,-106412423.858764,0.027,-1181.343,51.7,7517.110,08009c04,17,0,23615008.351,0.047,-124097726.057841,0.026,2144.177,47.6,796.910,08009c24,30,0,22633263.044,0.073,-118938568.197251,0.028,-2353.851,43.8,2825.560,08009c44,18,0,21227231.004,0.045,-111549775.127280,0.026,-2549.617,48.1,7509.880,08009c64,28,0,21013497.646,0.038,-110426690.603858,0.027,1678.810,49.5,6301.540,18009c84,22,0,21854920.945,0.043,-114848414.940820,0.026,913.538,48.4,6073.850,18009ca4,7,0,23518415.269,0.051,-123589975.250703,0.029,-3217.328,47.0,7523.880,08009cc4,8,0,22994379.958,0.069,-120836186.284284,0.032,-2161.427,44.3,7526.840,08009ce4,11,0,20623324.423,0.036,-108376225.237887,0.027,-1475.352,49.9,7519.610,08009d44,3,0,22151735.113,0.053,-116408189.222287,0.028,2660.195,46.7,3803.540,08009d64*e4c5bb51
#SATXYZ2A,USB1_1,0,57.5,FINESTEERING,2000,462871.000,00000000,7513,12778;10,GPS,1,-13265057.4523,11996589.9547,19388116.4628,-14086.374,0.000,0.000,0.0,0.0,GPS,17,11061583.9798,19123933.9736,15216264.9714,-29708.240,0.000,0.000,0.0,0.0,GPS,30,-283267.7401,26437275.4947,1336879.5844,22602.365,0.000,0.000,0.0,0.0,GPS,18,-15096712.1801,2614297.3028,21231625.1588,2289.588,0.000,0.000,0.0,0.0,GPS,28,-4161253.4613,17041997.8694,20579231.6652,214115.723,0.000,0.000,0.0,0.0,GPS,22,-23845945.4620,7453254.3907,9253433.3267,-116243.774,0.000,0.000,0.0,0.0,GPS,7,-5949199.8293,24292605.8372,-8009636.3208,58065.547,0.000,0.000,0.0,0.0,GPS,8,-22967908.4987,-2309083.2622,13317692.0261,-30240.318,0.000,0.000,0.0,0.0,GPS,11,-14134647.9460,7839721.2520,20525766.8077,-220780.764,0.000,0.000,0.0,0.0,GPS,3,-23122552.7333,12992161.4812,573640.2120,20430.881,0.000,0.000,0.0,0.0*7cd030fa
#BESTPOSA,USB1_1,0,57.5,FINESTEERING,2000,462871.000,00000000,7145,12778;SOL_COMPUTED,PSRDIFF,36.76833459107,126.93455545284,76.2831,23.3000,WGS84,0.4138,0.3391,0.7151,"0",2.200,0.000,10,10,10,10,0,1a,00,01*36166fa7
#BESTXYZA,USB1_1,0,57.5,FINESTEERING,2000,462871.000,00000000,bde7,12778;SOL_COMPUTED,PSRDIFF,-3073918.3919,4088936.5199,3796889.2828,0.5054,0.6006,0.4259,SOL_COMPUTED,PSRDIFF,0.0000,0.0000,0.0000,0.0011,0.0011,0.0011,"0",0.150,2.200,0.000,10,10,10,10,0,1a,00,01*d2925434
#RANGEA,USB1_1,0,57.0,FINESTEERING,2000,462872.000,00000000,5103,12778;10,1,0,20249848.872,0.030,-106413605.100942,0.031,-1181.896,51.7,7518.110,08009c04,17,0,23614600.276,0.048,-124095581.608430,0.031,2144.006,47.6,797.910,08009c24,30,0,22633710.969,0.077,-118940922.044568,0.033,-2354.627,43.4,2826.560,08009c44,18,0,21227716.158,0.043,-111552324.639022,0.032,-2550.247,48.5,7510.880,08009c64,28,0,21013178.155,0.038,-110425011.703248,0.032,1678.388,49.6,6302.540,18009c84,22,0,21854747.084,0.043,-114847501.312665,0.032,912.924,48.6,6074.850,18009ca4,7,0,23519027.487,0.051,-123593192.405154,0.032,-3217.656,47.0,7524.880,08009cc4,8,0,22994791.199,0.066,-120838347.345061,0.033,-2161.614,44.7,7527.840,08009ce4,11,0,20623605.185,0.037,-108377700.644683,0.031,-1475.985,49.8,7520.610,08009d44,3,0,22151228.885,0.053,-116405528.967299,0.032,2659.611,46.6,3804.540,08009d64*838cee95
#SATXYZ2A,USB1_1,0,57.0,FINESTEERING,2000,462872.000,00000000,7513,12778;10,GPS,1,-13265189.2715,11994089.5602,19389591.7788,-14086.375,0.000,0.000,0.0,0.0,GPS,17,11059948.8440,19123047.8574,15218615.4346,-29708.238,0.000,0.000,0.0,0.0,GPS,30,-283622.6231,26437429.1208,1333736.3958,22602.363,0.000,0.000,0.0,0.0,GPS,18,-15096875.6768,2611492.3731,21231867.4359,2289.588,0.000,0.000,0.0,0.0,GPS,28,-4163512.4462,17042992.2716,20577915.2619,214115.725,0.000,0.000,0.0,0.0,GPS,22,-23845183.2893,7452326.8237,9256218.8466,-116243.778,0.000,0.000,0.0,0.0,GPS,7,-5949494.5900,24291542.3971,-8012609.2586,58065.544,0.000,0.000,0.0,0.0,GPS,8,-22969280.5775,-2310063.7526,13315160.9875,-30240.318,0.000,0.000,0.0,0.0,GPS,11,-14135801.1897,7837215.0746,20525910.1423,-220780.765,0.000,0.000,0.0,0.0,GPS,3,-23122632.4101,12991874.7791,576817.9009,20430.883,0.000,0.000,0.0,0.0*40972358
#BESTPOSA,USB1_1,0,57.0,FINESTEERING,2000,462872.000,00000000,7145,12778;SOL_COMPUTED,PSRDIFF,36.76833458912,126.93455544561,76.2844,23.3000,WGS84,0.4133,0.3385,0.7145,"0",3.200,0.000,10,10,10,10,0,1a,00,01*f8962201
#BESTXYZA,USB1_1,0,57.0,FINESTEERING,2000,462872.000,00000000,bde7,12778;SOL_COMPUTED,PSRDIFF,-3073918.3921,4088936.5212,3796889.2834,0.5048,0.6001,0.4254,SOL_COMPUTED,PSRDIFF,0.0000,0.0000,0.0000,0.0011,0.0011,0.0011,"0",0.150,3.200,0.000,10,10,10,10,0,1a,00,01*110ff654
#RANGEA,USB1_1,0,57.0,FINESTEERING,2000,462873.000,00000000,5103,12778;10,1,0,20250074.024,0.030,-106414788.265330,0.031,-1183.132,51.7,7519.110,08009c04,17,0,23614192.482,0.049,-124093438.637153,0.032,2143.279,47.2,798.910,08009c24,30,0,22634159.224,0.080,-118943277.644677,0.034,-2355.321,43.1,2827.560,08009c44,18,0,21228201.654,0.043,-111554875.930690,0.032,-2550.972,48.5,7511.880,08009c64,28,0,21012859.009,0.038,-110423334.609826,0.032,1677.549,49.5,6303.540,18009c84,22,0,21854573.600,0.042,-114846589.683326,0.032,911.878,48.6,6075.850,18009ca4,7,0,23519639.990,0.051,-123596411.107968,0.031,-3218.527,47.0,7525.880,08009cc4,8,0,22995202.743,0.066,-120840509.986985,0.032,-2162.527,44.7,7528.840,08009ce4,11,0,20623886.290,0.037,-108379177.840567,0.031,-1477.010,49.8,7521.610,08009d44,3,0,22150722.993,0.053,-116402870.498511,0.033,2658.821,46.7,3805.540,08009d64*2e96706b
#SATXYZ2A,USB1_1,0,57.0,FINESTEERING,2000,462873.000,00000000,7513,12778;10,GPS,1,-13265321.2379,11991588.9882,19391066.6738,-14086.377,0.000,0.000,0.0,0.0,GPS,17,11058313.4093,19122161.6866,15220965.5834,-29708.236,0.000,0.000,0.0,0.0,GPS,30,-283977.4791,26437582.3713,1330593.1785,22602.362,0.000,0.000,0.0,0.0,GPS,18,-15097039.3276,2608687.4232,21232109.2414,2289.588,0.000,0.000,0.0,0.0,GPS,28,-4165771.2244,17043986.7504,20576598.4437,214115.728,0.000,0.000,0.0,0.0,GPS,22,-23844420.8761,7451399.0281,9259004.1713,-116243.782,0.000,0.000,0.0,0.0,GPS,7,-5949789.4065,24290478.5946,-8015582.0201,58065.541,0.000,0.000,0.0,0.0,GPS,8,-22970652.4377,-2311044.0065,13312629.6685,-30240.318,0.000,0.000,0.0,0.0,GPS,11,-14136954.5582,7834708.9320,20526053.0181,-220780.766,0.000,0.000,0.0,0.0,GPS,3,-23122711.7579,12991587.8802,579995.5775,20430.885,0.000,0.000,0.0,0.0*c058d838
#BESTPOSA,USB1_1,0,57.0,FINESTEERING,2000,462873.000,00000000,7145,12778;SOL_COMPUTED,PSRDIFF,36.76833458912,126.93455544561,76.2844,23.3000,WGS84,0.4133,0.3386,0.7145,"0",4.200,0.000,10,10,10,10,0,1a,00,01*8ba27aa4
#BESTXYZA,USB1_1,0,57.0,FINESTEERING,2000,462873.000,00000000,bde7,12778;SOL_COMPUTED,PSRDIFF,-3073918.3921,4088936.5212,3796889.2834,0.5048,0.6001,0.4254,SOL_COMPUTED,PSRDIFF,0.0000,0.0000,0.0000,0.0011,0.0011,0.0011,"0",0.150,4.200,0.000,10,10,10,10,0,1a,00,01*bae08a4e
#RANGEA,USB1_1,0,63.5,FINESTEERING,2000,462874.000,00000000,5103,12778;10,1,0,20250299.544,0.030,-106415973.370046,0.032,-1186.278,51.7,7520.110,08009c04,17,0,23613784.966,0.050,-124091297.147029,0.032,2140.490,47.2,799.910,08009c24,30,0,22634607.830,0.075,-118945635.064317,0.034,-2358.812,43.7,2828.560,08009c44,18,0,21228687.486,0.043,-111557428.977166,0.033,-2554.205,48.5,7512.880,08009c64,28,0,21012540.219,0.038,-110421659.332585,0.032,1674.051,49.6,6304.540,18009c84,22,0,21854400.487,0.042,-114845680.043084,0.032,908.437,48.6,6076.850,18009ca4,7,0,23520252.786,0.051,-123599631.315648,0.032,-3221.208,47.0,7526.880,08009cc4,8,0,22995614.569,0.062,-120842674.148423,0.033,-2164.798,45.3,7529.840,08009ce4,11,0,20624167.736,0.037,-108380656.818473,0.032,-1480.094,49.9,7522.610,08009d44,3,0,22150217.453,0.054,-116400213.874144,0.034,2655.459,46.6,3806.540,08009d64*47ce1788
#SATXYZ2A,USB1_1,0,63.5,FINESTEERING,2000,462874.000,00000000,7513,12778;10,GPS,1,-13265453.3514,11989088.2389,19392541.1475,-14086.378,0.000,0.000,0.0,0.0,GPS,17,11056677.6759,19121275.4611,15223315.4180,-29708.234,0.000,0.000,0.0,0.0,GPS,30,-284332.3082,26437735.2459,1327449.9327,22602.360,0.000,0.000,0.0,0.0,GPS,18,-15097203.1327,2605882.4532,21232350.5755,2289.588,0.000,0.000,0.0,0.0,GPS,28,-4168029.7956,17044981.3058,20575281.2108,214115.731,0.000,0.000,0.0,0.0,GPS,22,-23843658.2224,7450471.0038,9261789.3008,-116243.785,0.000,0.000,0.0,0.0,GPS,7,-5950084.2788,24289414.4296,-8018554.6051,58065.538,0.000,0.000,0.0,0.0,GPS,8,-22972024.0792,-2312024.0240,13310098.0690,-30240.318,0.000,0.000,0.0,0.0,GPS,11,-14138108.0514,7832202.8242,20526195.4350,-220780.768,0.000,0.000,0.0,0.0,GPS,3,-23122790.7769,12991300.7845,583173.2417,20430.887,0.000,0.000,0.0,0.0*0048adca
#BESTPOSA,USB1_1,0,63.5,FINESTEERING,2000,462874.000,00000000,7145,12778;SOL_COMPUTED,PSRDIFF,36.76833458912,126.93455544561,76.2844,23.3000,WGS84,0.4133,0.3386,0.7145,"0",5.200,0.000,10,10,10,10,0,1a,00,01*fbdc6af7
#BESTXYZA,USB1_1,0,63.5,FINESTEERING,2000,462874.000,00000000,bde7,12778;SOL_COMPUTED,PSRDIFF,-3073918.3921,4088936.5212,3796889.2834,0.5048,0.6001,0.4254,SOL_COMPUTED,PSRDIFF,0.0000,0.0000,5.5402e-10,0.0011,0.0011,0.0011,"0",0.150,5.200,0.000,10,10,10,10,0,1a,00,01*60007416
#RANGEA,USB1_1,0,66.0,FINESTEERING,2000,462875.000,00000000,5103,12778;10,1,0,20250525.458,0.030,-106417160.566182,0.029,-1186.303,51.7,7521.110,08009c04,17,0,23613377.751,0.050,-124089157.260510,0.030,2141.241,47.2,800.910,08009c24,30,0,22635056.800,0.078,-118947994.427983,0.031,-2358.498,43.2,2829.560,08009c44,18,0,21229173.693,0.043,-111559983.987851,0.030,-2554.164,48.5,7513.880,08009c64,28,0,21012221.801,0.038,-110419986.025496,0.030,1674.126,49.6,6305.540,18009c84,22,0,21854227.792,0.042,-114844772.570363,0.031,908.190,48.8,6077.850,18009ca4,7,0,23520865.902,0.051,-123602853.225902,0.031,-3220.847,46.9,7527.880,08009cc4,8,0,22996026.739,0.061,-120844840.058358,0.031,-2164.704,45.5,7530.840,08009ce4,11,0,20624449.545,0.037,-108382137.745540,0.030,-1479.830,49.8,7523.610,08009d44,3,0,22149712.282,0.054,-116397559.208175,0.030,2655.723,46.5,3807.540,08009d64*cef5dbf3
#SATXYZ2A,USB1_1,0,66.0,FINESTEERING,2000,462875.000,00000000,7513,12778;10,GPS,1,-13265585.6122,11986587.3122,19394015.2001,-14086.380,0.000,0.000,0.0,0.0,GPS,17,11055041.6437,19120389.1811,15225664.9381,-29708.232,0.000,0.000,0.0,0.0,GPS,30,-284687.1104,26437887.7448,1324306.6583,22602.358,0.000,0.000,0.0,0.0,GPS,18,-15097367.0919,2603077.4630,21232591.4380,2289.588,0.000,0.000,0.0,0.0,GPS,28,-4170288.1600,17045975.9376,20573963.5631,214115.734,0.000,0.000,0.0,0.0,GPS,22,-23842895.3282,7449542.7509,9264574.2351,-116243.789,0.000,0.000,0.0,0.0,GPS,7,-5950379.2071,24288349.9022,-8021527.0136,58065.535,0.000,0.000,0.0,0.0,GPS,8,-22973395.5021,-2313003.8050,13307566.1892,-30240.318,0.000,0.000,0.0,0.0,GPS,11,-14139261.6693,7829696.7512,20526337.3932,-220780.769,0.000,0.000,0.0,0.0,GPS,3,-23122869.4669,12991013.4921,586350.8935,20430.889,0.000,0.000,0.0,0.0*fcc40a58
#BESTPOSA,USB1_1,0,66.0,FINESTEERING,2000,462875.000,00000000,7145,12778;SOL_COMPUTED,PSRDIFF,36.76833458690,126.93455543852,76.2858,23.3000,WGS84,0.4129,0.3380,0.7140,"0",6.200,0.000,10,10,10,10,0,1a,00,01*befaa95b
#BESTXYZA,USB1_1,0,66.0,FINESTEERING,2000,462875.000,00000000,bde7,12778;SOL_COMPUTED,PSRDIFF,-3073918.3923,4088936.5225,3796889.2840,0.5043,0.5997,0.4249,SOL_COMPUTED,PSRDIFF,0.0000,0.0000,0.0000,0.0011,0.0011,0.0011,"0",0.150,6.200,0.000,10,10,10,10,0,1a,00,01*0a1a0e54
#RANGEA,USB1_1,0,64.5,FINESTEERING,2000,462876.000,00000000,5103,12778;10,1,0,20250751.538,0.030,-106418348.630933,0.029,-1191.014,51.7,7522.110,08009c04,17,0,23612970.618,0.049,-124087017.827180,0.029,2136.809,47.3,801.910,08009c24,30,0,22635505.923,0.078,-118950354.537190,0.085,-2362.897,43.3,2830.560,08009c44,18,0,21229660.033,0.043,-111562539.700501,0.030,-2558.656,48.6,7514.880,08009c64,28,0,21011903.523,0.038,-110418313.469027,0.030,1669.601,49.5,6306.540,18009c84,22,0,21854055.283,0.042,-114843866.028140,0.030,903.372,48.8,6078.850,18009ca4,7,0,23521479.111,0.053,-123606075.608741,0.032,-3225.023,46.7,7528.880,08009cc4,8,0,22996438.986,0.060,-120847006.446290,0.032,-2169.316,45.6,7531.840,08009ce4,11,0,20624731.500,0.037,-108383619.402535,0.030,-1484.410,49.9,7524.610,08009d44,3,0,22149207.270,0.054,-116394905.314500,0.030,2650.694,46.5,3808.540,08009d64*00055679
#SATXYZ2A,USB1_1,0,64.5,FINESTEERING,2000,462876.000,00000000,7513,12778;10,GPS,1,-13265718.0202,11984086.2083,19395488.8314,-14086.381,0.000,0.000,0.0,0.0,GPS,17,11053405.3128,19119502.8467,15228014.1439,-29708.230,0.000,0.000,0.0,0.0,GPS,30,-285041.8858,26438039.8680,1321163.3555,22602.357,0.000,0.000,0.0,0.0,GPS,18,-15097531.2052,2600272.4528,21232831.8290,2289.588,0.000,0.000,0.0,0.0,GPS,28,-4172546.3174,17046970.6458,20572645.5007,214115.736,0.000,0.000,0.0,0.0,GPS,22,-23842132.1937,7448614.2692,9267358.9741,-116243.792,0.000,0.000,0.0,0.0,GPS,7,-5950674.1913,24287285.0124,-8024499.2455,58065.532,0.000,0.000,0.0,0.0,GPS,8,-22974766.7062,-2313983.3497,13305034.0291,-30240.318,0.000,0.000,0.0,0.0,GPS,11,-14140415.4119,7827190.7131,20526478.8925,-220780.771,0.000,0.000,0.0,0.0,GPS,3,-23122947.8282,12990726.0028,589528.5327,20430.891,0.000,0.000,0.0,0.0*201d44cd
#BESTPOSA,USB1_1,0,64.5,FINESTEERING,2000,462876.000,00000000,7145,12778;SOL_COMPUTED,PSRDIFF,36.76833458690,126.93455543852,76.2858,23.3000,WGS84,0.4129,0.3381,0.7140,"0",7.200,0.000,10,10,10,10,0,1a,00,01*a041fd00
#BESTXYZA,USB1_1,0,64.5,FINESTEERING,2000,462876.000,00000000,bde7,12778;SOL_COMPUTED,PSRDIFF,-3073918.3923,4088936.5225,3796889.2840,0.5043,0.5997,0.4249,SOL_COMPUTED,PSRDIFF,0.0000,0.0000,8.6427e-10,0.0011,0.0011,0.0011,"0",0.150,7.200,0.000,10,10,10,10,0,1a,00,01*5fbc7843
#RANGEA,USB1_1,0,64.5,FINESTEERING,2000,462877.000,00000000,5103,12778;10,1,0,20250978.283,0.030,-106419540.187280,0.030,-1194.313,51.7,7523.110,08009c04,17,0,23612564.068,0.049,-124084881.410907,0.030,2133.961,47.3,802.910,08009c24,30,0,22635955.679,0.077,-118952718.011992,0.058,-2366.077,43.3,2831.560,08009c44,18,0,21230147.006,0.043,-111565098.739903,0.030,-2561.653,48.5,7515.880,08009c64,28,0,21011585.886,0.038,-110416644.287200,0.030,1666.669,49.5,6307.540,18009c84,22,0,21853883.428,0.042,-114842963.034057,0.031,900.412,48.6,6079.850,18009ca4,7,0,23522092.892,0.054,-123609301.047028,0.032,-3227.765,46.4,7529.880,08009cc4,8,0,22996851.848,0.058,-120849175.966229,0.067,-2171.830,45.9,7532.840,08009ce4,11,0,20625014.086,0.037,-108385104.401242,0.030,-1487.789,49.8,7525.610,08009d44,3,0,22148702.888,0.054,-116392254.767781,0.032,2648.171,46.5,3809.540,08009d64*6c9dd866
#SATXYZ2A,USB1_1,0,64.5,FINESTEERING,2000,462877.000,00000000,7513,12778;10,GPS,1,-13265850.5754,11981584.9272,19396962.0415,-14086.383,0.000,0.000,0.0,0.0,GPS,17,11051768.6832,19118616.4578,15230363.0351,-29708.228,0.000,0.000,0.0,0.0,GPS,30,-285396.6345,26438191.6153,1318020.0242,22602.355,0.000,0.000,0.0,0.0,GPS,18,-15097695.4728,2597467.4226,21233071.7486,2289.588,0.000,0.000,0.0,0.0,GPS,28,-4174804.2679,17047965.4305,20571327.0235,214115.739,0.000,0.000,0.0,0.0,GPS,22,-23841368.8188,7447685.5589,9270143.5176,-116243.796,0.000,0.000,0.0,0.0,GPS,7,-5950969.2315,24286219.7603,-8027471.3008,58065.529,0.000,0.000,0.0,0.0,GPS,8,-22976137.6914,-2314962.6579,13302501.5888,-30240.318,0.000,0.000,0.0,0.0,GPS,11,-14141569.2792,7824684.7101,20526619.9330,-220780.772,0.000,0.000,0.0,0.0,GPS,3,-23123025.8606,12990438.3166,592706.1594,20430.893,0.000,0.000,0.0,0.0*1984b8b8
#BESTPOSA,USB1_1,0,64.5,FINESTEERING,2000,462877.000,00000000,7145,12778;SOL_COMPUTED,PSRDIFF,36.76833458461,126.93455543154,76.2871,23.3000,WGS84,0.4124,0.3375,0.7134,"0",8.200,0.000,10,10,10,10,0,1a,00,01*0caecefa
#BESTXYZA,USB1_1,0,64.5,FINESTEERING,2000,462877.000,00000000,bde7,12778;SOL_COMPUTED,PSRDIFF,-3073918.3926,4088936.5239,3796889.2847,0.5038,0.5993,0.4243,SOL_COMPUTED,PSRDIFF,0.0000,0.0000,0.0000,0.0011,0.0011,0.0011,"0",0.150,8.200,0.000,10,10,10,10,0,1a,00,01*37d62433
#RANGEA,USB1_1,0,64.0,FINESTEERING,2000,462878.000,00000000,5103,12778;10,1,0,20251206.117,0.030,-106420737.465110,0.029,-1196.291,51.7,7524.110,08009c04,17,0,23612158.519,0.049,-124082750.263215,0.029,2132.242,47.3,803.910,08009c24,30,0,22636406.507,0.077,-118955087.080068,0.043,-2367.932,43.4,2832.560,08009c44,18,0,21230635.042,0.043,-111567663.364642,0.029,-2563.526,48.6,7516.880,08009c64,28,0,21011269.315,0.039,-110414980.712373,0.029,1664.731,49.3,6308.540,18009c84,22,0,21853712.690,0.043,-114842065.851670,0.030,898.229,48.5,6080.850,18009ca4,7,0,23522707.697,0.056,-123612531.845057,0.030,-3229.766,46.1,7530.880,08009cc4,8,0,22997265.712,0.058,-120851350.834653,0.048,-2173.974,45.9,7533.840,08009ce4,11,0,20625297.742,0.036,-108386594.998912,0.029,-1489.633,49.9,7526.610,08009d44,3,0,22148199.585,0.054,-116389609.868649,0.032,2645.943,46.6,3810.540,08009d64*a88abc1f
#SATXYZ2A,USB1_1,0,64.0,FINESTEERING,2000,462878.000,00000000,7513,12778;10,GPS,1,-13265983.2779,11979083.4690,19398434.8303,-14086.385,0.000,0.000,0.0,0.0,GPS,17,11050131.7550,19117730.0145,15232711.6119,-29708.226,0.000,0.000,0.0,0.0,GPS,30,-285751.3564,26438342.9869,1314876.6647,22602.354,0.000,0.000,0.0,0.0,GPS,18,-15097859.8945,2594662.3726,21233311.1966,2289.588,0.000,0.000,0.0,0.0,GPS,28,-4177062.0113,17048960.2915,20570008.1317,214115.742,0.000,0.000,0.0,0.0,GPS,22,-23840605.2036,7446756.6198,9272927.8657,-116243.800,0.000,0.000,0.0,0.0,GPS,7,-5951264.3278,24285154.1459,-8030443.1793,58065.526,0.000,0.000,0.0,0.0,GPS,8,-22977508.4578,-2315941.7298,13299968.8682,-30240.318,0.000,0.000,0.0,0.0,GPS,11,-14142723.2711,7822178.7420,20526760.5146,-220780.774,0.000,0.000,0.0,0.0,GPS,3,-23123103.5642,12990150.4335,595883.7733,20430.895,0.000,0.000,0.0,0.0*070b3cf1
#BESTPOSA,USB1_1,0,64.0,FINESTEERING,2000,462878.000,00000000,7145,12778;SOL_COMPUTED,PSRDIFF,36.76833458461,126.93455543154,76.2871,23.3000,WGS84,0.4124,0.3376,0.7134,"0",9.200,0.000,10,10,10,10,0,1a,00,01*e0577fc9
#BESTXYZA,USB1_1,0,64.0,FINESTEERING,2000,462878.000,00000000,bde7,12778;SOL_COMPUTED,PSRDIFF,-3073918.3926,4088936.5239,3796889.2847,0.5038,0.5993,0.4244,SOL_COMPUTED,PSRDIFF,0.0000,0.0000,0.0000,0.0011,0.0011,0.0011,"0",0.150,9.200,0.000,10,10,10,10,0,1a,00,01*9ddc3b0f
#RANGEA,USB1_1,0,63.0,FINESTEERING,2000,462879.000,00000000,5103,12778;10,1,0,20251433.759,0.030,-106421933.731486,0.028,-1196.111,51.7,7525.110,08009c04,17,0,23611752.679,0.048,-124080617.633284,0.029,2132.971,47.5,804.910,08009c24,30,0,22636857.104,0.077,-118957454.980477,0.035,-2367.647,43.4,2833.560,08009c44,18,0,21231122.854,0.042,-111570226.791188,0.029,-2563.389,48.7,7517.880,08009c64,28,0,21010952.531,0.039,-110413315.993859,0.029,1664.744,49.4,6309.540,18009c84,22,0,21853541.773,0.043,-114841167.716182,0.029,898.222,48.5,6081.850,18009ca4,7,0,23523322.219,0.058,-123615761.211884,0.030,-3229.133,45.9,7531.880,08009cc4,8,0,22997679.318,0.059,-120853524.311538,0.036,-2173.301,45.8,7534.840,08009ce4,11,0,20625581.178,0.037,-108388084.436675,0.028,-1489.254,49.8,7527.610,08009d44,3,0,22147696.068,0.054,-116386963.846080,0.030,2646.178,46.4,3811.540,08009d64*dff3b9d2
#SATXYZ2A,USB1_1,0,63.0,FINESTEERING,2000,462879.000,00000000,7513,12778;10,GPS,1,-13266116.1277,11976581.8338,19399907.1978,-14086.386,0.000,0.000,0.0,0.0,GPS,17,11048494.5280,19116843.5169,15235059.8741,-29708.224,0.000,0.000,0.0,0.0,GPS,30,-286106.0516,26438493.9828,1311733.2769,22602.352,0.000,0.000,0.0,0.0,GPS,18,-15098024.4704,2591857.3028,21233550.1730,2289.588,0.000,0.000,0.0,0.0,GPS,28,-4179319.5476,17049955.2288,20568688.8253,214115.745,0.000,0.000,0.0,0.0,GPS,22,-23839841.3481,7445827.4520,9275712.0183,-116243.803,0.000,0.000,0.0,0.0,GPS,7,-5951559.4802,24284088.1691,-8033414.8811,58065.523,0.000,0.000,0.0,0.0,GPS,8,-22978879.0053,-2316920.5653,13297435.8676,-30240.318,0.000,0.000,0.0,0.0,GPS,11,-14143877.3876,7819672.8090,20526900.6375,-220780.775,0.000,0.000,0.0,0.0,GPS,3,-23123180.9391,12989862.3534,599061.3746,20430.897,0.000,0.000,0.0,0.0*1caad107
#BESTPOSA,USB1_1,0,63.0,FINESTEERING,2000,462879.000,00000000,7145,12778;SOL_COMPUTED,PSRDIFF,36.76833458461,126.93455543154,76.2871,23.3000,WGS84,0.4124,0.3376,0.7134,"0",7.200,0.000,10,10,10,10,0,1a,00,01*290c4821
#BESTXYZA,USB1_1,0,63.0,FINESTEERING,2000,462879.000,00000000,bde7,12778;SOL_COMPUTED,PSRDIFF,-3073918.3926,4088936.5239,3796889.2847,0.5038,0.5993,0.4244,SOL_COMPUTED,PSRDIFF,0.0000,0.0000,4.5100e-10,0.0011,0.0011,0.0011,"0",0.150,7.200,0.000,10,10,10,10,0,1a,00,01*ffec389a
#RANGEA,USB1_1,0,55.0,FINESTEERING,2000,462880.000,00000000,5103,12778;10,1,0,20251661.007,0.030,-106423127.919787,0.029,-1193.970,51.7,7526.110,08009c04,17,0,23611346.363,0.047,-124078482.472081,0.029,2135.480,47.6,805.910,08009c24,30,0,22637307.292,0.079,-118959820.684422,0.033,-2365.296,43.2,2834.560,08009c44,18,0,21231610.243,0.042,-111572787.998912,0.029,-2560.759,48.7,7518.880,08009c64,28,0,21010635.324,0.039,-110411649.058703,0.028,1667.576,49.4,6310.540,18009c84,22,0,21853370.474,0.043,-114840267.571252,0.028,900.558,48.5,6082.850,18009ca4,7,0,23523936.279,0.060,-123618988.113641,0.031,-3226.257,45.6,7532.880,08009cc4,8,0,22998092.449,0.057,-120855695.333436,0.032,-2170.638,46.1,7535.840,08009ce4,11,0,20625864.184,0.037,-108389571.639817,0.029,-1487.015,49.8,7528.610,08009d44,3,0,22147192.127,0.055,-116384315.608338,0.029,2648.613,46.3,3812.540,08009d64*8de70447
