#RANGEA,USB1_1,0,59.5,FINESTEERING,2000,465200.000,00000000,5103,12778;9,28,0,20497462.056,0.041,-107714887.482030,0.035,594.966,48.8,487.390,18009c04,1,0,21002958.882,0.037,-110371274.963553,0.035,-2139.164,49.8,489.040,08009c24,3,0,21215697.309,0.039,-111489230.027606,0.034,1485.924,49.3,503.500,18009c44,17,0,22689730.464,0.036,-119235324.949651,0.035,2031.926,50.1,490.290,18009c64,11,0,21444155.685,0.038,-112689790.725241,0.034,-2177.477,49.6,486.900,08009c84,30,0,23822983.645,0.108,-125190578.454089,0.038,-2903.629,40.4,409.100,08009ca4,18,0,22501106.407,0.090,-118244092.360907,0.035,-3116.430,42.0,495.000,08009cc4,8,0,24020899.326,0.100,-126230554.451081,0.037,-2466.598,41.1,411.770,18009d04,22,0,21758157.701,0.042,-114339890.873124,0.035,-485.556,48.6,483.160,18009d24*38f9dd1a
#SATXYZ2A,USB1_1,0,59.5,FINESTEERING,2000,465200.000,00000000,7513,12778;8,GPS,28,-8779704.3120,19460074.6620,16451591.1948,214121.831,0.000,0.000,0.0,0.0,GPS,1,-14007221.7345,5830522.5797,21628380.3019,-14089.800,0.000,0.000,0.0,0.0,GPS,3,-22487154.4524,11709861.1797,7799495.6202,20435.634,0.000,0.000,0.0,0.0,GPS,17,6495958.9112,17030651.6557,19746995.3974,-29703.233,0.000,0.000,0.0,0.0,GPS,11,-17093302.1367,2218064.1376,19620538.1979,-220784.243,0.000,0.000,0.0,0.0,GPS,30,-1139983.4277,25779163.1812,-5919335.1020,22598.647,0.000,0.000,0.0,0.0,GPS,18,-15881573.5583,-3827620.7477,20520958.5432,2289.741,0.000,0.000,0.0,0.0,GPS,22,-21523893.0876,4644274.4093,15095639.8031,-116251.873,0.000,0.000,0.0,0.0*72500cf0
#BESTPOSA,USB1_1,0,59.5,FINESTEERING,2000,465200.000,00000000,7145,12778;SOL_COMPUTED,PSRDIFF,36.76832536793,126.93454831457,77.4879,23.3000,WGS84,0.8559,0.6203,1.5473,"0",1.400,0.000,9,8,8,8,0,1a,00,01*265d487a
#BESTXYZA,USB1_1,0,59.5,FINESTEERING,2000,465200.000,00000000,bde7,12778;SOL_COMPUTED,PSRDIFF,-3073918.8306,4088938.1640,3796889.1841,1.0175,1.0761,1.1481,SOL_COMPUTED,PSRDIFF,2.1347e-10,0.0000,0.0000,0.0011,0.0011,0.0011,"0",0.150,1.400,0.000,9,8,8,8,0,1a,00,01*1ad2979d
#RANGEA,USB1_1,0,56.0,FINESTEERING,2000,465201.000,00000000,5103,12778;9,28,0,20497348.519,0.041,-107714290.794274,0.068,594.199,48.8,488.390,18009c04,1,0,21003365.544,0.037,-110373411.984216,0.067,-2139.433,49.8,490.040,08009c24,3,0,21215414.189,0.039,-111487742.150748,0.070,1485.286,49.2,504.500,18009c44,17,0,22689343.424,0.036,-119233291.017804,0.034,2031.692,50.1,491.290,18009c64,11,0,21444569.690,0.038,-112691966.300042,0.034,-2178.048,49.6,487.900,08009c84,30,0,23823536.053,0.107,-125193481.421782,0.037,-2904.810,40.6,410.100,08009ca4,18,0,22501699.120,0.094,-118247207.021617,0.035,-3116.510,41.6,496.000,08009cc4,8,0,24021368.330,0.100,-126233018.981681,0.078,-2466.664,41.1,412.770,18009d04,22,0,21758249.795,0.042,-114340374.834054,0.034,-486.595,48.6,484.160,18009d24*d706864d
#SATXYZ2A,USB1_1,0,56.0,FINESTEERING,2000,465201.000,00000000,7513,12778;8,GPS,28,-8781381.5109,19461108.1824,16449393.7030,214121.834,0.000,0.000,0.0,0.0,GPS,1,-14007736.4801,5827789.2484,21628810.2979,-14089.801,0.000,0.000,0.0,0.0,GPS,3,-22486564.5138,11709016.3727,7802462.9215,20435.636,0.000,0.000,0.0,0.0,GPS,17,6493701.9724,17029788.8025,19748499.7696,-29703.231,0.000,0.000,0.0,0.0,GPS,11,-17094656.5960,2215791.6165,19619624.7431,-220784.244,0.000,0.000,0.0,0.0,GPS,30,-1140408.0616,25778452.2081,-5922362.4060,22598.646,0.000,0.000,0.0,0.0,GPS,18,-15882071.8375,-3830286.4290,20520112.6206,2289.741,0.000,0.000,0.0,0.0,GPS,22,-21522708.4749,4642783.0162,15097823.8281,-116251.876,0.000,0.000,0.0,0.0*ebb05cc5
#BESTPOSA,USB1_1,0,56.0,FINESTEERING,2000,465201.000,00000000,7145,12778;SOL_COMPUTED,PSRDIFF,36.76832536793,126.93454831457,77.4879,23.3000,WGS84,0.8559,0.6203,1.5473,"0",1.200,0.000,9,8,8,8,0,1a,00,01*8ad50834
#BESTXYZA,USB1_1,0,56.0,FINESTEERING,2000,465201.000,00000000,bde7,12778;SOL_COMPUTED,PSRDIFF,-3073918.8306,4088938.1640,3796889.1841,1.0175,1.0761,1.1481,SOL_COMPUTED,PSRDIFF,5.5586e-11,-2.0998e-10,0.0000,0.0011,0.0011,0.0011,"0",0.150,1.200,0.000,9,8,8,8,0,1a,00,01*c14843a6
#RANGEA,USB1_1,0,56.0,FINESTEERING,2000,465202.000,00000000,5103,12778;9,28,0,20497235.030,0.041,-107713694.449427,0.050,595.380,48.8,489.390,18009c04,1,0,21003772.230,0.037,-110375549.129409,0.050,-2137.721,49.8,491.040,08009c24,3,0,21215131.143,0.040,-111486254.692105,0.051,1486.755,49.1,505.500,18009c44,17,0,22688956.361,0.035,-119231256.939725,0.035,2033.483,50.2,492.290,18009c64,11,0,21444983.706,0.038,-112694141.913419,0.035,-2176.114,49.7,488.900,08009c84,30,0,23824088.423,0.110,-125196384.210149,0.081,-2903.077,40.3,411.100,08009ca4,18,0,22502291.787,0.093,-118250321.604968,0.104,-3114.541,41.8,497.000,08009cc4,8,0,24021837.333,0.099,-126235483.460067,0.056,-2464.930,41.2,413.770,18009d04,22,0,21758341.968,0.042,-114340859.196311,0.035,-485.200,48.7,485.160,18009d24*05e4e036
#SATXYZ2A,USB1_1,0,56.0,FINESTEERING,2000,465202.000,00000000,7513,12778;8,GPS,28,-8783058.4270,19462141.6548,16447195.8763,214121.836,0.000,0.000,0.0,0.0,GPS,1,-14008251.3961,5825055.8973,21629239.8263,-14089.802,0.000,0.000,0.0,0.0,GPS,3,-22485974.3378,11708171.2918,7805430.0562,20435.638,0.000,0.000,0.0,0.0,GPS,17,6491444.8089,17028926.0194,19750003.7362,-29703.229,0.000,0.000,0.0,0.0,GPS,11,-17096011.0953,2213519.2552,19618710.8494,-220784.246,0.000,0.000,0.0,0.0,GPS,30,-1140832.7809,25777740.8802,-5925389.5827,22598.644,0.000,0.000,0.0,0.0,GPS,18,-15882570.2391,-3832951.9735,20519266.2448,2289.741,0.000,0.000,0.0,0.0,GPS,22,-21521523.7432,4641291.3776,15100007.5368,-116251.880,0.000,0.000,0.0,0.0*29b7314a
#BESTPOSA,USB1_1,0,56.0,FINESTEERING,2000,465202.000,00000000,7145,12778;SOL_COMPUTED,PSRDIFF,36.76832534164,126.93454831169,77.4794,23.3000,WGS84,0.8522,0.6176,1.5408,"0",1.000,0.000,9,8,8,8,0,1a,00,01*3b7f6e4d
#BESTXYZA,USB1_1,0,56.0,FINESTEERING,2000,465202.000,00000000,bde7,12778;SOL_COMPUTED,PSRDIFF,-3073918.8274,4088938.1601,3796889.1767,1.0132,1.0716,1.1432,SOL_COMPUTED,PSRDIFF,0.0000,0.0000,0.0000,0.0011,0.0011,0.0011,"0",0.150,1.000,0.000,9,8,8,8,0,1a,00,01*b5b7234d
#RANGEA,USB1_1,0,61.0,FINESTEERING,2000,465203.000,00000000,5103,12778;9,28,0,20497121.673,0.042,-107713098.779754,0.038,593.040,48.8,490.390,18009c04,1,0,21004179.004,0.037,-110377686.723389,0.038,-2139.745,49.8,492.040,08009c24,3,0,21214848.240,0.040,-111484767.982171,0.039,1484.248,49.2,506.500,18009c44,17,0,22688569.335,0.035,-119229223.067260,0.032,2031.603,50.2,493.290,18009c64,11,0,21445397.800,0.038,-112696317.920995,0.032,-2178.160,49.6,489.900,08009c84,30,0,23824640.862,0.111,-125199287.338519,0.102,-2905.590,40.2,412.100,08009ca4,18,0,22502884.533,0.092,-118253436.496280,0.069,-3116.661,41.8,498.000,08009cc4,8,0,24022306.378,0.098,-126237948.166228,0.044,-2466.436,41.3,414.770,18009d04,22,0,21758434.272,0.042,-114341344.299760,0.032,-487.477,48.7,486.160,18009d24*f8407ff1
#SATXYZ2A,USB1_1,0,61.0,FINESTEERING,2000,465203.000,00000000,7513,12778;8,GPS,28,-8784735.0603,19463175.0790,16444997.7147,214121.838,0.000,0.000,0.0,0.0,GPS,1,-14008766.4825,5822322.5264,21629668.8872,-14089.804,0.000,0.000,0.0,0.0,GPS,3,-22485383.9244,11707325.9370,7808397.0241,20435.640,0.000,0.000,0.0,0.0,GPS,17,6489187.4209,17028063.3063,19751507.2972,-29703.227,0.000,0.000,0.0,0.0,GPS,11,-17097365.6343,2211247.0537,19617796.5166,-220784.247,0.000,0.000,0.0,0.0,GPS,30,-1141257.5854,25777029.1975,-5928416.6321,22598.643,0.000,0.000,0.0,0.0,GPS,18,-15883068.7632,-3835617.3810,20518419.4158,2289.741,0.000,0.000,0.0,0.0,GPS,22,-21520338.8927,4639799.4938,15102190.9292,-116251.883,0.000,0.000,0.0,0.0*f0a6cad8
#BESTPOSA,USB1_1,0,61.0,FINESTEERING,2000,465203.000,00000000,7145,12778;SOL_COMPUTED,PSRDIFF,36.76832534164,126.93454831169,77.4794,23.3000,WGS84,0.8522,0.6176,1.5408,"0",1.400,0.000,9,8,8,8,0,1a,00,01*3a12d68b
#BESTXYZA,USB1_1,0,61.0,FINESTEERING,2000,465203.000,00000000,bde7,12778;SOL_COMPUTED,PSRDIFF,-3073918.8274,4088938.1601,3796889.1767,1.0132,1.0716,1.1432,SOL_COMPUTED,PSRDIFF,2.4875e-10,-2.0894e-10,0.0000,0.0011,0.0011,0.0011,"0",0.150,1.400,0.000,9,8,8,8,0,1a,00,01*441a6d41
#RANGEA,USB1_1,0,58.0,FINESTEERING,2000,465204.000,00000000,5103,12778;9,28,0,20497008.388,0.042,-107712503.465230,0.033,596.521,48.7,491.390,18009c04,1,0,21004585.802,0.037,-110379824.439641,0.033,-2136.646,49.8,493.040,08009c24,3,0,21214565.401,0.040,-111483281.656268,0.033,1487.285,49.1,507.500,18009c44,17,0,22688182.279,0.035,-119227189.058106,0.030,2035.346,50.2,494.290,18009c64,11,0,21445811.902,0.037,-112698493.964436,0.030,-2174.893,49.7,490.900,08009c84,30,0,23825193.278,0.112,-125202190.242692,0.066,-2901.599,40.1,413.100,08009ca4,18,0,22503477.233,0.094,-118256551.307593,0.049,-3113.323,41.7,499.000,08009cc4,8,0,24022775.407,0.096,-126240412.832831,0.076,-2463.442,41.4,415.770,18009d04,22,0,21758526.666,0.042,-114341829.829987,0.030,-484.572,48.7,487.160,18009d24*60927007
#SATXYZ2A,USB1_1,0,58.0,FINESTEERING,2000,465204.000,00000000,7513,12778;8,GPS,28,-8786411.4107,19464208.4550,16442799.2182,214121.841,0.000,0.000,0.0,0.0,GPS,1,-14009281.7392,5819589.1358,21630097.4806,-14089.805,0.000,0.000,0.0,0.0,GPS,3,-22484793.2736,11706480.3083,7811363.8252,20435.642,0.000,0.000,0.0,0.0,GPS,17,6486929.8082,17027200.6633,19753010.4525,-29703.224,0.000,0.000,0.0,0.0,GPS,11,-17098720.2131,2208975.0120,19616881.7448,-220784.249,0.000,0.000,0.0,0.0,GPS,30,-1141682.4754,25776317.1601,-5931443.5542,22598.641,0.000,0.000,0.0,0.0,GPS,18,-15883567.4097,-3838282.6515,20517572.1335,2289.741,0.000,0.000,0.0,0.0,GPS,22,-21519153.9235,4638307.3646,15104374.0051,-116251.886,0.000,0.000,0.0,0.0*ba095290
#BESTPOSA,USB1_1,0,58.0,FINESTEERING,2000,465204.000,00000000,7145,12778;SOL_COMPUTED,PSRDIFF,36.76832531583,126.93454830974,77.4714,23.3000,WGS84,0.8486,0.6148,1.5345,"0",1.200,0.000,9,8,8,8,0,1a,00,01*a9253a6b
#BESTXYZA,USB1_1,0,58.0,FINESTEERING,2000,465204.000,00000000,bde7,12778;SOL_COMPUTED,PSRDIFF,-3073918.8244,4088938.1564,3796889.1696,1.0088,1.0672,1.1384,SOL_COMPUTED,PSRDIFF,0.0000,0.0000,0.0000,0.0011,0.0011,0.0011,"0",0.150,1.200,0.000,9,8,8,8,0,1a,00,01*51060093
#RANGEA,USB1_1,0,58.0,FINESTEERING,2000,465205.000,00000000,5103,12778;9,28,0,20496895.164,0.042,-107711908.462407,0.037,591.713,48.8,492.390,18009c04,1,0,21004992.616,0.037,-110381962.258704,0.037,-2140.875,49.8,494.040,08009c24,3,0,21214282.646,0.040,-111481795.732184,0.037,1482.634,49.1,508.500,18009c44,17,0,22687795.193,0.035,-119225154.887700,0.036,2031.148,50.2,495.290,18009c64,11,0,21446225.996,0.037,-112700670.025906,0.036,-2179.068,49.7,491.900,08009c84,30,0,23825745.677,0.110,-125205093.071862,0.090,-2905.590,40.3,414.100,08009ca4,18,0,22504069.936,0.095,-118259666.062674,0.074,-3117.637,41.5,500.000,08009cc4,8,0,24023244.416,0.097,-126242877.411229,0.057,-2467.205,41.4,416.770,18009d04,22,0,21758619.133,0.041,-114342315.736785,0.036,-489.102,48.8,488.160,18009d24*4bbebd5d
#SATXYZ2A,USB1_1,0,58.0,FINESTEERING,2000,465205.000,00000000,7513,12778;8,GPS,28,-8788087.4783,19465241.7827,16440600.3870,214121.843,0.000,0.000,0.0,0.0,GPS,1,-14009797.1664,5816855.7255,21630525.6064,-14089.807,0.000,0.000,0.0,0.0,GPS,3,-22484202.3856,11705634.4056,7814330.4595,20435.644,0.000,0.000,0.0,0.0,GPS,17,6484671.9711,17026338.0904,19754513.2021,-29703.222,0.000,0.000,0.0,0.0,GPS,11,-17100074.8317,2206703.1302,19615966.5340,-220784.250,0.000,0.000,0.0,0.0,GPS,30,-1142107.4507,25775604.7680,-5934470.3488,22598.639,0.000,0.000,0.0,0.0,GPS,18,-15884066.1786,-3840947.7849,20516724.3981,2289.742,0.000,0.000,0.0,0.0,GPS,22,-21517968.8356,4636814.9901,15106556.7646,-116251.890,0.000,0.000,0.0,0.0*863b227a
#BESTPOSA,USB1_1,0,58.0,FINESTEERING,2000,465205.000,00000000,7145,12778;SOL_COMPUTED,PSRDIFF,36.76832531583,126.93454830974,77.4714,23.3000,WGS84,0.8486,0.6148,1.5345,"0",1.000,0.000,9,8,8,8,0,1a,00,01*4090e041
#BESTXYZA,USB1_1,0,58.0,FINESTEERING,2000,465205.000,00000000,bde7,12778;SOL_COMPUTED,PSRDIFF,-3073918.8244,4088938.1564,3796889.1696,1.0088,1.0672,1.1384,SOL_COMPUTED,PSRDIFF,3.5438e-10,-5.9256e-10,0.0000,0.0011,0.0011,0.0011,"0",0.150,1.000,0.000,9,8,8,8,0,1a,00,01*3fb4a833
#RANGEA,USB1_1,0,58.5,FINESTEERING,2000,465206.000,00000000,5103,12778;9,28,0,20496782.082,0.042,-107711314.234008,0.036,593.091,48.8,493.390,18009c04,1,0,21005399.531,0.037,-110384100.612344,0.035,-2138.896,49.8,495.040,08009c24,3,0,21214000.047,0.040,-111480310.626902,0.034,1484.394,49.1,509.500,18009c44,17,0,22687408.164,0.035,-119223121.007716,0.034,2033.089,50.3,496.290,18009c64,11,0,21446640.190,0.037,-112702846.591679,0.076,-2177.261,49.7,492.900,08009c84,30,0,23826298.146,0.115,-125207996.284222,0.061,-2904.026,40.0,415.100,08009ca4,18,0,22504662.707,0.102,-118262781.187724,0.054,-3115.546,41.0,501.000,08009cc4,8,0,24023713.505,0.099,-126245342.325803,0.076,-2465.454,41.2,417.770,18009d04,22,0,21758711.758,0.042,-114342802.484000,0.034,-487.596,48.8,489.160,18009d24*0d34f421
#SATXYZ2A,USB1_1,0,58.5,FINESTEERING,2000,465206.000,00000000,7513,12778;8,GPS,28,-8789763.2630,19466275.0621,16438401.2210,214121.846,0.000,0.000,0.0,0.0,GPS,1,-14010312.7640,5814122.2956,21630953.2648,-14089.808,0.000,0.000,0.0,0.0,GPS,3,-22483611.2602,11704788.2290,7817296.9268,20435.646,0.000,0.000,0.0,0.0,GPS,17,6482413.9095,17025475.5878,19756015.5459,-29703.220,0.000,0.000,0.0,0.0,GPS,11,-17101429.4899,2204431.4084,19615050.8843,-220784.252,0.000,0.000,0.0,0.0,GPS,30,-1142532.5115,25774892.0212,-5937497.0159,22598.638,0.000,0.000,0.0,0.0,GPS,18,-15884565.0699,-3843612.7811,20515876.2094,2289.742,0.000,0.000,0.0,0.0,GPS,22,-21516783.6290,4635322.3703,15108739.2075,-116251.893,0.000,0.000,0.0,0.0*acc9d85a
#BESTPOSA,USB1_1,0,58.5,FINESTEERING,2000,465206.000,00000000,7145,12778;SOL_COMPUTED,PSRDIFF,36.76832531583,126.93454830974,77.4714,23.3000,WGS84,0.8486,0.6148,1.5345,"0",1.400,0.000,9,8,8,8,0,1a,00,01*b0c24ca5
#BESTXYZA,USB1_1,0,58.5,FINESTEERING,2000,465206.000,00000000,bde7,12778;SOL_COMPUTED,PSRDIFF,-3073918.8244,4088938.1564,3796889.1696,1.0088,1.0672,1.1384,SOL_COMPUTED,PSRDIFF,9.2276e-11,-1.1491e-10,0.0000,0.0011,0.0011,0.0011,"0",0.150,1.400,0.000,9,8,8,8,0,1a,00,01*129bac9d
#RANGEA,USB1_1,0,59.0,FINESTEERING,2000,465207.000,00000000,5103,12778;9,28,0,20496669.628,0.042,-107710723.317635,0.042,591.225,48.7,494.390,18009c04,1,0,21005807.032,0.037,-110386242.055585,0.041,-2140.718,49.8,496.040,08009c24,3,0,21213718.096,0.039,-111478828.915131,0.041,1482.184,49.2,510.500,18009c44,17,0,22687021.678,0.035,-119221089.957393,0.041,2031.507,50.3,497.290,18009c64,11,0,21447054.958,0.038,-112705026.162627,0.058,-2179.144,49.7,493.900,08009c84,30,0,23826851.140,0.117,-125210902.307299,0.100,-2905.173,39.8,416.100,08009ca4,18,0,22505256.037,0.102,-118265899.217164,0.049,-3116.662,40.9,502.000,08009cc4,8,0,24024183.121,0.095,-126247810.171618,0.117,-2466.474,41.6,418.770,18009d04,22,0,21758805.023,0.042,-114343292.612677,0.041,-489.418,48.8,490.160,18009d24*260b13a5
#SATXYZ2A,USB1_1,0,59.0,FINESTEERING,2000,465207.000,00000000,7513,12778;8,GPS,28,-8791438.7648,19467308.2930,16436201.7203,214121.848,0.000,0.000,0.0,0.0,GPS,1,-14010828.5319,5811388.8462,21631380.4555,-14089.809,0.000,0.000,0.0,0.0,GPS,3,-22483019.8977,11703941.7784,7820263.2271,20435.648,0.000,0.000,0.0,0.0,GPS,17,6480155.6234,17024613.1554,19757517.4840,-29703.218,0.000,0.000,0.0,0.0,GPS,11,-17102784.1878,2202159.8465,19614134.7956,-220784.253,0.000,0.000,0.0,0.0,GPS,30,-1142957.6578,25774178.9198,-5940523.5554,22598.636,0.000,0.000,0.0,0.0,GPS,18,-15885064.0835,-3846277.6402,20515027.5676,2289.742,0.000,0.000,0.0,0.0,GPS,22,-21515598.3039,4633829.5052,15110921.3340,-116251.896,0.000,0.000,0.0,0.0*0fba2089
#BESTPOSA,USB1_1,0,59.0,FINESTEERING,2000,465207.000,00000000,7145,12778;SOL_COMPUTED,PSRDIFF,36.76832529313,126.93454830926,77.4630,23.3000,WGS84,0.8450,0.6121,1.5282,"0",1.200,0.000,9,8,8,8,0,1a,00,01*acd43ef3
#BESTXYZA,USB1_1,0,59.0,FINESTEERING,2000,465207.000,00000000,bde7,12778;SOL_COMPUTED,PSRDIFF,-3073918.8212,4088938.1523,3796889.1625,1.0046,1.0628,1.1337,SOL_COMPUTED,PSRDIFF,2.1308e-10,0.0000,0.0000,0.0011,0.0011,0.0011,"0",0.150,1.200,0.000,9,8,8,8,0,1a,00,01*89e37405
#RANGEA,USB1_1,0,58.0,FINESTEERING,2000,465208.000,00000000,5103,12778;9,28,0,20496557.134,0.042,-107710132.156442,0.033,593.531,48.7,495.390,18009c04,1,0,21006214.450,0.037,-110388383.015874,0.033,-2138.636,49.7,497.040,08009c24,3,0,21213436.098,0.040,-111477347.004195,0.033,1484.098,49.1,511.500,18009c44,17,0,22686635.050,0.035,-119219058.177342,0.033,2034.277,50.3,498.290,18009c64,11,0,21447469.615,0.038,-112707205.178902,0.042,-2176.608,49.6,494.900,08009c84,30,0,23827404.006,0.117,-125213807.655511,0.072,-2902.549,39.8,417.100,08009ca4,18,0,22505849.229,0.108,-118269016.652366,0.066,-3115.119,40.5,503.000,08009cc4,8,0,24024652.626,0.094,-126250277.339640,0.076,-2464.833,41.6,419.770,18009d04,22,0,21758898.252,0.042,-114343782.555642,0.033,-487.658,48.7,491.160,18009d24*68da3281
#SATXYZ2A,USB1_1,0,58.0,FINESTEERING,2000,465208.000,00000000,7513,12778;8,GPS,28,-8793113.9838,19468341.4756,16434001.8849,214121.851,0.000,0.000,0.0,0.0,GPS,1,-14011344.4702,5808655.3773,21631807.1788,-14089.811,0.000,0.000,0.0,0.0,GPS,3,-22482428.2980,11703095.0539,7823229.3604,20435.650,0.000,0.000,0.0,0.0,GPS,17,6477897.1130,17023750.7933,19759019.0162,-29703.216,0.000,0.000,0.0,0.0,GPS,11,-17104138.9253,2199888.4446,19613218.2681,-220784.255,0.000,0.000,0.0,0.0,GPS,30,-1143382.8897,25773465.4638,-5943549.9672,22598.635,0.000,0.000,0.0,0.0,GPS,18,-15885563.2194,-3848942.3619,20514178.4727,2289.742,0.000,0.000,0.0,0.0,GPS,22,-21514412.8602,4632336.3947,15113103.1438,-116251.900,0.000,0.000,0.0,0.0*414281c7
#BESTPOSA,USB1_1,0,58.0,FINESTEERING,2000,465208.000,00000000,7145,12778;SOL_COMPUTED,PSRDIFF,36.76832529313,126.93454830926,77.4630,23.3000,WGS84,0.8450,0.6122,1.5282,"0",1.000,0.000,9,8,8,8,0,1a,00,01*e2d34436
#BESTXYZA,USB1_1,0,58.0,FINESTEERING,2000,465208.000,00000000,bde7,12778;SOL_COMPUTED,PSRDIFF,-3073918.8212,4088938.1523,3796889.1625,1.0046,1.0628,1.1337,SOL_COMPUTED,PSRDIFF,5.5484e-11,-6.9590e-10,0.0000,0.0011,0.0011,0.0011,"0",0.150,1.000,0.000,9,8,8,8,0,1a,00,01*bd791fc1
#RANGEA,USB1_1,0,58.0,FINESTEERING,2000,465209.000,00000000,5103,12778;9,28,0,20496444.501,0.042,-107709540.257411,0.031,589.272,48.7,496.390,18009c04,1,0,21006621.676,0.037,-110390523.036963,0.031,-2142.315,49.7,498.040,08009c24,3,0,21213153.981,0.040,-111475864.440110,0.030,1480.104,49.1,512.500,18009c44,17,0,22686248.197,0.035,-119217025.190339,0.030,2030.733,50.3,499.290,18009c64,11,0,21447884.080,0.038,-112709383.182504,0.034,-2180.218,49.6,495.900,08009c84,30,0,23827956.625,0.117,-125216711.819007,0.052,-2906.194,39.8,418.100,08009ca4,18,0,22506442.214,0.110,-118272132.914744,0.048,-3118.271,40.3,504.000,08009cc4,8,0,24025121.918,0.094,-126252743.374430,0.052,-2468.062,41.6,420.770,18009d04,22,0,21758991.360,0.041,-114344271.839227,0.031,-491.639,48.8,492.160,18009d24*ad9cb2be
#SATXYZ2A,USB1_1,0,58.0,FINESTEERING,2000,465209.000,00000000,7513,12778;8,GPS,28,-8794788.9198,19469374.6096,16431801.7149,214121.853,0.000,0.000,0.0,0.0,GPS,1,-14011860.5789,5805921.8891,21632233.4344,-14089.812,0.000,0.000,0.0,0.0,GPS,3,-22481836.4612,11702248.0553,7826195.3265,20435.652,0.000,0.000,0.0,0.0,GPS,17,6475638.3782,17022888.5016,19760520.1427,-29703.213,0.000,0.000,0.0,0.0,GPS,11,-17105493.7023,2197617.2028,19612301.3017,-220784.256,0.000,0.000,0.0,0.0,GPS,30,-1143808.2072,25772751.6532,-5946576.2514,22598.633,0.000,0.000,0.0,0.0,GPS,18,-15886062.4776,-3851606.9464,20513328.9247,2289.742,0.000,0.000,0.0,0.0,GPS,22,-21513227.2980,4630843.0390,15115284.6370,-116251.903,0.000,0.000,0.0,0.0*09a882b5
#BESTPOSA,USB1_1,0,58.0,FINESTEERING,2000,465209.000,00000000,7145,12778;SOL_COMPUTED,PSRDIFF,36.76832526940,126.93454830758,77.4544,23.3000,WGS84,0.8414,0.6095,1.5220,"0",1.400,0.000,9,8,8,8,0,1a,00,01*a85f1249
#BESTXYZA,USB1_1,0,58.0,FINESTEERING,2000,465209.000,00000000,bde7,12778;SOL_COMPUTED,PSRDIFF,-3073918.8179,4088938.1482,3796889.1553,1.0004,1.0585,1.1290,SOL_COMPUTED,PSRDIFF,0.0000,0.0000,0.0000,0.0011,0.0011,0.0011,"0",0.150,1.400,0.000,9,8,8,8,0,1a,00,01*ea69fa7f
#RANGEA,USB1_1,0,59.0,FINESTEERING,2000,465210.000,00000000,5103,12778;9,28,0,20496332.498,0.042,-107708951.699578,0.030,591.266,48.7,497.390,18009c04,1,0,21007029.497,0.038,-110392666.166257,0.030,-2140.398,49.6,499.040,08009c24,3,0,21212872.511,0.040,-111474385.272801,0.029,1481.701,49.1,513.500,18009c44,17,0,22685861.881,0.035,-119214995.055533,0.029,2033.226,50.2,500.290,18009c64,11,0,21448299.127,0.038,-112711564.237477,0.031,-2178.303,49.6,496.900,08009c84,30,0,23828509.828,0.119,-125219618.944699,0.041,-2903.799,39.7,419.100,08009ca4,18,0,22507035.760,0.111,-118275252.144320,0.041,-3116.280,40.2,505.000,08009cc4,8,0,24025591.762,0.092,-126255212.350947,0.042,-2465.575,41.9,421.770,18009d04,22,0,21759085.117,0.042,-114344764.531102,0.030,-489.986,48.7,493.160,18009d24*8c31b950
#SATXYZ2A,USB1_1,0,59.0,FINESTEERING,2000,465210.000,00000000,7513,12778;8,GPS,28,-8796463.5728,19470407.6950,16429601.2104,214121.856,0.000,0.000,0.0,0.0,GPS,1,-14012376.8580,5803188.3815,21632659.2225,-14089.813,0.000,0.000,0.0,0.0,GPS,3,-22481244.3874,11701400.7827,7829161.1255,20435.654,0.000,0.000,0.0,0.0,GPS,17,6473379.4192,17022026.2802,19762020.8633,-29703.211,0.000,0.000,0.0,0.0,GPS,11,-17106848.5188,2195346.1211,19611383.8964,-220784.258,0.000,0.000,0.0,0.0,GPS,30,-1144233.6103,25772037.4880,-5949602.4078,22598.632,0.000,0.000,0.0,0.0,GPS,18,-15886561.8581,-3854271.3934,20512478.9235,2289.742,0.000,0.000,0.0,0.0,GPS,22,-21512041.6174,4629349.4380,15117465.8135,-116251.907,0.000,0.000,0.0,0.0*3b374275
#BESTPOSA,USB1_1,0,59.0,FINESTEERING,2000,465210.000,00000000,7145,12778;SOL_COMPUTED,PSRDIFF,36.76832526940,126.93454830758,77.4544,23.3000,WGS84,0.8414,0.6095,1.5220,"0",1.200,0.000,9,8,8,8,0,1a,00,01*27b18312
#BESTXYZA,USB1_1,0,59.0,FINESTEERING,2000,465210.000,00000000,bde7,12778;SOL_COMPUTED,PSRDIFF,-3073918.8179,4088938.1482,3796889.1553,1.0004,1.0585,1.1290,SOL_COMPUTED,PSRDIFF,4.4879e-10,0.0000,0.0000,0.0011,0.0011,0.0011,"0",0.150,1.200,0.000,9,8,8,8,0,1a,00,01*5b3e6acf
#RANGEA,USB1_1,0,58.0,FINESTEERING,2000,465211.000,00000000,5103,12778;9,28,0,20496220.503,0.042,-107708363.182759,0.029,591.228,48.6,498.390,18009c04,1,0,21007437.292,0.038,-110394809.133048,0.029,-2140.322,49.6,500.040,08009c24,3,0,21212591.067,0.040,-111472906.220898,0.028,1481.494,49.0,514.500,18009c44,17,0,22685475.481,0.035,-119212964.490954,0.029,2033.339,50.2,501.290,18009c64,11,0,21448714.130,0.039,-112713745.036153,0.029,-2178.107,49.4,497.900,08009c84,30,0,23829062.947,0.120,-125222525.644719,0.082,-2904.158,39.6,420.100,08009ca4,18,0,22507629.253,0.113,-118278371.023993,0.035,-3115.902,40.0,506.000,08009cc4,8,0,24026061.529,0.090,-126257680.973834,0.038,-2466.011,42.0,422.770,18009d04,22,0,21759178.897,0.041,-114345257.343903,0.029,-490.359,48.8,494.160,18009d24*c6699788
#SATXYZ2A,USB1_1,0,58.0,FINESTEERING,2000,465211.000,00000000,7513,12778;8,GPS,28,-8798137.9429,19471440.7318,16427400.3713,214121.858,0.000,0.000,0.0,0.0,GPS,1,-14012893.3074,5800454.8547,21633084.5430,-14089.815,0.000,0.000,0.0,0.0,GPS,3,-22480652.0765,11700553.2360,7832126.7572,20435.656,0.000,0.000,0.0,0.0,GPS,17,6471120.2359,17021164.1293,19763521.1780,-29703.209,0.000,0.000,0.0,0.0,GPS,11,-17108203.3747,2193075.1996,19610466.0522,-220784.259,0.000,0.000,0.0,0.0,GPS,30,-1144659.0991,25771322.9682,-5952628.4363,22598.630,0.000,0.000,0.0,0.0,GPS,18,-15887061.3608,-3856935.7029,20511628.4693,2289.743,0.000,0.000,0.0,0.0,GPS,22,-21510855.8184,4627855.5917,15119646.6733,-116251.910,0.000,0.000,0.0,0.0*702f4603
#BESTPOSA,USB1_1,0,58.0,FINESTEERING,2000,465211.000,00000000,7145,12778;SOL_COMPUTED,PSRDIFF,36.76832526940,126.93454830758,77.4544,23.3000,WGS84,0.8414,0.6095,1.5220,"0",1.000,0.000,9,8,8,8,0,1a,00,01*88e031fd
#BESTXYZA,USB1_1,0,58.0,FINESTEERING,2000,465211.000,00000000,bde7,12778;SOL_COMPUTED,PSRDIFF,-3073918.8179,4088938.1482,3796889.1553,1.0004,1.0585,1.1290,SOL_COMPUTED,PSRDIFF,1.1686e-10,-2.4838e-10,0.0000,0.0011,0.0011,0.0011,"0",0.150,1.000,0.000,9,8,8,8,0,1a,00,01*42346048
#RANGEA,USB1_1,0,58.0,FINESTEERING,2000,465212.000,00000000,5103,12778;9,28,0,20496108.554,0.042,-107707774.958207,0.028,587.838,48.6,499.390,18009c04,1,0,21007845.096,0.038,-110396952.154065,0.027,-2143.375,49.6,501.040,08009c24,3,0,21212309.696,0.040,-111471427.524911,0.028,1478.197,49.1,515.500,18009c44,17,0,22685089.051,0.035,-119210933.739072,0.028,2030.425,50.2,502.290,18009c64,11,0,21449129.125,0.039,-112715925.831839,0.029,-2181.121,49.4,498.900,08009c84,30,0,23829616.032,0.121,-125225432.197289,0.055,-2906.869,39.5,421.100,08009ca4,18,0,22508222.723,0.107,-118281489.819987,0.036,-3118.889,40.5,507.000,08009cc4,8,0,24026531.281,0.093,-126260149.457644,0.036,-2468.723,41.8,423.770,18009d04,22,0,21759272.739,0.042,-114345750.507657,0.028,-493.709,48.7,495.160,18009d24*8a08b028
#SATXYZ2A,USB1_1,0,58.0,FINESTEERING,2000,465212.000,00000000,7513,12778;8,GPS,28,-8799812.0300,19472473.7199,16425199.1977,214121.860,0.000,0.000,0.0,0.0,GPS,1,-14013409.9272,5797721.3088,21633509.3960,-14089.816,0.000,0.000,0.0,0.0,GPS,3,-22480059.5287,11699705.4152,7835092.2217,20435.659,0.000,0.000,0.0,0.0,GPS,17,6468860.8283,17020302.0489,19765021.0868,-29703.207,0.000,0.000,0.0,0.0,GPS,11,-17109558.2701,2190804.4382,19609547.7693,-220784.261,0.000,0.000,0.0,0.0,GPS,30,-1145084.6736,25770608.0939,-5955654.3369,22598.628,0.000,0.000,0.0,0.0,GPS,18,-15887560.9857,-3859599.8750,20510777.5620,2289.743,0.000,0.000,0.0,0.0,GPS,22,-21509669.9012,4626361.5001,15121827.2163,-116251.913,0.000,0.000,0.0,0.0*5f4b64df
#BESTPOSA,USB1_1,0,58.0,FINESTEERING,2000,465212.000,00000000,7145,12778;SOL_COMPUTED,PSRDIFF,36.76832524847,126.93454830495,77.4460,23.3000,WGS84,0.8379,0.6069,1.5158,"0",1.400,0.000,9,8,8,8,0,1a,00,01*f554f61d
#BESTXYZA,USB1_1,0,58.0,FINESTEERING,2000,465212.000,00000000,bde7,12778;SOL_COMPUTED,PSRDIFF,-3073918.8145,4088938.1440,3796889.1484,0.9962,1.0542,1.1244,SOL_COMPUTED,PSRDIFF,0.0000,0.0000,0.0000,0.0011,0.0011,0.0011,"0",0.150,1.400,0.000,9,8,8,8,0,1a,00,01*a85c9433
#RANGEA,USB1_1,0,57.0,FINESTEERING,2000,465213.000,00000000,5103,12778;9,28,0,20495996.565,0.042,-107707186.480313,0.027,590.770,48.6,500.390,18009c04,1,0,21008252.808,0.038,-110399094.717477,0.026,-2140.127,49.6,502.040,08009c24,3,0,21212028.283,0.040,-111469948.637696,0.027,1481.071,49.0,516.500,18009c44,17,0,22684702.475,0.035,-119208902.245229,0.026,2033.973,50.2,503.290,18009c64,11,0,21449544.014,0.039,-112718106.081870,0.027,-2177.826,49.3,499.900,08009c84,30,0,23830168.954,0.131,-125228338.090499,0.043,-2903.381,38.8,422.100,08009ca4,18,0,22508816.076,0.112,-118284607.973664,0.037,-3115.686,40.1,508.000,08009cc4,8,0,24027000.952,0.092,-126262617.363229,0.031,-2465.613,41.8,424.770,18009d04,22,0,21759366.552,0.042,-114346243.489487,0.026,-490.773,48.7,496.160,18009d24*6ba417e4
#SATXYZ2A,USB1_1,0,57.0,FINESTEERING,2000,465213.000,00000000,7513,12778;8,GPS,28,-8801485.8341,19473506.6593,16422997.6897,214121.863,0.000,0.000,0.0,0.0,GPS,1,-14013926.7173,5794987.7437,21633933.7813,-14089.818,0.000,0.000,0.0,0.0,GPS,3,-22479466.7440,11698857.3204,7838057.5187,20435.661,0.000,0.000,0.0,0.0,GPS,17,6466601.1967,17019440.0390,19766520.5896,-29703.204,0.000,0.000,0.0,0.0,GPS,11,-17110913.2048,2188533.8371,19608629.0475,-220784.262,0.000,0.000,0.0,0.0,GPS,30,-1145510.3339,25769892.8652,-5958680.1096,22598.627,0.000,0.000,0.0,0.0,GPS,18,-15888060.7328,-3862263.9094,20509926.2017,2289.743,0.000,0.000,0.0,0.0,GPS,22,-21508483.8656,4624867.1633,15124007.4425,-116251.917,0.000,0.000,0.0,0.0*6d9d7eff
#BESTPOSA,USB1_1,0,57.0,FINESTEERING,2000,465213.000,00000000,7145,12778;SOL_COMPUTED,PSRDIFF,36.76832524847,126.93454830495,77.4460,23.3000,WGS84,0.8379,0.6069,1.5158,"0",1.200,0.000,9,8,8,8,0,1a,00,01*4b4a88b2
#BESTXYZA,USB1_1,0,57.0,FINESTEERING,2000,465213.000,00000000,bde7,12778;SOL_COMPUTED,PSRDIFF,-3073918.8145,4088938.1440,3796889.1484,0.9962,1.0542,1.1244,SOL_COMPUTED,PSRDIFF,4.2282e-10,-6.8592e-10,0.0000,0.0011,0.0011,0.0011,"0",0.150,1.200,0.000,9,8,8,8,0,1a,00,01*4b588d52
#RANGEA,USB1_1,0,57.0,FINESTEERING,2000,465214.000,00000000,5103,12778;9,28,0,20495884.431,0.043,-107706597.233268,0.025,587.868,48.6,501.390,18009c04,1,0,21008660.334,0.038,-110401236.270608,0.025,-2143.185,49.6,503.040,08009c24,3,0,21211746.733,0.040,-111468469.046309,0.025,1477.933,49.1,517.500,18009c44,17,0,22684315.664,0.035,-119206869.508879,0.026,2031.425,50.1,504.290,18009c64,11,0,21449958.705,0.039,-112720285.274043,0.025,-2180.769,49.3,500.900,08009c84,30,0,23830721.653,0.127,-125231242.750995,0.037,-2905.812,39.0,423.100,08009ca4,18,0,22509409.190,0.107,-118287724.966023,0.035,-3118.314,40.6,509.000,08009cc4,8,0,24027470.372,0.091,-126265084.034678,0.030,-2468.643,41.9,425.770,18009d04,22,0,21759460.222,0.042,-114346735.765025,0.026,-493.895,48.8,497.160,18009d24*92e13297
#SATXYZ2A,USB1_1,0,57.0,FINESTEERING,2000,465214.000,00000000,7513,12778;8,GPS,28,-8803159.3551,19474539.5498,16420795.8473,214121.865,0.000,0.000,0.0,0.0,GPS,1,-14014443.6778,5792254.1596,21634357.6990,-14089.819,0.000,0.000,0.0,0.0,GPS,3,-22478873.7224,11698008.9514,7841022.6483,20435.663,0.000,0.000,0.0,0.0,GPS,17,6464341.3409,17018578.0997,19768019.6865,-29703.202,0.000,0.000,0.0,0.0,GPS,11,-17112268.1789,2186263.3963,19607709.8870,-220784.264,0.000,0.000,0.0,0.0,GPS,30,-1145936.0800,25769177.2819,-5961705.7543,22598.625,0.000,0.000,0.0,0.0,GPS,18,-15888560.6020,-3864927.8062,20509074.3884,2289.743,0.000,0.000,0.0,0.0,GPS,22,-21507297.7119,4623372.5812,15126187.3519,-116251.920,0.000,0.000,0.0,0.0*850e25a8
#BESTXYZA,USB1_1,0,57.0,FINESTEERING,2000,465214.000,00000000,bde7,12778;SOL_COMPUTED,PSRDIFF,-3073918.8105,4088938.1394,3796889.1412,0.9921,1.0500,1.1198,SOL_COMPUTED,PSRDIFF,0.0000,0.0000,0.0000,0.0011,0.0011,0.0011,"0",0.150,1.000,0.000,9,8,8,8,0,1a,00,01*2264dcd7
#BESTPOSA,USB1_1,0,57.0,FINESTEERING,2000,465214.000,00000000,7145,12778;SOL_COMPUTED,PSRDIFF,36.76832522923,126.93454830030,77.4368,23.3000,WGS84,0.8345,0.6043,1.5097,"0",1.000,0.000,9,8,8,8,0,1a,00,01*d5b45220
#RANGEA,USB1_1,0,58.5,FINESTEERING,2000,465215.000,00000000,5103,12778;9,28,0,20495772.567,0.042,-107706009.418359,0.025,588.482,48.6,502.390,18009c04,1,0,21009068.088,0.038,-110403379.031943,0.025,-2141.915,49.6,504.040,08009c24,3,0,21211465.464,0.040,-111466990.957328,0.024,1478.845,49.0,518.500,18009c44,17,0,22683929.031,0.035,-119204837.721787,0.025,2032.692,50.2,505.290,18009c64,11,0,21450373.610,0.039,-112722465.583812,0.025,-2179.395,49.2,501.900,08009c84,30,0,23831274.562,0.124,-125234148.374877,0.034,-2904.595,39.2,424.100,08009ca4,18,0,22510002.513,0.108,-118290843.013198,0.032,-3117.135,40.5,510.000,08009cc4,8,0,24027939.983,0.090,-126267551.721314,0.030,-2466.844,42.0,426.770,18009d04,22,0,21759554.186,0.041,-114347229.550103,0.026,-493.195,48.8,498.160,18009d24*c5c5e9c2
#SATXYZ2A,USB1_1,0,58.5,FINESTEERING,2000,465215.000,00000000,7513,12778;8,GPS,28,-8804832.5931,19475572.3915,16418593.6705,214121.868,0.000,0.000,0.0,0.0,GPS,1,-14014960.8086,5789520.5565,21634781.1491,-14089.820,0.000,0.000,0.0,0.0,GPS,3,-22478280.4640,11697160.3083,7843987.6104,20435.665,0.000,0.000,0.0,0.0,GPS,17,6462081.2610,17017716.2310,19769518.3774,-29703.200,0.000,0.000,0.0,0.0,GPS,11,-17113623.1922,2183993.1158,19606790.2877,-220784.265,0.000,0.000,0.0,0.0,GPS,30,-1146361.9120,25768461.3442,-5964731.2708,22598.624,0.000,0.000,0.0,0.0,GPS,18,-15889060.5933,-3867591.5653,20508222.1221,2289.743,0.000,0.000,0.0,0.0,GPS,22,-21506111.4400,4621877.7538,15128366.9443,-116251.923,0.000,0.000,0.0,0.0*5b47055a
#BESTPOSA,USB1_1,0,58.5,FINESTEERING,2000,465215.000,00000000,7145,12778;SOL_COMPUTED,PSRDIFF,36.76832522923,126.93454830030,77.4368,23.3000,WGS84,0.8345,0.6043,1.5097,"0",1.400,0.000,9,8,8,8,0,1a,00,01*7a57e854
#BESTXYZA,USB1_1,0,58.5,FINESTEERING,2000,465215.000,00000000,bde7,12778;SOL_COMPUTED,PSRDIFF,-3073918.8105,4088938.1394,3796889.1412,0.9921,1.0500,1.1198,SOL_COMPUTED,PSRDIFF,0.0000,0.0000,0.0000,0.0011,0.0011,0.0011,"0",0.150,1.400,0.000,9,8,8,8,0,1a,00,01*da3001b3
#RANGEA,USB1_1,0,59.0,FINESTEERING,2000,465216.000,00000000,5103,12778;9,28,0,20495660.361,0.042,-107705419.802678,0.026,590.861,48.6,503.390,18009c04,1,0,21009475.456,0.038,-110405519.775397,0.026,-2139.634,49.6,505.040,08009c24,3,0,21211183.869,0.040,-111465511.132884,0.027,1480.807,49.0,519.500,18009c44,17,0,22683541.968,0.035,-119202803.658305,0.027,2035.348,50.1,506.290,18009c64,11,0,21450788.112,0.040,-112724643.809878,0.027,-2177.051,49.2,502.900,08009c84,30,0,23831827.045,0.124,-125237051.791255,0.032,-2902.262,39.3,425.100,08009ca4,18,0,22510595.410,0.112,-118293958.863910,0.072,-3114.912,40.2,511.000,08009cc4,8,0,24028409.178,0.092,-126270017.229726,0.034,-2464.453,41.8,427.770,18009d04,22,0,21759647.826,0.042,-114347721.606747,0.027,-491.188,48.8,499.160,18009d24*ab99467f
#SATXYZ2A,USB1_1,0,59.0,FINESTEERING,2000,465216.000,00000000,7513,12778;8,GPS,28,-8806505.5481,19476605.1843,16416391.1593,214121.870,0.000,0.000,0.0,0.0,GPS,1,-14015478.1098,5786786.9346,21635204.1316,-14089.822,0.000,0.000,0.0,0.0,GPS,3,-22477686.9688,11696311.3910,7846952.4050,20435.667,0.000,0.000,0.0,0.0,GPS,17,6459820.9571,17016854.4329,19771016.6622,-29703.198,0.000,0.000,0.0,0.0,GPS,11,-17114978.2447,2181722.9957,19605870.2496,-220784.267,0.000,0.000,0.0,0.0,GPS,30,-1146787.8299,25767745.0521,-5967756.6592,22598.622,0.000,0.000,0.0,0.0,GPS,18,-15889560.7067,-3870255.1866,20507369.4028,2289.743,0.000,0.000,0.0,0.0,GPS,22,-21504925.0500,4620382.6811,15130546.2198,-116251.927,0.000,0.000,0.0,0.0*132ebaa5
#BESTPOSA,USB1_1,0,59.0,FINESTEERING,2000,465216.000,00000000,7145,12778;SOL_COMPUTED,PSRDIFF,36.76832522923,126.93454830030,77.4368,23.3000,WGS84,0.8345,0.6043,1.5098,"0",1.200,0.000,9,8,8,8,0,1a,00,01*e39a4408
#BESTXYZA,USB1_1,0,59.0,FINESTEERING,2000,465216.000,00000000,bde7,12778;SOL_COMPUTED,PSRDIFF,-3073918.8105,4088938.1394,3796889.1412,0.9921,1.0500,1.1199,SOL_COMPUTED,PSRDIFF,3.9420e-10,-2.5913e-10,0.0000,0.0011,0.0011,0.0011,"0",0.150,1.200,0.000,9,8,8,8,0,1a,00,01*e9278d95
#RANGEA,USB1_1,0,60.0,FINESTEERING,2000,465217.000,00000000,5103,12778;9,28,0,20495548.417,0.042,-107704831.579459,0.031,587.450,48.7,504.390,18009c04,1,0,21009883.042,0.038,-110407661.691354,0.032,-2142.834,49.6,506.040,08009c24,3,0,21210902.555,0.041,-111464032.777043,0.031,1477.355,49.0,520.500,18009c44,17,0,22683155.078,0.036,-119200770.509585,0.031,2032.424,50.1,507.290,18009c64,11,0,21451202.825,0.040,-112726823.130044,0.031,-2180.061,49.1,503.900,08009c84,30,0,23832379.704,0.130,-125239956.176215,0.037,-2904.974,38.8,426.100,08009ca4,18,0,22511188.520,0.115,-118297075.695126,0.053,-3117.422,39.9,512.000,08009cc4,8,0,24028878.553,0.094,-126272483.698291,0.035,-2466.756,41.7,428.770,18009d04,22,0,21759741.737,0.042,-114348215.109334,0.032,-494.360,48.8,500.160,18009d24*c9e93cf4
#SATXYZ2A,USB1_1,0,60.0,FINESTEERING,2000,465217.000,00000000,7513,12778;8,GPS,28,-8808178.2200,19477637.9281,16414188.3140,214121.873,0.000,0.000,0.0,0.0,GPS,1,-14015995.5813,5784053.2938,21635626.6465,-14089.823,0.000,0.000,0.0,0.0,GPS,3,-22477093.2370,11695462.1996,7849917.0319,20435.669,0.000,0.000,0.0,0.0,GPS,17,6457560.4293,17015992.7056,19772514.5410,-29703.195,0.000,0.000,0.0,0.0,GPS,11,-17116333.3364,2179453.0359,19604949.7728,-220784.268,0.000,0.000,0.0,0.0,GPS,30,-1147213.8338,25767028.4055,-5970781.9194,22598.620,0.000,0.000,0.0,0.0,GPS,18,-15890060.9422,-3872918.6701,20506516.2306,2289.744,0.000,0.000,0.0,0.0,GPS,22,-21503738.5420,4618887.3633,15132725.1783,-116251.930,0.000,0.000,0.0,0.0*042a5fba
#BESTPOSA,USB1_1,0,60.0,FINESTEERING,2000,465217.000,00000000,7145,12778;SOL_COMPUTED,PSRDIFF,36.76832520901,126.93454829477,77.4278,23.3000,WGS84,0.8311,0.6018,1.5037,"0",1.000,0.000,9,8,8,8,0,1a,00,01*ce13cc04
#BESTXYZA,USB1_1,0,60.0,FINESTEERING,2000,465217.000,00000000,bde7,12778;SOL_COMPUTED,PSRDIFF,-3073918.8066,4088938.1350,3796889.1340,0.9881,1.0458,1.1154,SOL_COMPUTED,PSRDIFF,0.0000,0.0000,0.0000,0.0011,0.0011,0.0011,"0",0.150,1.000,0.000,9,8,8,8,0,1a,00,01*59d349f0
#RANGEA,USB1_1,0,63.0,FINESTEERING,2000,465218.000,00000000,5103,12778;9,28,0,20495436.960,0.042,-107704245.904288,0.034,587.425,48.7,505.390,18009c04,1,0,21010291.068,0.038,-110409805.920655,0.035,-2142.408,49.6,507.040,08009c24,3,0,21210621.730,0.040,-111462557.014647,0.034,1477.377,49.0,521.500,18009c44,17,0,22682768.584,0.036,-119198739.430802,0.034,2033.187,50.1,508.290,18009c64,11,0,21451617.964,0.040,-112729004.700015,0.034,-2179.574,49.2,504.900,08009c84,30,0,23832932.747,0.131,-125242862.655024,0.090,-2904.329,38.7,427.100,08009ca4,18,0,22511782.041,0.116,-118300194.739064,0.084,-3117.861,39.8,513.000,08009cc4,8,0,24029348.323,0.098,-126274952.319108,0.036,-2466.371,41.3,429.770,18009d04,22,0,21759836.153,0.041,-114348711.233222,0.035,-494.274,48.8,501.160,18009d24*80bd8333
#SATXYZ2A,USB1_1,0,63.0,FINESTEERING,2000,465218.000,00000000,7513,12778;8,GPS,28,-8809850.6088,19478670.6228,16411985.1343,214121.875,0.000,0.000,0.0,0.0,GPS,1,-14016513.2231,5781319.6343,21636048.6937,-14089.825,0.000,0.000,0.0,0.0,GPS,3,-22476499.2684,11694612.7339,7852881.4912,20435.671,0.000,0.000,0.0,0.0,GPS,17,6455299.6775,17015131.0490,19774012.0136,-29703.193,0.000,0.000,0.0,0.0,GPS,11,-17117688.4672,2177183.2367,19604028.8574,-220784.270,0.000,0.000,0.0,0.0,GPS,30,-1147639.9236,25766311.4046,-5973807.0513,22598.619,0.000,0.000,0.0,0.0,GPS,18,-15890561.2997,-3875582.0157,20505662.6054,2289.744,0.000,0.000,0.0,0.0,GPS,22,-21502551.9160,4617391.8002,15134903.8198,-116251.934,0.000,0.000,0.0,0.0*0ff5c369
#BESTPOSA,USB1_1,0,63.0,FINESTEERING,2000,465218.000,00000000,7145,12778;SOL_COMPUTED,PSRDIFF,36.76832520901,126.93454829477,77.4278,23.3000,WGS84,0.8311,0.6018,1.5038,"0",1.400,0.000,9,8,8,8,0,1a,00,01*ed44e04f
#BESTXYZA,USB1_1,0,63.0,FINESTEERING,2000,465218.000,00000000,bde7,12778;SOL_COMPUTED,PSRDIFF,-3073918.8066,4088938.1350,3796889.1340,0.9881,1.0458,1.1154,SOL_COMPUTED,PSRDIFF,8.7724e-10,-5.0701e-10,0.0000,0.0011,0.0011,0.0011,"0",0.150,1.400,0.000,9,8,8,8,0,1a,00,01*007c1853
#RANGEA,USB1_1,0,62.5,FINESTEERING,2000,465219.000,00000000,5103,12778;9,28,0,20495325.375,0.042,-107703659.568784,0.035,587.426,48.8,506.390,18009c04,1,0,21010698.932,0.038,-110411949.279754,0.035,-2141.795,49.7,508.040,08009c24,3,0,21210340.802,0.040,-111461080.687816,0.035,1477.752,49.0,522.500,18009c44,17,0,22682381.868,0.036,-119196707.232152,0.035,2033.724,50.1,509.290,18009c64,11,0,21452032.927,0.039,-112731185.336047,0.035,-2179.147,49.3,505.900,08009c84,30,0,23833485.611,0.125,-125245768.060809,0.064,-2904.492,39.2,428.100,08009ca4,18,0,22512375.352,0.112,-118303312.694640,0.115,-3116.369,40.1,514.000,08009cc4,8,0,24029817.916,0.095,-126277419.917371,0.104,-2465.776,41.6,430.770,18009d04,22,0,21759930.451,0.041,-114349206.787366,0.035,-494.227,48.8,502.160,18009d24*52025b54
#SATXYZ2A,USB1_1,0,62.5,FINESTEERING,2000,465219.000,00000000,7513,12778;8,GPS,28,-8811522.7145,19479703.2684,16409781.6205,214121.877,0.000,0.000,0.0,0.0,GPS,1,-14017031.0353,5778585.9560,21636470.2733,-14089.826,0.000,0.000,0.0,0.0,GPS,3,-22475905.0633,11693762.9940,7855845.7827,20435.673,0.000,0.000,0.0,0.0,GPS,17,6453038.7018,17014269.4633,19775509.0802,-29703.191,0.000,0.000,0.0,0.0,GPS,11,-17119043.6371,2174913.5980,19603107.5032,-220784.271,0.000,0.000,0.0,0.0,GPS,30,-1148066.0995,25765594.0493,-5976832.0548,22598.617,0.000,0.000,0.0,0.0,GPS,18,-15891061.7793,-3878245.2233,20504808.5273,2289.744,0.000,0.000,0.0,0.0,GPS,22,-21501365.1721,4615895.9918,15137082.1442,-116251.937,0.000,0.000,0.0,0.0*edb2516c
#BESTPOSA,USB1_1,0,62.5,FINESTEERING,2000,465219.000,00000000,7145,12778;SOL_COMPUTED,PSRDIFF,36.76832518693,126.93454828819,77.4183,23.3000,WGS84,0.8277,0.5992,1.4978,"0",1.200,0.000,9,8,8,8,0,1a,00,01*3c007f1d
#BESTXYZA,USB1_1,0,62.5,FINESTEERING,2000,465219.000,00000000,bde7,12778;SOL_COMPUTED,PSRDIFF,-3073918.8024,4088938.1304,3796889.1263,0.9841,1.0417,1.1109,SOL_COMPUTED,PSRDIFF,0.0000,0.0000,0.0000,0.0011,0.0011,0.0011,"0",0.150,1.200,0.000,9,8,8,8,0,1a,00,01*fff3fb1c
#RANGEA,USB1_1,0,59.0,FINESTEERING,2000,465220.000,00000000,5103,12778;9,28,0,20495214.109,0.042,-107703074.908025,0.034,586.677,48.8,507.390,18009c04,1,0,21011107.069,0.038,-110414094.070483,0.034,-2142.635,49.6,509.040,08009c24,3,0,21210060.193,0.040,-111459606.068887,0.034,1476.581,49.1,523.500,18009c44,17,0,22681995.376,0.036,-119194676.189311,0.035,2033.276,50.0,510.290,18009c64,11,0,21452448.143,0.039,-112733367.323142,0.034,-2179.703,49.2,506.900,08009c84,30,0,23834038.690,0.121,-125248674.650569,0.104,-2904.277,39.5,429.100,08009ca4,18,0,22512968.888,0.108,-118306431.913359,0.076,-3116.849,40.4,515.000,08009cc4,8,0,24030287.726,0.096,-126279888.747752,0.069,-2466.390,41.5,431.770,18009d04,22,0,21760025.079,0.041,-114349704.040795,0.034,-495.107,48.9,503.160,18009d24*33f6a08b
#SATXYZ2A,USB1_1,0,59.0,FINESTEERING,2000,465220.000,00000000,7513,12778;8,GPS,28,-8813194.5370,19480735.8649,16407577.7726,214121.880,0.000,0.000,0.0,0.0,GPS,1,-14017549.0178,5775852.2592,21636891.3853,-14089.827,0.000,0.000,0.0,0.0,GPS,3,-22475310.6216,11692912.9799,7858809.9064,20435.675,0.000,0.000,0.0,0.0,GPS,17,6450777.5022,17013407.9484,19777005.7405,-29703.189,0.000,0.000,0.0,0.0,GPS,11,-17120398.8461,2172644.1198,19602185.7105,-220784.273,0.000,0.000,0.0,0.0,GPS,30,-1148492.3615,25764876.3397,-5979856.9299,22598.616,0.000,0.000,0.0,0.0,GPS,18,-15891562.3808,-3880908.2929,20503953.9963,2289.744,0.000,0.000,0.0,0.0,GPS,22,-21500178.3103,4614399.9383,15139260.1514,-116251.940,0.000,0.000,0.0,0.0*3dc0f86d
#BESTPOSA,USB1_1,0,59.0,FINESTEERING,2000,465220.000,00000000,7145,12778;SOL_COMPUTED,PSRDIFF,36.76832518693,126.93454828819,77.4183,23.3000,WGS84,0.8277,0.5992,1.4978,"0",1.000,0.000,9,8,8,8,0,1a,00,01*acc45582
#BESTXYZA,USB1_1,0,59.0,FINESTEERING,2000,465220.000,00000000,bde7,12778;SOL_COMPUTED,PSRDIFF,-3073918.8024,4088938.1304,3796889.1263,0.9841,1.0417,1.1109,SOL_COMPUTED,PSRDIFF,0.0000,-6.1546e-10,0.0000,0.0011,0.0011,0.0011,"0",0.150,1.000,0.000,9,8,8,8,0,1a,00,01*af66b8ce
#RANGEA,USB1_1,0,56.5,FINESTEERING,2000,465221.000,00000000,5103,12778;9,28,0,20495102.867,0.042,-107702490.341401,0.031,587.870,48.8,508.390,18009c04,1,0,21011515.184,0.038,-110416238.747125,0.030,-2141.607,49.6,510.040,08009c24,3,0,21209779.616,0.040,-111458131.604413,0.030,1477.559,49.0,524.500,18009c44,17,0,22681608.807,0.036,-119192644.782588,0.030,2034.769,50.1,511.290,18009c64,11,0,21452863.323,0.040,-112735549.117780,0.030,-2178.538,49.1,507.900,08009c84,30,0,23834591.686,0.119,-125251580.936797,0.068,-2903.007,39.7,430.100,08009ca4,18,0,22513562.385,0.104,-118309550.854312,0.053,-3115.740,40.8,516.000,08009cc4,8,0,24030757.465,0.099,-126282357.270161,0.050,-2465.523,41.2,432.770,18009d04,22,0,21760119.737,0.041,-114350201.487405,0.030,-494.460,48.8,504.160,18009d24*edc1b89c
#SATXYZ2A,USB1_1,0,56.5,FINESTEERING,2000,465221.000,00000000,7513,12778;8,GPS,28,-8814866.0764,19481768.4122,16405373.5905,214121.882,0.000,0.000,0.0,0.0,GPS,1,-14018067.1705,5773118.5438,21637312.0295,-14089.829,0.000,0.000,0.0,0.0,GPS,3,-22474715.9434,11692062.6915,7861773.8622,20435.677,0.000,0.000,0.0,0.0,GPS,17,6448516.0789,17012546.5044,19778501.9947,-29703.187,0.000,0.000,0.0,0.0,GPS,11,-17121754.0940,2170374.8022,19601263.4790,-220784.274,0.000,0.000,0.0,0.0,GPS,30,-1148918.7097,25764158.2758,-5982881.6765,22598.614,0.000,0.000,0.0,0.0,GPS,18,-15892063.1042,-3883571.2245,20503099.0124,2289.744,0.000,0.000,0.0,0.0,GPS,22,-21498991.3306,4612903.6395,15141437.8415,-116251.944,0.000,0.000,0.0,0.0*7d7bfaa7
#BESTPOSA,USB1_1,0,56.5,FINESTEERING,2000,465221.000,00000000,7145,12778;SOL_COMPUTED,PSRDIFF,36.76832518693,126.93454828819,77.4183,23.3000,WGS84,0.8277,0.5993,1.4978,"0",1.400,0.000,9,8,8,8,0,1a,00,01*4434190d
#BESTXYZA,USB1_1,0,56.5,FINESTEERING,2000,465221.000,00000000,bde7,12778;SOL_COMPUTED,PSRDIFF,-3073918.8024,4088938.1304,3796889.1263,0.9841,1.0417,1.1109,SOL_COMPUTED,PSRDIFF,5.3717e-10,-1.2087e-10,0.0000,0.0011,0.0011,0.0011,"0",0.150,1.400,0.000,9,8,8,8,0,1a,00,01*132a6291
#RANGEA,USB1_1,0,56.5,FINESTEERING,2000,465222.000,00000000,5103,12778;9,28,0,20494991.525,0.042,-107701905.264363,0.038,585.248,48.8,509.390,18009c04,1,0,21011923.163,0.037,-110418382.686465,0.038,-2144.042,49.7,511.040,08009c24,3,0,21209498.965,0.040,-111456656.720700,0.038,1474.686,49.1,525.500,18009c44,17,0,22681222.052,0.036,-119190612.383523,0.039,2032.711,49.9,512.290,18009c64,11,0,21453278.353,0.040,-112737730.119870,0.038,-2181.018,49.2,508.900,08009c84,30,0,23835144.519,0.111,-125254486.257722,0.075,-2905.034,40.2,431.100,08009ca4,18,0,22514155.724,0.105,-118312668.899352,0.123,-3118.829,40.7,517.000,08009cc4,8,0,24031227.049,0.106,-126284824.903209,0.102,-2468.002,40.6,433.770,18009d04,22,0,21760214.316,0.041,-114350698.486319,0.102,-497.448,48.9,505.160,18009d24*797ea5b5
#SATXYZ2A,USB1_1,0,56.5,FINESTEERING,2000,465222.000,00000000,7513,12778;8,GPS,28,-8816537.3326,19482800.9101,16403169.0744,214121.885,0.000,0.000,0.0,0.0,GPS,1,-14018585.4936,5770384.8100,21637732.2061,-14089.830,0.000,0.000,0.0,0.0,GPS,3,-22474121.0287,11691212.1288,7864737.6500,20435.679,0.000,0.000,0.0,0.0,GPS,17,6446254.4318,17011685.1313,19779997.8427,-29703.184,0.000,0.000,0.0,0.0,GPS,11,-17123109.3809,2168105.6453,19600340.8090,-220784.276,0.000,0.000,0.0,0.0,GPS,30,-1149345.1440,25763439.8576,-5985906.2946,22598.612,0.000,0.000,0.0,0.0,GPS,18,-15892563.9496,-3886234.0178,20502243.5757,2289.744,0.000,0.000,0.0,0.0,GPS,22,-21497804.2333,4611407.0955,15143615.2143,-116251.947,0.000,0.000,0.0,0.0*1b3829eb
#BESTPOSA,USB1_1,0,56.5,FINESTEERING,2000,465222.000,00000000,7145,12778;SOL_COMPUTED,PSRDIFF,36.76832516358,126.93454827973,77.4085,23.3000,WGS84,0.8244,0.5968,1.4920,"0",1.200,0.000,9,8,8,8,0,1a,00,01*9738300b
#BESTXYZA,USB1_1,0,56.5,FINESTEERING,2000,465222.000,00000000,bde7,12778;SOL_COMPUTED,PSRDIFF,-3073918.7980,4088938.1258,3796889.1184,0.9801,1.0376,1.1065,SOL_COMPUTED,PSRDIFF,0.0000,-2.4996e-10,0.0000,0.0011,0.0011,0.0011,"0",0.150,1.200,0.000,9,8,8,8,0,1a,00,01*c0ad8a90
#RANGEA,USB1_1,0,57.5,FINESTEERING,2000,465223.000,00000000,5103,12778;9,28,0,20494880.341,0.041,-107701320.995505,0.035,587.453,48.9,510.390,18009c04,1,0,21012331.243,0.037,-110420527.196738,0.036,-2141.623,49.7,512.040,08009c24,3,0,21209218.471,0.040,-111455182.692494,0.036,1476.940,49.1,526.500,18009c44,17,0,22680835.365,0.036,-119188580.308667,0.036,2035.484,49.9,513.290,18009c64,11,0,21453693.480,0.039,-112739911.614947,0.036,-2178.480,49.3,509.900,08009c84,30,0,23835697.431,0.115,-125257391.955174,0.055,-2902.152,39.9,432.100,08009ca4,18,0,22514749.101,0.105,-118315787.312468,0.081,-3115.379,40.7,518.000,08009cc4,8,0,24031696.720,0.108,-126287292.898770,0.075,-2465.273,40.4,434.770,18009d04,22,0,21760309.044,0.041,-114351196.340295,0.067,-495.053,48.8,506.160,18009d24*4ca7d866
#SATXYZ2A,USB1_1,0,57.5,FINESTEERING,2000,465223.000,00000000,7513,12778;8,GPS,28,-8818208.3056,19483833.3588,16400964.2242,214121.887,0.000,0.000,0.0,0.0,GPS,1,-14019103.9870,5767651.0577,21638151.9151,-14089.831,0.000,0.000,0.0,0.0,GPS,3,-22473525.8776,11690361.2918,7867701.2699,20435.681,0.000,0.000,0.0,0.0,GPS,17,6443992.5610,17010823.8293,19781493.2844,-29703.182,0.000,0.000,0.0,0.0,GPS,11,-17124464.7067,2165836.6490,19599417.7003,-220784.277,0.000,0.000,0.0,0.0,GPS,30,-1149771.6645,25762721.0851,-5988930.7840,22598.611,0.000,0.000,0.0,0.0,GPS,18,-15893064.9169,-3888896.6730,20501387.6862,2289.745,0.000,0.000,0.0,0.0,GPS,22,-21496617.0182,4609910.3062,15145792.2699,-116251.950,0.000,0.000,0.0,0.0*386d198e
#BESTPOSA,USB1_1,0,57.5,FINESTEERING,2000,465223.000,00000000,7145,12778;SOL_COMPUTED,PSRDIFF,36.76832516358,126.93454827973,77.4085,23.3000,WGS84,0.8244,0.5968,1.4920,"0",1.000,0.000,9,8,8,8,0,1a,00,01*386982e4
#BESTXYZA,USB1_1,0,57.5,FINESTEERING,2000,465223.000,00000000,bde7,12778;SOL_COMPUTED,PSRDIFF,-3073918.7980,4088938.1258,3796889.1184,0.9801,1.0376,1.1065,SOL_COMPUTED,PSRDIFF,0.0000,-6.5085e-11,0.0000,0.0011,0.0011,0.0011,"0",0.150,1.000,0.000,9,8,8,8,0,1a,00,01*aad0ee6b
#RANGEA,USB1_1,0,57.5,FINESTEERING,2000,465224.000,00000000,5103,12778;9,28,0,20494769.523,0.041,-107700738.672234,0.036,581.947,48.9,511.390,18009c04,1,0,21012739.659,0.037,-110422673.444577,0.037,-2146.479,49.7,513.040,08009c24,3,0,21208938.354,0.040,-111453710.678986,0.037,1471.629,49.0,527.500,18009c44,17,0,22680448.952,0.037,-119186549.707011,0.037,2030.475,49.9,514.290,18009c64,11,0,21454108.924,0.040,-112742094.772490,0.037,-2183.349,49.2,510.900,08009c84,30,0,23836250.660,0.107,-125260299.163199,0.071,-2907.473,40.6,433.100,08009ca4,18,0,22515342.799,0.104,-118318907.278979,0.074,-3119.879,40.8,519.000,08009cc4,8,0,24032166.662,0.120,-126289762.444041,0.055,-2469.682,39.6,435.770,18009d04,22,0,21760404.169,0.042,-114351696.223323,0.050,-500.296,48.7,507.160,18009d24*eb446c71
#SATXYZ2A,USB1_1,0,57.5,FINESTEERING,2000,465224.000,00000000,7513,12778;8,GPS,28,-8819878.9954,19484865.7580,16398759.0401,214121.890,0.000,0.000,0.0,0.0,GPS,1,-14019622.6507,5764917.2871,21638571.1563,-14089.833,0.000,0.000,0.0,0.0,GPS,3,-22472930.4901,11689510.1805,7870664.7217,20435.684,0.000,0.000,0.0,0.0,GPS,17,6441730.4665,17009962.5983,19782988.3199,-29703.180,0.000,0.000,0.0,0.0,GPS,11,-17125820.0713,2163567.8135,19598494.1531,-220784.279,0.000,0.000,0.0,0.0,GPS,30,-1150198.2713,25762001.9584,-5991955.1448,22598.609,0.000,0.000,0.0,0.0,GPS,18,-15893566.0061,-3891559.1899,20500531.3438,2289.745,0.000,0.000,0.0,0.0,GPS,22,-21495429.6855,4608413.2718,15147969.0082,-116251.954,0.000,0.000,0.0,0.0*925e0f40
#BESTPOSA,USB1_1,0,57.5,FINESTEERING,2000,465224.000,00000000,7145,12778;SOL_COMPUTED,PSRDIFF,36.76832514163,126.93454827051,77.3983,23.3000,WGS84,0.8211,0.5943,1.4862,"0",1.400,0.000,9,8,8,8,0,1a,00,01*4d1a379b
#BESTXYZA,USB1_1,0,57.5,FINESTEERING,2000,465224.000,00000000,bde7,12778;SOL_COMPUTED,PSRDIFF,-3073918.7933,4088938.1210,3796889.1103,0.9762,1.0336,1.1022,SOL_COMPUTED,PSRDIFF,0.0000,0.0000,0.0000,0.0011,0.0011,0.0011,"0",0.150,1.400,0.000,9,8,8,8,0,1a,00,01*c096c0b1
#RANGEA,USB1_1,0,57.5,FINESTEERING,2000,465225.000,00000000,5103,12778;9,28,0,20494658.891,0.041,-107700157.300883,0.031,583.008,48.9,512.390,18009c04,1,0,21013148.212,0.037,-110424820.409533,0.031,-2145.501,49.7,514.040,08009c24,3,0,21208658.439,0.040,-111452239.688113,0.030,1472.280,49.1,528.500,18009c44,17,0,22680062.626,0.037,-119184519.563145,0.031,2031.971,49.8,515.290,18009c64,11,0,21454524.485,0.040,-112744278.584555,0.030,-2182.359,49.1,511.900,08009c84,30,0,23836803.961,0.106,-125263206.840367,0.050,-2905.594,40.7,434.100,08009ca4,18,0,22515936.611,0.108,-118322027.865855,0.051,-3119.114,40.5,520.000,08009cc4,8,0,24032636.692,0.125,-126292232.434592,0.102,-2467.680,39.2,436.770,18009d04,22,0,21760499.480,0.042,-114352197.103280,0.037,-499.441,48.8,508.160,18009d24*da6974e2
#SATXYZ2A,USB1_1,0,57.5,FINESTEERING,2000,465225.000,00000000,7513,12778;8,GPS,28,-8821549.4019,19485898.1078,16396553.5221,214121.892,0.000,0.000,0.0,0.0,GPS,1,-14020141.4847,5762183.4983,21638989.9299,-14089.834,0.000,0.000,0.0,0.0,GPS,3,-22472334.8663,11688658.7948,7873628.0053,20435.686,0.000,0.000,0.0,0.0,GPS,17,6439468.1484,17009101.4383,19784482.9490,-29703.178,0.000,0.000,0.0,0.0,GPS,11,-17127175.4748,2161299.1387,19597570.1674,-220784.280,0.000,0.000,0.0,0.0,GPS,30,-1150624.9644,25761282.4775,-5994979.3768,22598.608,0.000,0.000,0.0,0.0,GPS,18,-15894067.2171,-3894221.5685,20499674.5487,2289.745,0.000,0.000,0.0,0.0,GPS,22,-21494242.2351,4606915.9922,15150145.4291,-116251.957,0.000,0.000,0.0,0.0*0700067a
#BESTPOSA,USB1_1,0,57.5,FINESTEERING,2000,465225.000,00000000,7145,12778;SOL_COMPUTED,PSRDIFF,36.76832514163,126.93454827051,77.3983,23.3000,WGS84,0.8211,0.5943,1.4862,"0",1.200,0.000,9,8,8,8,0,1a,00,01*a27819c5
#BESTXYZA,USB1_1,0,57.5,FINESTEERING,2000,465225.000,00000000,bde7,12778;SOL_COMPUTED,PSRDIFF,-3073918.7933,4088938.1210,3796889.1103,0.9762,1.0336,1.1022,SOL_COMPUTED,PSRDIFF,0.0000,-3.6301e-10,0.0000,0.0011,0.0011,0.0011,"0",0.150,1.200,0.000,9,8,8,8,0,1a,00,01*18d1e7dd
#RANGEA,USB1_1,0,57.5,FINESTEERING,2000,465226.000,00000000,5103,12778;9,28,0,20494547.946,0.041,-107699574.308490,0.033,583.056,48.8,513.390,18009c04,1,0,21013556.410,0.038,-110426965.519051,0.034,-2144.695,49.6,515.040,08009c24,3,0,21208378.221,0.040,-111450767.132518,0.034,1472.743,49.0,529.500,18009c44,17,0,22679675.911,0.037,-119182487.331694,0.033,2032.609,49.8,516.290,18009c64,11,0,21454939.684,0.040,-112746460.479276,0.033,-2181.633,49.1,512.900,08009c84,30,0,23837356.895,0.103,-125266112.525082,0.089,-2905.473,40.8,435.100,08009ca4,18,0,22516530.039,0.101,-118325146.425464,0.083,-3118.607,41.1,521.000,08009cc4,8,0,24033106.372,0.126,-126294700.612714,0.084,-2468.590,39.1,437.770,18009d04,22,0,21760594.493,0.043,-114352696.449065,0.036,-499.220,48.6,509.160,18009d24*32618078
#SATXYZ2A,USB1_1,0,57.5,FINESTEERING,2000,465226.000,00000000,7513,12778;8,GPS,28,-8823219.5252,19486930.4080,16394347.6701,214121.895,0.000,0.000,0.0,0.0,GPS,1,-14020660.4890,5759449.6912,21639408.2358,-14089.836,0.000,0.000,0.0,0.0,GPS,3,-22471739.0063,11687807.1348,7876591.1208,20435.688,0.000,0.000,0.0,0.0,GPS,17,6437205.6068,17008240.3495,19785977.1718,-29703.175,0.000,0.000,0.0,0.0,GPS,11,-17128530.9170,2159030.6248,19596645.7431,-220784.282,0.000,0.000,0.0,0.0,GPS,30,-1151051.7439,25760562.6424,-5998003.4800,22598.606,0.000,0.000,0.0,0.0,GPS,18,-15894568.5500,-3896883.8087,20498817.3008,2289.745,0.000,0.000,0.0,0.0,GPS,22,-21493054.6673,4605418.4674,15152321.5326,-116251.961,0.000,0.000,0.0,0.0*856a8f83
#BESTPOSA,USB1_1,0,57.5,FINESTEERING,2000,465226.000,00000000,7145,12778;SOL_COMPUTED,PSRDIFF,36.76832514163,126.93454827051,77.3983,23.3000,WGS84,0.8211,0.5943,1.4862,"0",1.000,0.000,9,8,8,8,0,1a,00,01*4500858e
#BESTXYZA,USB1_1,0,57.5,FINESTEERING,2000,465226.000,00000000,bde7,12778;SOL_COMPUTED,PSRDIFF,-3073918.7933,4088938.1210,3796889.1103,0.9762,1.0336,1.1022,SOL_COMPUTED,PSRDIFF,6.1793e-10,-9.4523e-11,0.0000,0.0011,0.0011,0.0011,"0",0.150,1.000,0.000,9,8,8,8,0,1a,00,01*8b773890
#RANGEA,USB1_1,0,61.0,FINESTEERING,2000,465227.000,00000000,5103,12778;9,28,0,20494437.555,0.041,-107698994.216155,0.028,576.032,48.8,514.390,18009c04,1,0,21013965.113,0.038,-110429113.314669,0.028,-2151.471,49.6,516.040,08009c24,3,0,21208098.572,0.041,-111449297.539822,0.028,1465.846,49.0,530.500,18009c44,17,0,22679289.650,0.037,-119180457.514352,0.028,2026.119,49.8,517.290,18009c64,11,0,21455355.376,0.040,-112748644.974809,0.028,-2188.231,49.2,513.900,08009c84,30,0,23837910.307,0.101,-125269020.664367,0.059,-2912.203,41.0,436.100,08009ca4,18,0,22517123.931,0.100,-118328267.490994,0.055,-3125.094,41.2,522.000,08009cc4,8,0,24033576.508,0.138,-126297171.143523,0.057,-2473.578,38.3,438.770,18009d04,22,0,21760690.067,0.042,-114353198.741593,0.029,-506.170,48.7,510.160,18009d24*60890720
#SATXYZ2A,USB1_1,0,61.0,FINESTEERING,2000,465227.000,00000000,7513,12778;8,GPS,28,-8824889.3653,19487962.6587,16392141.4843,214121.897,0.000,0.000,0.0,0.0,GPS,1,-14021179.6636,5756715.8660,21639826.0740,-14089.837,0.000,0.000,0.0,0.0,GPS,3,-22471142.9100,11686955.2003,7879554.0680,20435.690,0.000,0.000,0.0,0.0,GPS,17,6434942.8416,17007379.3319,19787470.9883,-29703.173,0.000,0.000,0.0,0.0,GPS,11,-17129886.3979,2156762.2717,19595720.8803,-220784.283,0.000,0.000,0.0,0.0,GPS,30,-1151478.6097,25759842.4532,-6001027.4544,22598.605,0.000,0.000,0.0,0.0,GPS,18,-15895070.0046,-3899545.9104,20497959.6001,2289.745,0.000,0.000,0.0,0.0,GPS,22,-21491866.9819,4603920.6975,15154497.3187,-116251.964,0.000,0.000,0.0,0.0*af5cac8a
#BESTPOSA,USB1_1,0,61.0,FINESTEERING,2000,465227.000,00000000,7145,12778;SOL_COMPUTED,PSRDIFF,36.76832512193,126.93454826223,77.3882,23.3000,WGS84,0.8178,0.5919,1.4804,"0",1.400,0.000,9,8,8,8,0,1a,00,01*469deff1
#BESTXYZA,USB1_1,0,61.0,FINESTEERING,2000,465227.000,00000000,bde7,12778;SOL_COMPUTED,PSRDIFF,-3073918.7887,4088938.1160,3796889.1025,0.9723,1.0296,1.0979,SOL_COMPUTED,PSRDIFF,0.0000,0.0000,0.0000,0.0011,0.0011,0.0011,"0",0.150,1.400,0.000,9,8,8,8,0,1a,00,01*1cb8f89a
#RANGEA,USB1_1,0,62.0,FINESTEERING,2000,465228.000,00000000,5103,12778;9,28,0,20494326.847,0.041,-107698412.472752,0.031,582.655,48.9,515.390,18009c04,1,0,21014373.464,0.038,-110431259.210402,0.031,-2145.097,49.6,517.040,08009c24,3,0,21207818.614,0.041,-111447826.351676,0.030,1471.841,49.0,531.500,18009c44,17,0,22678902.982,0.037,-119178425.537421,0.031,2033.201,49.8,518.290,18009c64,11,0,21455770.688,0.039,-112750827.503535,0.030,-2181.618,49.3,514.900,08009c84,30,0,23838463.281,0.099,-125271926.616496,0.046,-2904.644,41.2,437.100,08009ca4,18,0,22517717.435,0.103,-118331386.438872,0.070,-3117.450,40.9,523.000,08009cc4,8,0,24034046.254,0.138,-126299639.602160,0.088,-2467.237,38.3,439.770,18009d04,22,0,21760785.342,0.042,-114353699.443730,0.030,-499.939,48.6,511.160,18009d24*4483bba0
#SATXYZ2A,USB1_1,0,62.0,FINESTEERING,2000,465228.000,00000000,7513,12778;8,GPS,28,-8826558.9220,19488994.8598,16389934.9647,214121.899,0.000,0.000,0.0,0.0,GPS,1,-14021699.0085,5753982.0228,21640243.4444,-14089.838,0.000,0.000,0.0,0.0,GPS,3,-22470546.5776,11686102.9915,7882516.8468,20435.692,0.000,0.000,0.0,0.0,GPS,17,6432679.8529,17006518.3855,19788964.3983,-29703.171,0.000,0.000,0.0,0.0,GPS,11,-17131241.9174,2154494.0795,19594795.5790,-220784.285,0.000,0.000,0.0,0.0,GPS,30,-1151905.5621,25759121.9098,-6004051.2997,22598.603,0.000,0.000,0.0,0.0,GPS,18,-15895571.5810,-3902207.8736,20497101.4467,2289.745,0.000,0.000,0.0,0.0,GPS,22,-21490679.1792,4602422.6823,15156672.7873,-116251.967,0.000,0.000,0.0,0.0*f606e9ac
#BESTPOSA,USB1_1,0,62.0,FINESTEERING,2000,465228.000,00000000,7145,12778;SOL_COMPUTED,PSRDIFF,36.76832505935,126.93454824068,77.3404,23.3000,WGS84,0.7721,0.5661,1.3837,"0",1.200,0.000,9,8,8,8,0,0a,00,01*5c184522
#BESTXYZA,USB1_1,0,62.0,FINESTEERING,2000,465228.000,00000000,bde7,12778;SOL_COMPUTED,PSRDIFF,-3073918.7666,4088938.0899,3796889.0684,0.9129,0.9674,1.0306,SOL_COMPUTED,PSRDIFF,0.0084,-0.0106,-0.0079,0.1972,0.2004,0.2030,"0",0.150,1.200,0.000,9,8,8,8,0,0a,00,01*b88efb62
#RANGEA,USB1_1,0,62.0,FINESTEERING,2000,465229.000,00000000,5103,12778;9,28,0,20494215.449,0.042,-107697827.087811,0.031,587.691,48.8,516.390,18009c04,1,0,21014781.076,0.038,-110433401.281148,0.030,-2139.331,49.6,518.040,08009c24,3,0,21207537.981,0.041,-111446351.627013,0.031,1477.354,48.9,532.500,18009c44,17,0,22678515.528,0.037,-119176389.483353,0.032,2038.717,49.7,519.290,18009c64,11,0,21456185.264,0.040,-112753006.131827,0.031,-2175.852,49.2,515.900,08009c84,30,0,23839015.512,0.097,-125274828.609879,0.037,-2899.411,41.4,438.100,08009ca4,18,0,22518310.166,0.101,-118334501.476357,0.051,-3112.340,41.0,524.000,08009cc4,8,0,24034515.223,0.148,-126302104.003585,0.096,-2460.563,37.8,440.770,18009d04,22,0,21760879.945,0.043,-114354196.600621,0.030,-494.646,48.5,512.160,18009d24*3be3b4f0
#SATXYZ2A,USB1_1,0,62.0,FINESTEERING,2000,465229.000,00000000,7513,12778;8,GPS,28,-8828228.1955,19490027.0111,16387728.1114,214121.902,0.000,0.000,0.0,0.0,GPS,1,-14022218.5236,5751248.1616,21640660.3471,-14089.840,0.000,0.000,0.0,0.0,GPS,3,-22469950.0091,11685250.5082,7885479.4574,20435.694,0.000,0.000,0.0,0.0,GPS,17,6430416.6408,17005657.5103,19790457.4019,-29703.169,0.000,0.000,0.0,0.0,GPS,11,-17132597.4756,2152226.0483,19593869.8393,-220784.286,0.000,0.000,0.0,0.0,GPS,30,-1152332.6009,25758401.0123,-6007075.0162,22598.601,0.000,0.000,0.0,0.0,GPS,18,-15896073.2791,-3904869.6982,20496242.8406,2289.746,0.000,0.000,0.0,0.0,GPS,22,-21489491.2590,4600924.4220,15158847.9383,-116251.971,0.000,0.000,0.0,0.0*e80870e9
#BESTPOSA,USB1_1,0,62.0,FINESTEERING,2000,465229.000,00000000,7145,12778;SOL_COMPUTED,PSRDIFF,36.76832505937,126.93454824076,77.3421,23.3000,WGS84,0.8007,0.5872,1.4337,"0",1.000,0.000,9,8,8,8,0,1a,00,01*f7a81a34
#BESTXYZA,USB1_1,0,62.0,FINESTEERING,2000,465229.000,00000000,bde7,12778;SOL_COMPUTED,PSRDIFF,-3073918.7675,4088938.0910,3796889.0694,0.9464,1.0025,1.0680,SOL_COMPUTED,PSRDIFF,0.0000,0.0000,0.0000,0.0011,0.0011,0.0011,"0",0.150,1.000,0.000,9,8,8,8,0,1a,00,01*1c6af088
