#RANGEA,USB2_1,0,74.5,FINESTEERING,2000,302467.000,00000000,5103,12778;8,9,0,22413612.984,0.058,-117784358.091260,0.029,2297.815,45.8,2428.380,18009c24,3,0,23686186.021,0.097,-124471751.282836,0.033,-3319.273,41.4,2428.380,08009c44,17,0,20502160.971,0.032,-107739581.199727,0.029,-411.351,51.0,2428.370,18009c64,28,0,23895893.631,0.068,-125573764.942200,0.031,-3439.882,44.5,2428.380,18009c84,2,0,23541010.490,1.059,-123708839.047082,0.099,2034.333,34.4,4.110,08009ca4,23,0,23208251.733,0.045,-121960194.514077,0.030,170.963,48.0,2428.360,08009cc4,19,0,20246083.766,0.041,-106393894.846061,0.030,432.556,48.9,2428.350,08009d04,6,0,20781443.189,0.053,-109207220.750499,0.029,784.962,46.7,2428.390,08009d64*4b6573df
#SATXYZ2A,USB2_1,0,74.5,FINESTEERING,2000,302467.000,00000000,7513,12778;8,GPS,9,-25295652.4483,7757901.2868,2372800.2512,153910.717,2.511,4.553,0.0,0.0,GPS,3,-13784435.5012,-7721369.6478,21340869.9908,20072.975,3.257,7.132,0.0,0.0,GPS,17,-16855559.8961,15092138.0197,14194538.6646,-29866.804,1.527,2.538,0.0,0.0,GPS,28,-13261161.1300,19412764.6157,-11781405.6208,213960.750,3.811,10.848,0.0,0.0,GPS,2,10352313.8700,20435893.5704,14208070.2680,36164.219,3.463,5.670,0.0,0.0,GPS,23,-22734341.9274,-2349874.0027,14170739.8338,-65126.465,2.648,4.916,0.0,0.0,GPS,19,-10936714.3463,15519410.8389,18361517.3745,-131215.244,1.513,2.505,0.0,0.0,GPS,6,-3304987.8538,15954402.7463,21003842.9806,121258.877,1.722,2.864,0.0,0.0*dcf07b7b
#BESTPOSA,USB2_1,0,74.5,FINESTEERING,2000,302467.000,00000000,7145,12778;SOL_COMPUTED,SINGLE,36.76859130349,126.93550392336,73.5798,23.3000,WGS84,0.8181,0.7230,1.0609,"",0.000,0.000,8,8,8,8,0,12,00,01*0dcac179
#BESTXYZA,USB2_1,0,74.5,FINESTEERING,2000,302467.000,00000000,bde7,12778;SOL_COMPUTED,SINGLE,-3073974.5309,4088870.2724,3796910.4858,0.8855,0.8458,0.9044,SOL_COMPUTED,SINGLE,0.0000,0.0000,0.0000,0.0011,0.0011,0.0011,"",0.150,0.000,0.000,8,8,8,8,0,12,00,01*8e761267
#RANGEA,USB2_1,0,67.5,FINESTEERING,2000,302468.000,00000000,5103,12778;8,9,0,22413175.900,0.057,-117782061.149947,0.030,2297.590,46.0,2429.380,18009c24,3,0,23686817.841,0.094,-124475071.538028,0.033,-3319.375,41.7,2429.380,08009c44,17,0,20502239.416,0.032,-107739993.480283,0.029,-411.859,51.0,2429.370,18009c64,28,0,23896548.366,0.070,-125577205.654446,0.089,-3440.124,44.3,2429.380,18009c84,2,0,23540622.508,0.870,-123706806.201375,0.094,2034.136,35.4,5.110,08009ca4,23,0,23208219.393,0.045,-121960024.500815,0.030,170.281,48.0,2429.360,08009cc4,19,0,20246001.644,0.041,-106393463.213267,0.030,432.100,48.9,2429.350,08009d04,6,0,20781293.942,0.053,-109206436.480843,0.030,784.749,46.7,2429.390,08009d64*78427387
#SATXYZ2A,USB2_1,0,67.5,FINESTEERING,2000,302468.000,00000000,7513,12778;8,GPS,9,-25295474.3038,7757508.8695,2375938.5351,153910.717,2.511,4.552,0.0,0.0,GPS,3,-13783909.9623,-7724031.7061,21340252.4016,20072.978,3.258,7.134,0.0,0.0,GPS,17,-16857267.7303,15092496.5513,14192049.7368,-29866.802,1.527,2.538,0.0,0.0,GPS,28,-13260929.7472,19411181.8918,-11784126.8910,213960.750,3.812,10.853,0.0,0.0,GPS,2,10350825.7500,20435038.9865,14210454.8647,36164.217,3.462,5.668,0.0,0.0,GPS,23,-22732793.0955,-2350693.3683,14173094.1418,-65126.464,2.648,4.916,0.0,0.0,GPS,19,-10939048.5739,15519889.6446,18359767.8012,-131215.244,1.513,2.505,0.0,0.0,GPS,6,-3307075.4061,15952757.7081,21004767.8784,121258.876,1.721,2.864,0.0,0.0*f725a3c7
#BESTPOSA,USB2_1,0,67.5,FINESTEERING,2000,302468.000,00000000,7145,12778;SOL_COMPUTED,SINGLE,36.76859130349,126.93550392336,73.5798,23.3000,WGS84,0.8174,0.7223,1.0599,"",0.000,0.000,8,8,8,8,0,12,00,01*9096f872
#BESTXYZA,USB2_1,0,67.5,FINESTEERING,2000,302468.000,00000000,bde7,12778;SOL_COMPUTED,SINGLE,-3073974.5309,4088870.2724,3796910.4858,0.8847,0.8451,0.9035,SOL_COMPUTED,SINGLE,0.0000,-8.3868e-10,0.0000,0.0011,0.0011,0.0011,"",0.150,0.000,0.000,8,8,8,8,0,12,00,01*13e8a7d2
#RANGEA,USB2_1,0,67.5,FINESTEERING,2000,302469.000,00000000,5103,12778;8,9,0,22412739.129,0.059,-117779765.880263,0.031,2297.187,45.8,2430.380,18009c24,3,0,23687449.936,0.092,-124478393.222661,0.033,-3319.566,41.8,2430.380,08009c44,17,0,20502318.203,0.032,-107740407.532250,0.031,-412.168,51.0,2430.370,18009c64,28,0,23897203.352,0.068,-125580647.675380,0.060,-3439.886,44.4,2430.380,18009c84,2,0,23540234.998,0.805,-123704774.693368,0.103,2033.679,35.5,6.110,08009ca4,23,0,23208187.391,0.045,-121959856.304509,0.031,170.129,48.0,2430.360,08009cc4,19,0,20245919.862,0.041,-106393033.369532,0.031,431.760,48.9,2430.350,08009d04,6,0,20781144.974,0.054,-109205653.701615,0.031,784.705,46.6,2430.390,08009d64*5f6b5142
#SATXYZ2A,USB2_1,0,67.5,FINESTEERING,2000,302469.000,00000000,7513,12778;8,GPS,9,-25295295.8132,7757116.3024,2379076.7685,153910.717,2.511,4.551,0.0,0.0,GPS,3,-13783384.5915,-7726693.7178,21339634.3580,20072.980,3.258,7.136,0.0,0.0,GPS,17,-16858975.2491,15092855.0965,14189560.5120,-29866.800,1.527,2.538,0.0,0.0,GPS,28,-13260698.3751,19409598.8120,-11786847.9030,213960.750,3.812,10.859,0.0,0.0,GPS,2,10349337.3498,20434184.3126,14212839.1722,36164.215,3.461,5.667,0.0,0.0,GPS,23,-22731244.0381,-2351512.9241,14175448.1592,-65126.463,2.648,4.915,0.0,0.0,GPS,19,-10941382.5532,15520368.5374,18358017.8307,-131215.244,1.513,2.504,0.0,0.0,GPS,6,-3309163.1458,15951112.7208,21005692.3304,121258.876,1.721,2.864,0.0,0.0*640f2911
#BESTPOSA,USB2_1,0,67.5,FINESTEERING,2000,302469.000,00000000,7145,12778;SOL_COMPUTED,SINGLE,36.76859127855,126.93550390678,73.5756,23.3000,WGS84,0.8156,0.7202,1.0581,"",0.000,0.000,8,8,8,8,0,12,00,01*4dc73101
#BESTXYZA,USB2_1,0,67.5,FINESTEERING,2000,302469.000,00000000,bde7,12778;SOL_COMPUTED,SINGLE,-3073974.5286,4088870.2719,3796910.4811,0.8826,0.8433,0.9019,SOL_COMPUTED,SINGLE,0.0000,0.0000,0.0000,0.0011,0.0011,0.0011,"",0.150,0.000,0.000,8,8,8,8,0,12,00,01*f177cdd9
#RANGEA,USB2_1,0,71.0,FINESTEERING,2000,302470.000,00000000,5103,12778;7,9,0,22412302.380,0.057,-117777470.711032,0.033,2293.284,46.0,2431.380,18009c24,3,0,23688081.999,0.095,-124481714.753114,0.034,-3323.220,41.6,2431.380,08009c44,17,0,20502397.038,0.032,-107740821.832625,0.032,-416.307,51.0,2431.370,18009c64,28,0,23897858.305,0.067,-125584089.453831,0.046,-3443.135,44.6,2431.380,18009c84,23,0,23208155.440,0.046,-121959688.370961,0.032,166.044,47.9,2431.360,08009cc4,19,0,20245838.120,0.041,-106392603.774180,0.033,427.741,48.9,2431.350,08009d04,6,0,20780996.002,0.054,-109204870.868739,0.031,780.979,46.5,2431.390,08009d64*4692a47b
#SATXYZ2A,USB2_1,0,71.0,FINESTEERING,2000,302470.000,00000000,7513,12778;7,GPS,9,-25295116.9765,7756723.5857,2382214.9513,153910.717,2.511,4.551,0.0,0.0,GPS,3,-13782859.3888,-7729355.6826,21339015.8602,20072.982,3.258,7.138,0.0,0.0,GPS,17,-16860682.4526,15093213.6553,14187070.9903,-29866.799,1.527,2.539,0.0,0.0,GPS,28,-13260467.0138,19408015.3761,-11789568.6565,213960.750,3.813,10.865,0.0,0.0,GPS,23,-22729694.7552,-2352332.6702,14177801.8860,-65126.461,2.648,4.916,0.0,0.0,GPS,19,-10943716.2842,15520847.5175,18356267.4631,-131215.243,1.513,2.505,0.0,0.0,GPS,6,-3311251.0727,15949467.7844,21006616.3367,121258.875,1.721,2.864,0.0,0.0*20823765
#BESTPOSA,USB2_1,0,71.0,FINESTEERING,2000,302470.000,00000000,7145,12778;SOL_COMPUTED,SINGLE,36.76859127855,126.93550390678,73.5756,23.3000,WGS84,0.8153,0.7199,1.0577,"",0.000,0.000,7,7,7,7,0,12,00,01*672d2310
#BESTXYZA,USB2_1,0,71.0,FINESTEERING,2000,302470.000,00000000,bde7,12778;SOL_COMPUTED,SINGLE,-3073974.5286,4088870.2719,3796910.4811,0.8822,0.8429,0.9015,SOL_COMPUTED,SINGLE,4.0849e-10,1.2712e-10,0.0000,0.0008,0.0008,0.0008,"",0.150,0.000,0.000,7,7,7,7,0,12,00,01*446197f2
#RANGEA,USB2_1,0,62.5,FINESTEERING,2000,302471.000,00000000,5103,12778;7,9,0,22411865.723,0.056,-117775176.024974,0.034,2293.775,46.2,2432.380,18009c24,3,0,23688714.117,0.096,-124485036.502936,0.077,-3322.977,41.5,2432.380,08009c44,17,0,20502475.976,0.032,-107741236.690530,0.033,-416.087,51.1,2432.370,18009c64,28,0,23898513.282,0.070,-125587531.338385,0.039,-3442.982,44.2,2432.380,18009c84,23,0,23208123.611,0.046,-121959521.065556,0.034,166.093,47.9,2432.360,08009cc4,19,0,20245756.497,0.041,-106392174.783042,0.034,427.698,48.9,2432.350,08009d04,6,0,20780847.082,0.054,-109204088.326947,0.034,781.452,46.4,2432.390,08009d64*725bd373
#SATXYZ2A,USB2_1,0,62.5,FINESTEERING,2000,302471.000,00000000,7513,12778;7,GPS,9,-25294937.7936,7756330.7191,2385353.0834,153910.718,2.510,4.551,0.0,0.0,GPS,3,-13782334.3543,-7732017.6007,21338396.9080,20072.984,3.259,7.141,0.0,0.0,GPS,17,-16862389.3407,15093572.2275,14184581.1718,-29866.797,1.527,2.539,0.0,0.0,GPS,28,-13260235.6632,19406431.5843,-11792289.1515,213960.750,3.814,10.872,0.0,0.0,GPS,23,-22728145.2469,-2353152.6066,14180155.3222,-65126.460,2.648,4.916,0.0,0.0,GPS,19,-10946049.7668,15521326.5848,18354516.6983,-131215.243,1.513,2.505,0.0,0.0,GPS,6,-3313339.1869,15947822.8989,21007539.8972,121258.875,1.720,2.864,0.0,0.0*f3d57034
#BESTPOSA,USB2_1,0,62.5,FINESTEERING,2000,302471.000,00000000,7145,12778;SOL_COMPUTED,SINGLE,36.76859126292,126.93550390362,73.5735,23.3000,WGS84,0.8144,0.7194,1.0570,"",0.000,0.000,7,7,7,7,0,12,00,01*f2bc555b
#BESTXYZA,USB2_1,0,62.5,FINESTEERING,2000,302471.000,00000000,bde7,12778;SOL_COMPUTED,SINGLE,-3073974.5280,4088870.2716,3796910.4784,0.8818,0.8420,0.9007,SOL_COMPUTED,SINGLE,0.0000,-6.9667e-10,0.0000,0.0010,0.0010,0.0010,"",0.150,0.000,0.000,7,7,7,7,0,12,00,01*e064df28
#RANGEA,USB2_1,0,62.5,FINESTEERING,2000,302472.000,00000000,5103,12778;8,9,0,22411429.400,0.054,-117772883.129031,0.034,2292.468,46.5,2433.380,18009c24,3,0,23689346.534,0.096,-124488359.804133,0.055,-3323.427,41.5,2433.380,08009c44,17,0,20502555.281,0.032,-107741653.455062,0.033,-417.068,51.1,2433.370,18009c64,28,0,23899168.532,0.070,-125590974.650885,0.111,-3443.379,44.2,2433.380,18009c84,2,0,23539079.342,1.819,-123698712.726701,0.126,2030.670,35.3,1.140,080094a4,23,0,23208092.143,0.046,-121959355.696128,0.034,164.939,47.8,2433.360,08009cc4,19,0,20245675.238,0.041,-106391747.705035,0.034,426.657,48.9,2433.350,08009d04,6,0,20780698.460,0.054,-109203307.397345,0.033,780.779,46.4,2433.390,08009d64*fc3effb5
#SATXYZ2A,USB2_1,0,62.5,FINESTEERING,2000,302472.000,00000000,7513,12778;8,GPS,9,-25294758.2647,7755937.7027,2388491.1648,153910.718,2.510,4.551,0.0,0.0,GPS,3,-13781809.4879,-7734679.4718,21337777.5015,20072.986,3.259,7.144,0.0,0.0,GPS,17,-16864095.9135,15093930.8132,14182091.0565,-29866.796,1.527,2.539,0.0,0.0,GPS,28,-13260004.3236,19404847.4366,-11795009.3880,213960.750,3.814,10.879,0.0,0.0,GPS,2,10344870.4680,20431619.7507,14219990.3591,36164.209,3.459,5.668,0.0,0.0,GPS,23,-22726595.5132,-2353972.7332,14182508.4677,-65126.459,2.648,4.917,0.0,0.0,GPS,19,-10948383.0010,15521805.7391,18352765.5365,-131215.243,1.513,2.505,0.0,0.0,GPS,6,-3315427.4883,15946178.0644,21008463.0119,121258.874,1.720,2.865,0.0,0.0*f9d5432f
#BESTXYZA,USB2_1,0,62.5,FINESTEERING,2000,302472.000,00000000,bde7,12778;SOL_COMPUTED,SINGLE,-3073974.5280,4088870.2716,3796910.4784,0.8818,0.8420,0.9007,SOL_COMPUTED,SINGLE,-2.4801e-10,-1.4847e-10,0.0000,0.0011,0.0011,0.0011,"",0.150,0.000,0.000,8,8,8,8,0,12,00,01*07ac33c5
#BESTPOSA,USB2_1,0,62.5,FINESTEERING,2000,302472.000,00000000,7145,12778;SOL_COMPUTED,SINGLE,36.76859126292,126.93550390362,73.5735,23.3000,WGS84,0.8144,0.7194,1.0570,"",0.000,0.000,8,8,8,8,0,12,00,01*b043559e
#RANGEA,USB2_1,0,66.0,FINESTEERING,2000,302473.000,00000000,5103,12778;8,9,0,22410992.393,0.054,-117770586.683886,0.033,2297.720,46.4,2434.380,18009c24,3,0,23689978.209,0.094,-124491679.260188,0.042,-3317.930,41.7,2434.380,08009c44,17,0,20502633.927,0.032,-107742066.774512,0.032,-412.039,51.1,2434.370,18009c64,28,0,23899823.031,0.073,-125594414.069077,0.072,-3437.876,43.9,2434.380,18009c84,2,0,23538688.856,1.751,-123696678.199773,0.101,2036.008,35.6,2.140,18009ca4,23,0,23208060.030,0.047,-121959186.918586,0.033,170.194,47.7,2434.360,08009cc4,19,0,20245593.328,0.041,-106391317.190421,0.033,431.821,49.0,2434.350,08009d04,6,0,20780549.146,0.054,-109202522.768559,0.033,786.135,46.5,2434.390,08009d64*131cb09e
#SATXYZ2A,USB2_1,0,66.0,FINESTEERING,2000,302473.000,00000000,7513,12778;8,GPS,9,-25294578.3897,7755544.5363,2391629.1954,153910.718,2.510,4.550,0.0,0.0,GPS,3,-13781284.7896,-7737341.2959,21337157.6407,20072.989,3.260,7.146,0.0,0.0,GPS,17,-16865802.1708,15094289.4122,14179600.6445,-29866.794,1.527,2.539,0.0,0.0,GPS,28,-13259772.9948,19403262.9329,-11797729.3659,213960.750,3.815,10.884,0.0,0.0,GPS,2,10343380.9470,20430764.7169,14222373.5093,36164.208,3.458,5.665,0.0,0.0,GPS,23,-22725045.5542,-2354793.0501,14184861.3225,-65126.457,2.648,4.917,0.0,0.0,GPS,19,-10950715.9867,15522284.9805,18351013.9776,-131215.243,1.513,2.505,0.0,0.0,GPS,6,-3317515.9769,15944533.2810,21009385.6808,121258.873,1.720,2.864,0.0,0.0*139dc3bb
#BESTPOSA,USB2_1,0,66.0,FINESTEERING,2000,302473.000,00000000,7145,12778;SOL_COMPUTED,SINGLE,36.76859126292,126.93550390362,73.5735,23.3000,WGS84,0.8144,0.7194,1.0570,"",0.000,0.000,8,8,8,8,0,12,00,01*a3d7789b
#BESTXYZA,USB2_1,0,66.0,FINESTEERING,2000,302473.000,00000000,bde7,12778;SOL_COMPUTED,SINGLE,-3073974.5280,4088870.2716,3796910.4784,0.8818,0.8420,0.9007,SOL_COMPUTED,SINGLE,-6.4660e-11,-3.8707e-11,-7.0912e-10,0.0011,0.0011,0.0011,"",0.150,0.000,0.000,8,8,8,8,0,12,00,01*369a0898
#RANGEA,USB2_1,0,66.0,FINESTEERING,2000,302474.000,00000000,5103,12778;8,9,0,22410555.690,0.055,-117768291.752490,0.077,2292.309,46.3,2435.380,18009c24,3,0,23690610.135,0.096,-124495000.012446,0.038,-3323.394,41.5,2435.380,08009c44,17,0,20502712.888,0.031,-107742481.746972,0.032,-417.961,51.2,2435.370,18009c64,28,0,23900477.752,0.072,-125597854.646636,0.051,-3443.077,43.9,2435.380,18009c84,2,0,23538300.889,1.543,-123694645.355740,0.121,2030.499,35.1,3.140,18009ca4,23,0,23208028.235,0.047,-121959019.844420,0.033,164.134,47.7,2435.360,08009cc4,19,0,20245511.733,0.041,-106390888.356007,0.082,426.307,48.9,2435.350,08009d04,6,0,20780400.072,0.053,-109201739.490226,0.033,780.661,46.7,2435.390,08009d64*805a68ba
#SATXYZ2A,USB2_1,0,66.0,FINESTEERING,2000,302474.000,00000000,7513,12778;8,GPS,9,-25294398.1687,7755151.2201,2394767.1751,153910.718,2.510,4.548,0.0,0.0,GPS,3,-13780760.2594,-7740003.0730,21336537.3257,20072.991,3.260,7.146,0.0,0.0,GPS,17,-16867508.1127,15094648.0245,14177109.9357,-29866.792,1.527,2.538,0.0,0.0,GPS,28,-13259541.6770,19401678.0734,-11800449.0851,213960.750,3.815,10.885,0.0,0.0,GPS,2,10341891.1458,20429909.5933,14224756.3701,36164.206,3.457,5.662,0.0,0.0,GPS,23,-22723495.3699,-2355613.5574,14187213.8866,-65126.456,2.648,4.915,0.0,0.0,GPS,19,-10953048.7239,15522764.3090,18349262.0217,-131215.242,1.513,2.504,0.0,0.0,GPS,6,-3319604.6526,15942888.5487,21010307.9039,121258.873,1.719,2.863,0.0,0.0*73b5b38f
#BESTPOSA,USB2_1,0,66.0,FINESTEERING,2000,302474.000,00000000,7145,12778;SOL_COMPUTED,SINGLE,36.76859124143,126.93550389940,73.5707,23.3000,WGS84,0.8132,0.7181,1.0560,"",0.000,0.000,8,8,8,8,0,12,00,01*87d3b5da
#BESTXYZA,USB2_1,0,66.0,FINESTEERING,2000,302474.000,00000000,bde7,12778;SOL_COMPUTED,SINGLE,-3073974.5272,4088870.2711,3796910.4748,0.8806,0.8409,0.8997,SOL_COMPUTED,SINGLE,0.0000,-6.2059e-10,0.0000,0.0011,0.0011,0.0011,"",0.150,0.000,0.000,8,8,8,8,0,12,00,01*25037774
#RANGEA,USB2_1,0,66.0,FINESTEERING,2000,302475.000,00000000,5103,12778;8,9,0,22410119.465,0.055,-117765999.343970,0.050,2293.659,46.3,2436.380,18009c24,3,0,23691242.493,0.094,-124498323.008166,0.030,-3321.527,41.7,2436.380,08009c44,17,0,20502792.342,0.031,-107742899.312049,0.025,-416.289,51.3,2436.370,18009c64,28,0,23901132.885,0.074,-125601297.371156,0.038,-3441.257,43.7,2436.380,18009c84,2,0,23537915.772,1.367,-123692614.697789,0.111,2031.751,35.1,4.140,18009ca4,23,0,23207996.943,0.046,-121958855.399901,0.026,165.670,47.9,2436.360,08009cc4,19,0,20245430.635,0.040,-106390462.153531,0.052,427.498,49.0,2436.350,08009d04,6,0,20780251.454,0.052,-109200958.528987,0.026,782.354,46.8,2436.390,08009d64*7f3d9189
#SATXYZ2A,USB2_1,0,66.0,FINESTEERING,2000,302475.000,00000000,7513,12778;8,GPS,9,-25294217.6017,7754757.7538,2397905.1039,153910.719,2.509,4.548,0.0,0.0,GPS,3,-13780235.8974,-7742664.8030,21335916.5563,20072.993,3.261,7.150,0.0,0.0,GPS,17,-16869213.7391,15095006.6501,14174618.9303,-29866.791,1.527,2.539,0.0,0.0,GPS,28,-13259310.3702,19400092.8580,-11803168.5456,213960.750,3.816,10.894,0.0,0.0,GPS,2,10340401.0645,20429054.3800,14227138.9414,36164.204,3.456,5.662,0.0,0.0,GPS,23,-22721944.9605,-2356434.2550,14189566.1598,-65126.455,2.648,4.916,0.0,0.0,GPS,19,-10955381.2124,15523243.7244,18347509.6688,-131215.242,1.513,2.504,0.0,0.0,GPS,6,-3321693.5154,15941243.8676,21011229.6811,121258.872,1.719,2.864,0.0,0.0*d6223f58
#BESTPOSA,USB2_1,0,66.0,FINESTEERING,2000,302475.000,00000000,7145,12778;SOL_COMPUTED,SINGLE,36.76859124143,126.93550389940,73.5707,23.3000,WGS84,0.8132,0.7181,1.0560,"",0.000,0.000,8,8,8,8,0,12,00,01*3b251015
#BESTXYZA,USB2_1,0,66.0,FINESTEERING,2000,302475.000,00000000,bde7,12778;SOL_COMPUTED,SINGLE,-3073974.5272,4088870.2711,3796910.4748,0.8806,0.8409,0.8997,SOL_COMPUTED,SINGLE,-2.5909e-10,-1.2220e-10,0.0000,0.0011,0.0011,0.0011,"",0.150,0.000,0.000,8,8,8,8,0,12,00,01*1cd6895f
#RANGEA,USB2_1,0,66.0,FINESTEERING,2000,302476.000,00000000,5103,12778;8,9,0,22409683.448,0.055,-117763707.998208,0.038,2291.290,46.4,2437.380,18009c24,3,0,23691875.027,0.092,-124501646.855532,0.032,-3323.967,41.8,2437.380,08009c44,17,0,20502872.024,0.031,-107743318.086289,0.027,-418.920,51.3,2437.370,18009c64,28,0,23901788.162,0.074,-125604740.849322,0.033,-3443.525,43.7,2437.380,18009c84,2,0,23537530.325,1.219,-123690584.775426,0.092,2029.395,35.3,5.140,18009ca4,23,0,23207965.895,0.046,-121958692.204634,0.028,162.954,47.9,2437.360,08009cc4,19,0,20245349.774,0.041,-106390037.161977,0.039,424.723,49.0,2437.350,08009d04,6,0,20780103.005,0.051,-109200178.507264,0.027,779.882,46.9,2437.390,08009d64*7db5c9c2
#SATXYZ2A,USB2_1,0,66.0,FINESTEERING,2000,302476.000,00000000,7513,12778;8,GPS,9,-25294036.6887,7754364.1376,2401042.9816,153910.719,2.509,4.548,0.0,0.0,GPS,3,-13779711.7035,-7745326.4857,21335295.3328,20072.995,3.261,7.153,0.0,0.0,GPS,17,-16870919.0500,15095365.2889,14172127.6283,-29866.789,1.527,2.540,0.0,0.0,GPS,28,-13259079.0745,19398507.2867,-11805887.7473,213960.750,3.816,10.901,0.0,0.0,GPS,2,10338910.7031,20428199.0769,14229521.2231,36164.202,3.455,5.662,0.0,0.0,GPS,23,-22720394.3258,-2357255.1429,14191918.1421,-65126.453,2.648,4.916,0.0,0.0,GPS,19,-10957713.4524,15523723.2268,18345756.9191,-131215.242,1.513,2.505,0.0,0.0,GPS,6,-3323782.5653,15939599.2376,21012151.0125,121258.872,1.719,2.864,0.0,0.0*5935f3d7
#BESTPOSA,USB2_1,0,66.0,FINESTEERING,2000,302476.000,00000000,7145,12778;SOL_COMPUTED,SINGLE,36.76859121516,126.93550391928,73.5692,23.3000,WGS84,0.8119,0.7165,1.0548,"",0.000,0.000,8,8,8,8,0,12,00,01*6cb56a82
#BESTXYZA,USB2_1,0,66.0,FINESTEERING,2000,302476.000,00000000,bde7,12778;SOL_COMPUTED,SINGLE,-3073974.5290,4088870.2705,3796910.4716,0.8791,0.8396,0.8985,SOL_COMPUTED,SINGLE,0.0000,0.0000,0.0000,0.0011,0.0011,0.0011,"",0.150,0.000,0.000,8,8,8,8,0,12,00,01*b9627f51
#RANGEA,USB2_1,0,69.0,FINESTEERING,2000,302477.000,00000000,5103,12778;8,9,0,22409247.363,0.055,-117761416.259576,0.096,2291.913,46.3,2438.380,18009c24,3,0,23692507.425,0.092,-124504970.040545,0.095,-3322.853,41.9,2438.380,08009c44,17,0,20502951.657,0.031,-107743736.566388,0.031,-418.405,51.3,2438.370,18009c64,28,0,23902443.278,0.080,-125608183.519603,0.105,-3442.218,43.0,2438.380,18009c84,2,0,23537144.743,1.108,-123688554.045914,0.086,2031.611,35.4,6.140,18009ca4,23,0,23207934.794,0.046,-121958528.751170,0.032,163.536,47.8,2438.360,08009cc4,19,0,20245268.860,0.041,-106389611.896008,0.036,425.190,48.9,2438.350,08009d04,6,0,20779954.448,0.052,-109199397.893163,0.032,780.812,46.8,2438.390,08009d64*2a4ec74c
#SATXYZ2A,USB2_1,0,69.0,FINESTEERING,2000,302477.000,00000000,7513,12778;8,GPS,9,-25293855.4298,7753970.3713,2404180.8083,153910.719,2.509,4.547,0.0,0.0,GPS,3,-13779187.6778,-7747988.1213,21334673.6549,20072.997,3.262,7.154,0.0,0.0,GPS,17,-16872624.0453,15095723.9409,14169636.0298,-29866.788,1.527,2.539,0.0,0.0,GPS,28,-13258847.7899,19396921.3597,-11808606.6902,213960.750,3.817,10.905,0.0,0.0,GPS,2,10337420.0615,20427343.6842,14231903.2153,36164.200,3.454,5.660,0.0,0.0,GPS,23,-22718843.4661,-2358076.2213,14194269.8335,-65126.452,2.648,4.916,0.0,0.0,GPS,19,-10960045.4437,15524202.8161,18344003.7724,-131215.241,1.513,2.504,0.0,0.0,GPS,6,-3325871.8021,15937954.6590,21013071.8981,121258.871,1.719,2.864,0.0,0.0*3602aed5
#BESTPOSA,USB2_1,0,69.0,FINESTEERING,2000,302477.000,00000000,7145,12778;SOL_COMPUTED,SINGLE,36.76859121516,126.93550391928,73.5692,23.3000,WGS84,0.8119,0.7165,1.0548,"",0.000,0.000,8,8,8,8,0,12,00,01*e7f98c6e
#BESTXYZA,USB2_1,0,69.0,FINESTEERING,2000,302477.000,00000000,bde7,12778;SOL_COMPUTED,SINGLE,-3073974.5290,4088870.2705,3796910.4716,0.8791,0.8396,0.8985,SOL_COMPUTED,SINGLE,0.0000,0.0000,0.0000,0.0011,0.0011,0.0011,"",0.150,0.000,0.000,8,8,8,8,0,12,00,01*c069377c
#RANGEA,USB2_1,0,67.5,FINESTEERING,2000,302478.000,00000000,5103,12778;8,9,0,22408811.276,0.055,-117759124.525975,0.062,2292.514,46.3,2439.380,18009c24,3,0,23693139.765,0.089,-124508292.957640,0.062,-3321.947,42.1,2439.380,08009c44,17,0,20503031.306,0.031,-107744155.153090,0.028,-418.011,51.4,2439.370,18009c64,28,0,23903098.324,0.086,-125611625.889836,0.068,-3441.480,42.5,2439.380,18009c84,2,0,23536757.606,1.053,-123686523.113221,0.109,2031.803,35.0,7.140,18009ca4,23,0,23207903.727,0.047,-121958365.461341,0.027,163.902,47.7,2439.360,08009cc4,19,0,20245187.967,0.041,-106389186.750943,0.029,425.843,48.9,2439.350,08009d04,6,0,20779805.855,0.052,-109198617.114789,0.028,781.407,46.8,2439.390,08009d64*00371eb4
#SATXYZ2A,USB2_1,0,67.5,FINESTEERING,2000,302478.000,00000000,7513,12778;8,GPS,9,-25293673.8249,7753576.4548,2407318.5839,153910.719,2.508,4.546,0.0,0.0,GPS,3,-13778663.8201,-7750649.7095,21334051.5229,20072.999,3.262,7.156,0.0,0.0,GPS,17,-16874328.7251,15096082.6060,14167144.1348,-29866.786,1.527,2.539,0.0,0.0,GPS,28,-13258616.5165,19395335.0768,-11811325.3741,213960.750,3.818,10.910,0.0,0.0,GPS,2,10335929.1397,20426488.2019,14234284.9179,36164.198,3.453,5.659,0.0,0.0,GPS,23,-22717292.3813,-2358897.4900,14196621.2339,-65126.451,2.648,4.915,0.0,0.0,GPS,19,-10962377.1862,15524682.4922,18342250.2289,-131215.241,1.513,2.504,0.0,0.0,GPS,6,-3327961.2260,15936310.1317,21013992.3377,121258.870,1.718,2.863,0.0,0.0*e1a6c15c
#BESTPOSA,USB2_1,0,67.5,FINESTEERING,2000,302478.000,00000000,7145,12778;SOL_COMPUTED,SINGLE,36.76859121516,126.93550391928,73.5692,23.3000,WGS84,0.8119,0.7165,1.0548,"",0.000,0.000,8,8,8,8,0,12,00,01*0a763136
#BESTXYZA,USB2_1,0,67.5,FINESTEERING,2000,302478.000,00000000,bde7,12778;SOL_COMPUTED,SINGLE,-3073974.5290,4088870.2705,3796910.4716,0.8792,0.8396,0.8985,SOL_COMPUTED,SINGLE,0.0000,-6.7152e-10,0.0000,0.0011,0.0011,0.0011,"",0.150,0.000,0.000,8,8,8,8,0,12,00,01*3c498498
#RANGEA,USB2_1,0,67.5,FINESTEERING,2000,302479.000,00000000,5103,12778;8,9,0,22408375.313,0.057,-117756833.403107,0.044,2289.475,46.1,2440.380,18009c24,3,0,23693772.180,0.089,-124511616.251838,0.045,-3324.929,42.1,2440.380,08009c44,17,0,20503111.099,0.031,-107744574.471457,0.030,-421.077,51.3,2440.370,18009c64,28,0,23903753.428,0.087,-125615068.498839,0.074,-3444.246,42.4,2440.380,18009c84,2,0,23536370.966,0.954,-123684492.345187,0.089,2029.071,35.4,8.140,18009ca4,23,0,23207872.806,0.046,-121958202.934020,0.029,160.853,47.8,2440.360,08009cc4,19,0,20245107.221,0.041,-106388762.348853,0.029,422.762,48.9,2440.350,08009d04,6,0,20779657.343,0.053,-109197836.767726,0.030,778.725,46.7,2440.390,08009d64*c2d7f7c9
#SATXYZ2A,USB2_1,0,67.5,FINESTEERING,2000,302479.000,00000000,7513,12778;8,GPS,9,-25293491.8741,7753182.3882,2410456.3083,153910.720,2.508,4.545,0.0,0.0,GPS,3,-13778140.1307,-7753311.2503,21333428.9367,20073.002,3.263,7.157,0.0,0.0,GPS,17,-16876033.0893,15096441.2841,14164651.9433,-29866.784,1.527,2.539,0.0,0.0,GPS,28,-13258385.2543,19393748.4382,-11814043.7991,213960.750,3.818,10.915,0.0,0.0,GPS,2,10334437.9379,20425632.6301,14236666.3307,36164.196,3.452,5.657,0.0,0.0,GPS,23,-22715741.0715,-2359718.9492,14198972.3434,-65126.449,2.648,4.915,0.0,0.0,GPS,19,-10964708.6800,15525162.2552,18340496.2886,-131215.241,1.513,2.504,0.0,0.0,GPS,6,-3330050.8367,15934665.6557,21014912.3314,121258.870,1.718,2.863,0.0,0.0*42298105
#BESTPOSA,USB2_1,0,67.5,FINESTEERING,2000,302479.000,00000000,7145,12778;SOL_COMPUTED,SINGLE,36.76859118716,126.93550393859,73.5676,23.3000,WGS84,0.8104,0.7147,1.0535,"",0.000,0.000,8,8,8,8,0,12,00,01*44ecf7bb
#BESTXYZA,USB2_1,0,67.5,FINESTEERING,2000,302479.000,00000000,bde7,12778;SOL_COMPUTED,SINGLE,-3073974.5307,4088870.2700,3796910.4682,0.8775,0.8381,0.8973,SOL_COMPUTED,SINGLE,0.0000,0.0000,0.0000,0.0011,0.0011,0.0011,"",0.150,0.000,0.000,8,8,8,8,0,12,00,01*d8c7d560
#RANGEA,USB2_1,0,68.0,FINESTEERING,2000,302480.000,00000000,5103,12778;8,9,0,22407939.549,0.057,-117754543.345162,0.034,2288.657,46.1,2441.380,18009c24,3,0,23694404.745,0.086,-124514940.318574,0.036,-3325.281,42.4,2441.380,08009c44,17,0,20503191.119,0.031,-107744994.965697,0.027,-421.979,51.4,2441.370,18009c64,28,0,23904408.664,0.088,-125618511.779692,0.051,-3444.186,42.2,2441.380,18009c84,2,0,23535984.228,0.874,-123682462.365458,0.101,2028.626,35.6,9.140,18009ca4,23,0,23207842.111,0.046,-121958041.623282,0.027,159.794,47.9,2441.360,08009cc4,19,0,20245026.702,0.042,-106388339.155604,0.028,421.726,48.8,2441.350,08009d04,6,0,20779509.014,0.052,-109197057.334101,0.029,777.991,46.8,2441.390,08009d64*55d6d948
#SATXYZ2A,USB2_1,0,68.0,FINESTEERING,2000,302480.000,00000000,7513,12778;8,GPS,9,-25293309.5774,7752788.1714,2413593.9814,153910.720,2.508,4.544,0.0,0.0,GPS,3,-13777616.6093,-7755972.7437,21332805.8962,20073.004,3.263,7.160,0.0,0.0,GPS,17,-16877737.1378,15096799.9752,14162159.4555,-29866.783,1.527,2.539,0.0,0.0,GPS,28,-13258154.0034,19392161.4438,-11816761.9650,213960.750,3.819,10.921,0.0,0.0,GPS,2,10332946.4560,20424776.9687,14239047.4539,36164.195,3.452,5.657,0.0,0.0,GPS,23,-22714189.5368,-2360540.5988,14201323.1617,-65126.448,2.648,4.915,0.0,0.0,GPS,19,-10967039.9249,15525642.1049,18338741.9515,-131215.241,1.513,2.504,0.0,0.0,GPS,6,-3332140.6344,15933021.2312,21015831.8791,121258.869,1.718,2.863,0.0,0.0*aa49c585
#BESTPOSA,USB2_1,0,68.0,FINESTEERING,2000,302480.000,00000000,7145,12778;SOL_COMPUTED,SINGLE,36.76859118716,126.93550393859,73.5676,23.3000,WGS84,0.8104,0.7147,1.0535,"",0.000,0.000,8,8,8,8,0,12,00,01*200b5060
#BESTXYZA,USB2_1,0,68.0,FINESTEERING,2000,302480.000,00000000,bde7,12778;SOL_COMPUTED,SINGLE,-3073974.5307,4088870.2700,3796910.4682,0.8775,0.8381,0.8973,SOL_COMPUTED,SINGLE,0.0000,0.0000,0.0000,0.0011,0.0011,0.0011,"",0.150,0.000,0.000,8,8,8,8,0,12,00,01*7b25b657
#RANGEA,USB2_1,0,67.0,FINESTEERING,2000,302481.000,00000000,5103,12778;8,9,0,22407503.570,0.056,-117752252.186271,0.036,2291.790,46.2,2442.380,18009c24,3,0,23695037.054,0.087,-124518263.078334,0.037,-3322.066,42.4,2442.380,08009c44,17,0,20503270.951,0.031,-107745414.489980,0.032,-418.906,51.4,2442.370,18009c64,28,0,23905063.608,0.089,-125621953.653519,0.084,-3440.804,42.1,2442.380,18009c84,2,0,23535597.571,0.805,-123680430.819819,0.143,2033.341,35.7,10.140,18009ca4,23,0,23207811.239,0.046,-121957879.363629,0.033,162.759,47.9,2442.360,08009cc4,19,0,20244945.998,0.041,-106387914.991465,0.033,424.816,48.9,2442.350,08009d04,6,0,20779360.423,0.053,-109196276.616053,0.087,781.385,46.6,2442.390,08009d64*758a84b5
#SATXYZ2A,USB2_1,0,67.0,FINESTEERING,2000,302481.000,00000000,7513,12778;8,GPS,9,-25293126.9349,7752393.8044,2416731.6031,153910.720,2.508,4.544,0.0,0.0,GPS,3,-13777093.2561,-7758634.1896,21332182.4016,20073.006,3.264,7.162,0.0,0.0,GPS,17,-16879440.8707,15097158.6792,14159666.6713,-29866.781,1.527,2.539,0.0,0.0,GPS,28,-13257922.7639,19390574.0938,-11819479.8719,213960.750,3.819,10.927,0.0,0.0,GPS,2,10331454.6939,20423921.2180,14241428.2872,36164.193,3.451,5.656,0.0,0.0,GPS,23,-22712637.7771,-2361362.4389,14203673.6890,-65126.447,2.648,4.915,0.0,0.0,GPS,19,-10969370.9209,15526122.0413,18336987.2177,-131215.240,1.513,2.504,0.0,0.0,GPS,6,-3334230.6189,15931376.8582,21016750.9810,121258.869,1.717,2.863,0.0,0.0*7bc35afc
#BESTPOSA,USB2_1,0,67.0,FINESTEERING,2000,302481.000,00000000,7145,12778;SOL_COMPUTED,SINGLE,36.76859115900,126.93550394681,73.5654,23.3000,WGS84,0.8089,0.7127,1.0522,"",0.000,0.000,8,8,8,8,0,12,00,01*fe935669
#BESTXYZA,USB2_1,0,67.0,FINESTEERING,2000,302481.000,00000000,bde7,12778;SOL_COMPUTED,SINGLE,-3073974.5314,4088870.2696,3796910.4643,0.8756,0.8367,0.8959,SOL_COMPUTED,SINGLE,0.0000,0.0000,0.0000,0.0011,0.0011,0.0011,"",0.150,0.000,0.000,8,8,8,8,0,12,00,01*f62cf050
#RANGEA,USB2_1,0,67.0,FINESTEERING,2000,302482.000,00000000,5103,12778;7,9,0,22407067.544,0.055,-117749960.728705,0.032,2290.233,46.2,2443.380,18009c24,3,0,23695669.278,0.088,-124521585.251761,0.032,-3323.112,42.2,2443.380,08009c44,17,0,20503350.747,0.031,-107745833.818955,0.030,-420.644,51.4,2443.370,18009c64,28,0,23905718.456,0.092,-125625394.895079,0.057,-3442.508,41.8,2443.380,18009c84,23,0,23207780.347,0.045,-121957716.948323,0.030,161.099,48.0,2443.360,08009cc4,19,0,20244865.255,0.041,-106387490.653645,0.030,423.029,48.8,2443.350,08009d04,6,0,20779211.750,0.053,-109195495.417741,0.057,780.180,46.7,2443.390,08009d64*f9ad5fb2
#SATXYZ2A,USB2_1,0,67.0,FINESTEERING,2000,302482.000,00000000,7513,12778;7,GPS,9,-25292943.9465,7751999.2870,2419869.1735,153910.720,2.507,4.543,0.0,0.0,GPS,3,-13776570.0711,-7761295.5879,21331558.4528,20073.008,3.264,7.165,0.0,0.0,GPS,17,-16881144.2879,15097517.3962,14157173.5908,-29866.779,1.527,2.540,0.0,0.0,GPS,28,-13257691.5357,19388986.3880,-11822197.5196,213960.750,3.820,10.933,0.0,0.0,GPS,23,-22711085.7926,-2362184.4695,14206023.9250,-65126.445,2.648,4.915,0.0,0.0,GPS,19,-10971701.6681,15526602.0645,18335232.0872,-131215.240,1.513,2.504,0.0,0.0,GPS,6,-3336320.7902,15929732.5367,21017669.6368,121258.868,1.717,2.863,0.0,0.0*a332aa53
#BESTPOSA,USB2_1,0,67.0,FINESTEERING,2000,302482.000,00000000,7145,12778;SOL_COMPUTED,SINGLE,36.76859116329,126.93550395152,73.5656,23.3000,WGS84,0.8384,0.7461,1.0816,"",0.000,0.000,7,7,7,7,0,12,00,01*fd1ae175
#BESTXYZA,USB2_1,0,67.0,FINESTEERING,2000,302482.000,00000000,bde7,12778;SOL_COMPUTED,SINGLE,-3073974.5316,4088870.2692,3796910.4649,0.9099,0.8628,0.9257,SOL_COMPUTED,SINGLE,0.0000,0.0000,0.0000,0.0010,0.0010,0.0010,"",0.150,0.000,0.000,7,7,7,7,0,12,00,01*8d92bea6
#RANGEA,USB2_1,0,61.5,FINESTEERING,2000,302483.000,00000000,5103,12778;8,9,0,22406632.042,0.056,-117747672.049611,0.030,2289.063,46.2,2444.380,18009c24,3,0,23696301.974,0.087,-124524909.969798,0.030,-3324.274,42.3,2444.380,08009c44,17,0,20503431.087,0.031,-107746256.039012,0.028,-421.825,51.4,2444.370,18009c64,28,0,23906373.733,0.092,-125628838.496259,0.042,-3443.348,41.9,2444.380,18009c84,2,0,23534826.779,12.247,-123676348.668811,0.131,2029.560,34.8,0.400,080094a4,23,0,23207750.009,0.045,-121957557.463982,0.029,159.867,48.0,2444.360,08009cc4,19,0,20244785.064,0.041,-106387069.223506,0.028,421.823,48.9,2444.350,08009d04,6,0,20779063.586,0.053,-109194716.845111,0.041,778.951,46.7,2444.390,08009d64*d5c347ac
#SATXYZ2A,USB2_1,0,61.5,FINESTEERING,2000,302483.000,00000000,7513,12778;8,GPS,9,-25292760.6123,7751604.6194,2423006.6924,153910.721,2.507,4.543,0.0,0.0,GPS,3,-13776047.0542,-7763956.9385,21330934.0498,20073.010,3.264,7.167,0.0,0.0,GPS,17,-16882847.3894,15097876.1260,14154680.2141,-29866.778,1.527,2.540,0.0,0.0,GPS,28,-13257460.3190,19387398.3266,-11824914.9080,213960.750,3.821,10.939,0.0,0.0,GPS,2,10328470.3296,20422209.4484,14246189.0845,36164.189,3.450,5.655,0.0,0.0,GPS,23,-22709533.5834,-2363006.6906,14208373.8699,-65126.444,2.648,4.915,0.0,0.0,GPS,19,-10974032.1662,15527082.1742,18333476.5600,-131215.240,1.513,2.504,0.0,0.0,GPS,6,-3338411.1482,15928088.2668,21018587.8466,121258.867,1.717,2.863,0.0,0.0*c35889fb
#BESTPOSA,USB2_1,0,61.5,FINESTEERING,2000,302483.000,00000000,7145,12778;SOL_COMPUTED,SINGLE,36.76859116329,126.93550395152,73.5656,23.3000,WGS84,0.8350,0.7431,1.0772,"",0.000,0.000,8,8,8,8,0,12,00,01*aed0c504
#BESTXYZA,USB2_1,0,61.5,FINESTEERING,2000,302483.000,00000000,bde7,12778;SOL_COMPUTED,SINGLE,-3073974.5316,4088870.2692,3796910.4649,0.9063,0.8593,0.9220,SOL_COMPUTED,SINGLE,-2.2988e-10,-6.0060e-10,8.8486e-10,0.0010,0.0010,0.0010,"",0.150,0.000,0.000,8,8,8,8,0,12,00,01*f4de6546
#RANGEA,USB2_1,0,61.5,FINESTEERING,2000,302484.000,00000000,5103,12778;8,9,0,22406196.710,0.056,-117745384.254172,0.029,2288.672,46.2,2445.380,18009c24,3,0,23696934.791,0.089,-124528235.323832,0.029,-3324.283,42.2,2445.380,08009c44,17,0,20503511.622,0.031,-107746679.265389,0.028,-422.302,51.3,2445.370,18009c64,28,0,23907029.135,0.095,-125632282.659999,0.034,-3443.205,41.6,2445.380,18009c84,2,0,23534438.385,1.828,-123674319.600238,0.099,2029.859,35.2,1.400,080094a4,23,0,23207719.867,0.045,-121957399.037759,0.028,159.276,48.1,2445.360,08009cc4,19,0,20244705.076,0.041,-106386648.821328,0.028,421.213,48.9,2445.350,08009d04,6,0,20778915.543,0.053,-109193938.982062,0.033,778.841,46.7,2445.390,08009d64*fb80d61e
#SATXYZ2A,USB2_1,0,61.5,FINESTEERING,2000,302484.000,00000000,7513,12778;8,GPS,9,-25292576.9323,7751209.8013,2426144.1598,153910.721,2.507,4.543,0.0,0.0,GPS,3,-13775524.2054,-7766618.2415,21330309.1927,20073.013,3.265,7.171,0.0,0.0,GPS,17,-16884550.1751,15098234.8685,14152186.5412,-29866.776,1.527,2.540,0.0,0.0,GPS,28,-13257229.1138,19385809.9095,-11827632.0372,213960.750,3.821,10.947,0.0,0.0,GPS,2,10326977.7273,20421353.4297,14248569.0482,36164.187,3.448,5.654,0.0,0.0,GPS,23,-22707981.1493,-2363829.1022,14210723.5235,-65126.443,2.648,4.916,0.0,0.0,GPS,19,-10976362.4153,15527562.3706,18331720.6362,-131215.239,1.513,2.504,0.0,0.0,GPS,6,-3340501.6930,15926444.0486,21019505.6104,121258.867,1.716,2.863,0.0,0.0*ce0697fb
#BESTPOSA,USB2_1,0,61.5,FINESTEERING,2000,302484.000,00000000,7145,12778;SOL_COMPUTED,SINGLE,36.76859104278,126.93550391615,73.5507,23.3000,WGS84,0.8556,0.7706,1.1024,"",0.000,0.000,8,8,8,8,0,12,00,01*ef4af8f2
#BESTXYZA,USB2_1,0,61.5,FINESTEERING,2000,302484.000,00000000,bde7,12778;SOL_COMPUTED,SINGLE,-3073974.5268,4088870.2680,3796910.4452,0.9369,0.8793,0.9435,SOL_COMPUTED,SINGLE,0.0000,0.0000,0.0000,0.0014,0.0014,0.0014,"",0.150,0.000,0.000,8,8,8,8,0,12,00,01*87ebf6d0
#RANGEA,USB2_1,0,67.0,FINESTEERING,2000,302485.000,00000000,5103,12778;8,9,0,22405760.980,0.058,-117743094.391938,0.082,2291.416,45.9,2446.380,18009c24,3,0,23697567.166,0.095,-124531558.355920,0.081,-3321.604,41.6,2446.380,08009c44,17,0,20503591.778,0.031,-107747100.518620,0.033,-419.856,51.2,2446.370,18009c64,28,0,23907684.078,0.101,-125635724.360072,0.085,-3440.167,41.0,2446.380,18009c84,2,0,23534053.844,1.654,-123672287.560397,0.108,2033.256,35.8,2.400,18009ca4,23,0,23207689.352,0.046,-121957238.677972,0.034,161.763,47.9,2446.360,08009cc4,19,0,20244624.709,0.042,-106386226.459737,0.033,423.872,48.7,2446.350,08009d04,6,0,20778767.070,0.054,-109193158.878831,0.035,781.605,46.5,2446.390,08009d64*e235f3f2
#SATXYZ2A,USB2_1,0,67.0,FINESTEERING,2000,302485.000,00000000,7513,12778;8,GPS,9,-25292392.9066,7750814.8328,2429281.5755,153910.721,2.507,4.542,0.0,0.0,GPS,3,-13775001.5248,-7769279.4966,21329683.8815,20073.015,3.265,7.172,0.0,0.0,GPS,17,-16886252.6451,15098593.6238,14149692.5722,-29866.775,1.527,2.540,0.0,0.0,GPS,28,-13256997.9201,19384221.1368,-11830348.9071,213960.750,3.822,10.952,0.0,0.0,GPS,2,10325484.8450,20420497.3218,14250948.7220,36164.185,3.447,5.653,0.0,0.0,GPS,23,-22706428.4906,-2364651.7043,14213072.8858,-65126.441,2.648,4.916,0.0,0.0,GPS,19,-10978692.4153,15528042.6535,18329964.3159,-131215.239,1.513,2.504,0.0,0.0,GPS,6,-3342592.4245,15924799.8820,21020422.9282,121258.866,1.716,2.863,0.0,0.0*5ba2ebc6
#BESTPOSA,USB2_1,0,67.0,FINESTEERING,2000,302485.000,00000000,7145,12778;SOL_COMPUTED,SINGLE,36.76859093600,126.93550379151,73.5329,23.3000,WGS84,0.8837,0.7933,1.1283,"",0.000,0.000,8,8,8,8,0,12,00,01*76b46f66
#BESTXYZA,USB2_1,0,67.0,FINESTEERING,2000,302485.000,00000000,bde7,12778;SOL_COMPUTED,SINGLE,-3073974.5136,4088870.2690,3796910.4251,0.9600,0.9041,0.9717,SOL_COMPUTED,SINGLE,0.0000,0.0000,0.0000,0.0014,0.0014,0.0014,"",0.150,0.000,0.000,8,8,8,8,0,12,00,01*221f0b53
#RANGEA,USB2_1,0,57.0,FINESTEERING,2000,302486.000,00000000,5103,12778;8,9,0,22405324.750,0.055,-117740801.943787,0.058,2291.977,46.3,2447.380,18009c24,3,0,23698198.987,0.095,-124534878.522715,0.100,-3319.939,41.6,2447.380,08009c44,17,0,20503671.464,0.031,-107747519.285529,0.036,-419.023,51.3,2447.370,18009c64,28,0,23908338.440,0.101,-125639163.085410,0.139,-3438.106,41.0,2447.380,18009c84,2,0,23533664.297,1.460,-123670253.111649,0.101,2034.991,35.4,3.400,18009ca4,23,0,23207658.379,0.045,-121957075.873416,0.036,162.401,48.1,2447.360,08009cc4,19,0,20244543.876,0.042,-106385801.648160,0.036,424.554,48.8,2447.350,08009d04,6,0,20778618.069,0.053,-109192375.991097,0.037,783.049,46.7,2447.390,08009d64*e04f4f16
#SATXYZ2A,USB2_1,0,57.0,FINESTEERING,2000,302486.000,00000000,7513,12778;8,GPS,9,-25292208.5352,7750419.7139,2432418.9396,153910.721,2.506,4.541,0.0,0.0,GPS,3,-13774479.0124,-7771940.7039,21329058.1161,20073.017,3.266,7.174,0.0,0.0,GPS,17,-16887954.7992,15098952.3918,14147198.3071,-29866.773,1.527,2.540,0.0,0.0,GPS,28,-13256766.7380,19382632.0085,-11833065.5175,213960.749,3.822,10.956,0.0,0.0,GPS,2,10323991.6826,20419641.1247,14253328.1059,36164.183,3.447,5.651,0.0,0.0,GPS,23,-22704875.6072,-2365474.4970,14215421.9568,-65126.440,2.648,4.915,0.0,0.0,GPS,19,-10981022.1662,15528523.0230,18328207.5990,-131215.239,1.513,2.504,0.0,0.0,GPS,6,-3344683.3426,15923155.7672,21021339.8000,121258.866,1.716,2.863,0.0,0.0*f94299d6
#BESTPOSA,USB2_1,0,57.0,FINESTEERING,2000,302486.000,00000000,7145,12778;SOL_COMPUTED,SINGLE,36.76859093600,126.93550379151,73.5329,23.3000,WGS84,0.8772,0.7874,1.1199,"",0.000,0.000,8,8,8,8,0,12,00,01*0600f75c
#BESTXYZA,USB2_1,0,57.0,FINESTEERING,2000,302486.000,00000000,bde7,12778;SOL_COMPUTED,SINGLE,-3073974.5136,4088870.2690,3796910.4251,0.9529,0.8974,0.9645,SOL_COMPUTED,SINGLE,0.0000,0.0000,0.0000,0.0011,0.0011,0.0011,"",0.150,0.000,0.000,8,8,8,8,0,12,00,01*d53734fb
#RANGEA,USB2_1,0,57.0,FINESTEERING,2000,302487.000,00000000,5103,12778;8,9,0,22404888.279,0.055,-117738508.210797,0.089,2292.200,46.3,2448.380,18009c24,3,0,23698830.511,0.096,-124538197.186618,0.070,-3320.322,41.5,2448.380,08009c44,17,0,20503750.933,0.031,-107747936.899527,0.039,-419.433,51.3,2448.370,18009c64,28,0,23908992.511,0.101,-125642600.257638,0.117,-3439.350,41.0,2448.380,18009c84,2,0,23533277.706,1.206,-123668217.035146,0.117,2034.321,36.4,4.400,18009ca4,23,0,23207627.192,0.045,-121956911.958773,0.040,162.088,48.1,2448.360,08009cc4,19,0,20244462.831,0.042,-106385375.709010,0.089,424.148,48.7,2448.350,08009d04,6,0,20778468.811,0.054,-109191591.687011,0.040,782.585,46.6,2448.390,08009d64*6eb3d564
#SATXYZ2A,USB2_1,0,57.0,FINESTEERING,2000,302487.000,00000000,7513,12778;8,GPS,9,-25292023.8180,7750024.4444,2435556.2520,153910.722,2.506,4.539,0.0,0.0,GPS,3,-13773956.6681,-7774601.8633,21328431.8967,20073.019,3.266,7.175,0.0,0.0,GPS,17,-16889656.6375,15099311.1724,14144703.7459,-29866.771,1.527,2.539,0.0,0.0,GPS,28,-13256535.5676,19381042.5246,-11835781.8685,213960.749,3.823,10.960,0.0,0.0,GPS,2,10322498.2402,20418784.8385,14255707.1996,36164.181,3.446,5.650,0.0,0.0,GPS,23,-22703322.4992,-2366297.4803,14217770.7364,-65126.439,2.648,4.914,0.0,0.0,GPS,19,-10983351.6680,15529003.4789,18326450.4857,-131215.238,1.513,2.503,0.0,0.0,GPS,6,-3346774.4474,15921511.7042,21022256.2256,121258.865,1.716,2.862,0.0,0.0*e97ebd55
#BESTPOSA,USB2_1,0,57.0,FINESTEERING,2000,302487.000,00000000,7145,12778;SOL_COMPUTED,SINGLE,36.76859090779,126.93550380312,73.5314,23.3000,WGS84,0.8717,0.7819,1.1136,"",0.000,0.000,8,8,8,8,0,12,00,01*6f1f2d2c
#BESTXYZA,USB2_1,0,57.0,FINESTEERING,2000,302487.000,00000000,bde7,12778;SOL_COMPUTED,SINGLE,-3073974.5148,4088870.2689,3796910.4217,0.9468,0.8919,0.9589,SOL_COMPUTED,SINGLE,0.0000,0.0000,0.0000,0.0011,0.0011,0.0011,"",0.150,0.000,0.000,8,8,8,8,0,12,00,01*327f0f7d
#RANGEA,USB2_1,0,66.5,FINESTEERING,2000,302488.000,00000000,5103,12778;8,9,0,22404452.519,0.054,-117736218.195864,0.060,2289.963,46.4,2449.380,18009c24,3,0,23699462.698,0.094,-124541519.296033,0.083,-3322.080,41.7,2449.380,08009c44,17,0,20503831.118,0.031,-107748358.300910,0.035,-421.570,51.3,2449.370,18009c64,28,0,23909647.211,0.109,-125646040.737939,0.077,-3440.118,40.4,2449.380,18009c84,2,0,23532890.020,1.125,-123666184.364926,0.078,2033.441,36.0,5.400,18009ca4,23,0,23207596.732,0.045,-121956751.866929,0.035,159.934,48.0,2449.360,08009cc4,19,0,20244382.510,0.042,-106384953.581031,0.060,421.798,48.8,2449.350,08009d04,6,0,20778320.203,0.054,-109190810.881350,0.036,780.717,46.6,2449.390,08009d64*34b2b378
#SATXYZ2A,USB2_1,0,66.5,FINESTEERING,2000,302488.000,00000000,7513,12778;8,GPS,9,-25291838.7551,7749629.0244,2438693.5126,153910.722,2.506,4.539,0.0,0.0,GPS,3,-13773434.4919,-7777262.9747,21327805.2231,20073.021,3.267,7.178,0.0,0.0,GPS,17,-16891358.1600,15099669.9655,14142208.8888,-29866.770,1.527,2.540,0.0,0.0,GPS,28,-13256304.4089,19379452.6852,-11838497.9599,213960.749,3.824,10.968,0.0,0.0,GPS,2,10321004.5178,20417928.4633,14258086.0033,36164.180,3.445,5.650,0.0,0.0,GPS,23,-22701769.1667,-2367120.6543,14220119.2245,-65126.437,2.647,4.915,0.0,0.0,GPS,19,-10985680.9205,15529484.0212,18324692.9759,-131215.238,1.513,2.504,0.0,0.0,GPS,6,-3348865.7386,15919867.6931,21023172.2052,121258.864,1.715,2.862,0.0,0.0*46cbce95
#BESTPOSA,USB2_1,0,66.5,FINESTEERING,2000,302488.000,00000000,7145,12778;SOL_COMPUTED,SINGLE,36.76859090779,126.93550380312,73.5314,23.3000,WGS84,0.8697,0.7800,1.1110,"",0.000,0.000,8,8,8,8,0,12,00,01*1a46aac0
#BESTXYZA,USB2_1,0,66.5,FINESTEERING,2000,302488.000,00000000,bde7,12778;SOL_COMPUTED,SINGLE,-3073974.5148,4088870.2689,3796910.4217,0.9446,0.8898,0.9566,SOL_COMPUTED,SINGLE,0.0000,-6.3823e-10,0.0000,0.0011,0.0011,0.0011,"",0.150,0.000,0.000,8,8,8,8,0,12,00,01*dfa1ed44
#RANGEA,USB2_1,0,66.0,FINESTEERING,2000,302489.000,00000000,5103,12778;8,9,0,22404016.860,0.055,-117733928.655940,0.044,2287.765,46.4,2450.380,18009c24,3,0,23700094.914,0.095,-124544841.601891,0.077,-3323.186,41.6,2450.380,08009c44,17,0,20503911.426,0.031,-107748780.322425,0.032,-423.794,51.2,2450.370,18009c64,28,0,23910301.926,0.114,-125649481.372241,0.107,-3441.854,40.0,2450.380,18009c84,2,0,23532503.047,1.060,-123664151.819533,0.081,2031.256,35.7,6.400,18009ca4,23,0,23207566.406,0.045,-121956592.450726,0.033,157.531,48.0,2450.360,08009cc4,19,0,20244302.311,0.042,-106384532.081599,0.044,419.710,48.7,2450.350,08009d04,6,0,20778171.672,0.053,-109190030.437873,0.032,778.816,46.6,2450.390,08009d64*83debf0c
#SATXYZ2A,USB2_1,0,66.0,FINESTEERING,2000,302489.000,00000000,7513,12778;8,GPS,9,-25291653.3466,7749233.4538,2441830.7212,153910.722,2.506,4.538,0.0,0.0,GPS,3,-13772912.4839,-7779924.0380,21327178.0955,20073.023,3.267,7.180,0.0,0.0,GPS,17,-16893059.3665,15100028.7712,14139713.7357,-29866.768,1.527,2.540,0.0,0.0,GPS,28,-13256073.2620,19377862.4903,-11841213.7918,213960.749,3.824,10.973,0.0,0.0,GPS,2,10319510.5153,20417071.9991,14260464.5168,36164.178,3.444,5.648,0.0,0.0,GPS,23,-22700215.6097,-2367944.0188,14222467.4211,-65126.436,2.647,4.914,0.0,0.0,GPS,19,-10988009.9237,15529964.6500,18322935.0696,-131215.238,1.513,2.503,0.0,0.0,GPS,6,-3350957.2165,15918223.7339,21024087.7387,121258.864,1.715,2.862,0.0,0.0*896bdcbf
#BESTPOSA,USB2_1,0,66.0,FINESTEERING,2000,302489.000,00000000,7145,12778;SOL_COMPUTED,SINGLE,36.76859090779,126.93550380312,73.5314,23.3000,WGS84,0.8686,0.7791,1.1096,"",0.000,0.000,8,8,8,8,0,12,00,01*1dd5aaea
#BESTXYZA,USB2_1,0,66.0,FINESTEERING,2000,302489.000,00000000,bde7,12778;SOL_COMPUTED,SINGLE,-3073974.5148,4088870.2689,3796910.4217,0.9434,0.8887,0.9554,SOL_COMPUTED,SINGLE,-6.4969e-10,-1.2680e-10,0.0000,0.0011,0.0011,0.0011,"",0.150,0.000,0.000,8,8,8,8,0,12,00,01*8091e63b
#RANGEA,USB2_1,0,66.0,FINESTEERING,2000,302490.000,00000000,5103,12778;8,9,0,22403581.147,0.054,-117731638.910970,0.043,2291.442,46.4,2451.380,18009c24,3,0,23700727.060,0.092,-124548163.488969,0.100,-3320.180,41.8,2451.380,08009c44,17,0,20503991.708,0.031,-107749202.239144,0.096,-420.631,51.1,2451.370,18009c64,28,0,23910956.535,0.110,-125652921.461072,0.076,-3437.844,40.3,2451.380,18009c84,2,0,23532116.626,0.953,-123662118.767411,0.107,2035.537,36.1,7.400,18009ca4,23,0,23207536.064,0.046,-121956432.967578,0.039,160.796,47.9,2451.360,08009cc4,19,0,20244222.096,0.042,-106384110.506926,0.100,422.967,48.7,2451.350,08009d04,6,0,20778023.060,0.054,-109189249.584658,0.039,782.231,46.5,2451.390,08009d64*7f9db390
#SATXYZ2A,USB2_1,0,66.0,FINESTEERING,2000,302490.000,00000000,7513,12778;8,GPS,9,-25291467.5924,7748837.7326,2444967.8780,153910.722,2.505,4.538,0.0,0.0,GPS,3,-13772390.6441,-7782585.0533,21326550.5138,20073.026,3.268,7.183,0.0,0.0,GPS,17,-16894760.2571,15100387.5893,14137218.2868,-29866.767,1.527,2.540,0.0,0.0,GPS,28,-13255842.1269,19376271.9399,-11843929.3640,213960.749,3.825,10.979,0.0,0.0,GPS,2,10318016.2329,20416215.4460,14262842.7401,36164.176,3.443,5.648,0.0,0.0,GPS,23,-22698661.8283,-2368767.5740,14224815.3262,-65126.435,2.647,4.915,0.0,0.0,GPS,19,-10990338.6776,15530445.3650,18321176.7671,-131215.238,1.513,2.504,0.0,0.0,GPS,6,-3353048.8807,15916579.8266,21025002.8260,121258.863,1.715,2.862,0.0,0.0*2ed51a96
#BESTPOSA,USB2_1,0,66.0,FINESTEERING,2000,302490.000,00000000,7145,12778;SOL_COMPUTED,SINGLE,36.76859087877,126.93550380121,73.5290,23.3000,WGS84,0.8663,0.7762,1.1074,"",0.000,0.000,8,8,8,8,0,12,00,01*c5dc0e1e
#BESTXYZA,USB2_1,0,66.0,FINESTEERING,2000,302490.000,00000000,bde7,12778;SOL_COMPUTED,SINGLE,-3073974.5147,4088870.2690,3796910.4177,0.9407,0.8864,0.9533,SOL_COMPUTED,SINGLE,0.0000,0.0000,0.0000,0.0011,0.0011,0.0011,"",0.150,0.000,0.000,8,8,8,8,0,12,00,01*e8e3aa2d
#RANGEA,USB2_1,0,66.5,FINESTEERING,2000,302491.000,00000000,5103,12778;8,9,0,22403145.789,0.054,-117729350.960896,0.038,2289.570,46.5,2452.380,18009c24,3,0,23701359.487,0.091,-124551486.896182,0.072,-3321.751,41.9,2452.380,08009c44,17,0,20504072.354,0.031,-107749626.044247,0.065,-422.217,51.2,2452.370,18009c64,28,0,23911611.416,0.118,-125656362.909446,0.100,-3440.471,39.7,2452.380,18009c84,2,0,23531730.062,0.889,-123660087.109191,0.098,2033.595,36.0,8.400,18009ca4,23,0,23207506.090,0.046,-121956275.409110,0.037,159.027,47.9,2452.360,08009cc4,19,0,20244142.241,0.042,-106383690.848845,0.067,420.942,48.6,2452.350,08009d04,6,0,20777874.749,0.053,-109188470.339082,0.036,780.992,46.6,2452.390,08009d64*34ef4481
#SATXYZ2A,USB2_1,0,66.5,FINESTEERING,2000,302491.000,00000000,7513,12778;8,GPS,9,-25291281.4927,7748441.8606,2448104.9828,153910.723,2.505,4.538,0.0,0.0,GPS,3,-13771868.9724,-7785246.0203,21325922.4781,20073.028,3.268,7.185,0.0,0.0,GPS,17,-16896460.8317,15100746.4199,14134722.5420,-29866.765,1.527,2.540,0.0,0.0,GPS,28,-13255611.0037,19374681.0341,-11846644.6765,213960.749,3.825,10.985,0.0,0.0,GPS,2,10316521.6705,20415358.8040,14265220.6731,36164.174,3.442,5.647,0.0,0.0,GPS,23,-22697107.8225,-2369591.3198,14227162.9397,-65126.433,2.647,4.915,0.0,0.0,GPS,19,-10992667.1821,15530926.1664,18319418.0681,-131215.237,1.513,2.504,0.0,0.0,GPS,6,-3355140.7315,15914935.9714,21025917.4672,121258.863,1.714,2.862,0.0,0.0*d3ca2d8a
#BESTPOSA,USB2_1,0,66.5,FINESTEERING,2000,302491.000,00000000,7145,12778;SOL_COMPUTED,SINGLE,36.76859087877,126.93550380121,73.5290,23.3000,WGS84,0.8660,0.7760,1.1070,"",0.000,0.000,8,8,8,8,0,12,00,01*416e6cae
#BESTXYZA,USB2_1,0,66.5,FINESTEERING,2000,302491.000,00000000,bde7,12778;SOL_COMPUTED,SINGLE,-3073974.5147,4088870.2690,3796910.4177,0.9404,0.8861,0.9530,SOL_COMPUTED,SINGLE,-8.4599e-10,2.5026e-10,0.0000,0.0011,0.0011,0.0011,"",0.150,0.000,0.000,8,8,8,8,0,12,00,01*c6dfdc6e
#RANGEA,USB2_1,0,66.5,FINESTEERING,2000,302492.000,00000000,5103,12778;8,9,0,22402710.602,0.055,-117727063.980071,0.030,2286.851,46.3,2453.380,18009c24,3,0,23701992.050,0.090,-124554810.998799,0.049,-3324.085,42.1,2453.380,08009c44,17,0,20504153.201,0.031,-107750050.930163,0.043,-424.948,51.2,2453.370,18009c64,28,0,23912266.406,0.125,-125659804.921788,0.084,-3441.627,39.2,2453.380,18009c84,2,0,23531344.002,0.847,-123658056.080840,0.067,2031.196,35.8,9.400,18009ca4,23,0,23207476.321,0.046,-121956118.971406,0.028,156.417,47.8,2453.360,08009cc4,19,0,20244062.597,0.042,-106383272.291457,0.045,418.319,48.7,2453.350,08009d04,6,0,20777726.605,0.053,-109187691.911048,0.030,778.497,46.6,2453.390,08009d64*84bb9037
#SATXYZ2A,USB2_1,0,66.5,FINESTEERING,2000,302492.000,00000000,7513,12778;8,GPS,9,-25291095.0473,7748045.8380,2451242.0354,153910.723,2.505,4.537,0.0,0.0,GPS,3,-13771347.4689,-7787906.9391,21325293.9883,20073.030,3.269,7.187,0.0,0.0,GPS,17,-16898161.0904,15101105.2628,14132226.5014,-29866.763,1.527,2.540,0.0,0.0,GPS,28,-13255379.8924,19373089.7728,-11849359.7293,213960.749,3.826,10.990,0.0,0.0,GPS,2,10315026.8280,20414502.0732,14267598.3159,36164.172,3.442,5.646,0.0,0.0,GPS,23,-22695553.5923,-2370415.2564,14229510.2615,-65126.432,2.647,4.914,0.0,0.0,GPS,19,-10994995.4372,15531407.0540,18317658.9729,-131215.237,1.513,2.503,0.0,0.0,GPS,6,-3357232.7686,15913292.1682,21026831.6622,121258.862,1.714,2.862,0.0,0.0*aad63460
#BESTXYZA,USB2_1,0,66.5,FINESTEERING,2000,302492.000,00000000,bde7,12778;SOL_COMPUTED,SINGLE,-3073974.5088,4088870.2688,3796910.3946,0.9668,0.9147,0.9856,SOL_COMPUTED,SINGLE,0.0000,0.0000,0.0000,0.0014,0.0014,0.0014,"",0.150,0.000,0.000,8,8,8,8,0,12,00,01*a30c7a75
#BESTPOSA,USB2_1,0,66.5,FINESTEERING,2000,302492.000,00000000,7145,12778;SOL_COMPUTED,SINGLE,36.76859073207,126.93550374970,73.5123,23.3000,WGS84,0.8974,0.7996,1.1394,"",0.000,0.000,8,8,8,8,0,12,00,01*91692224
#RANGEA,USB2_1,0,66.5,FINESTEERING,2000,302493.000,00000000,5103,12778;8,9,0,22402275.270,0.056,-117724776.244973,0.102,2284.698,46.2,2454.380,18009c24,3,0,23702624.415,0.090,-124558134.093634,0.101,-3326.043,42.0,2454.380,08009c44,17,0,20504233.932,0.032,-107750475.186417,0.043,-427.606,51.1,2454.370,18009c64,28,0,23912921.189,0.133,-125663245.890664,0.120,-3443.205,38.7,2454.380,18009c84,2,0,23530957.279,0.778,-123656023.999438,0.123,2029.073,36.0,10.400,18009ca4,23,0,23207446.441,0.047,-121955961.947238,0.038,153.687,47.8,2454.360,08009cc4,19,0,20243982.835,0.043,-106382853.116896,0.074,415.740,48.5,2454.350,08009d04,6,0,20777578.282,0.054,-109186912.554768,0.102,776.274,46.6,2454.390,08009d64*cbb04c0d
#SATXYZ2A,USB2_1,0,66.5,FINESTEERING,2000,302493.000,00000000,7513,12778;8,GPS,9,-25290908.2564,7747649.6645,2454379.0360,153910.723,2.505,4.536,0.0,0.0,GPS,3,-13770826.1335,-7790567.8096,21324665.0446,20073.032,3.269,7.189,0.0,0.0,GPS,17,-16899861.0330,15101464.1180,14129730.1651,-29866.762,1.527,2.540,0.0,0.0,GPS,28,-13255148.7931,19371498.1560,-11852074.5222,213960.749,3.827,10.996,0.0,0.0,GPS,2,10313531.7056,20413645.2537,14269975.6683,36164.170,3.441,5.645,0.0,0.0,GPS,23,-22693999.1379,-2371239.3836,14231857.2917,-65126.431,2.647,4.914,0.0,0.0,GPS,19,-10997323.4428,15531888.0278,18315899.4814,-131215.237,1.513,2.503,0.0,0.0,GPS,6,-3359324.9921,15911648.4172,21027745.4110,121258.861,1.714,2.862,0.0,0.0*9a31dc66
#BESTPOSA,USB2_1,0,66.5,FINESTEERING,2000,302493.000,00000000,7145,12778;SOL_COMPUTED,SINGLE,36.76859073207,126.93550374970,73.5123,23.3000,WGS84,0.8915,0.7944,1.1319,"",0.000,0.000,8,8,8,8,0,12,00,01*bd413dcd
#BESTXYZA,USB2_1,0,66.5,FINESTEERING,2000,302493.000,00000000,bde7,12778;SOL_COMPUTED,SINGLE,-3073974.5088,4088870.2688,3796910.3946,0.9605,0.9087,0.9792,SOL_COMPUTED,SINGLE,0.0000,0.0000,0.0000,0.0011,0.0011,0.0011,"",0.150,0.000,0.000,8,8,8,8,0,12,00,01*dca82d08
#RANGEA,USB2_1,0,66.5,FINESTEERING,2000,302494.000,00000000,5103,12778;8,9,0,22401840.178,0.055,-117722489.750565,0.068,2289.418,46.3,2455.380,18009c24,3,0,23703256.989,0.090,-124561458.169534,0.069,-3321.025,42.0,2455.380,08009c44,17,0,20504314.909,0.032,-107750900.763020,0.038,-422.747,51.1,2455.370,18009c64,28,0,23913576.120,0.135,-125666687.712491,0.091,-3438.226,38.5,2455.380,18009c84,2,0,23530571.142,0.711,-123653992.692925,0.141,2034.497,36.3,11.400,18009ca4,23,0,23207416.829,0.047,-121955806.294871,0.036,158.529,47.7,2455.360,08009cc4,19,0,20243903.324,0.043,-106382435.274190,0.053,420.712,48.5,2455.350,08009d04,6,0,20777430.162,0.053,-109186134.243233,0.068,781.329,46.7,2455.390,08009d64*1834f3b6
#SATXYZ2A,USB2_1,0,66.5,FINESTEERING,2000,302494.000,00000000,7513,12778;8,GPS,9,-25290721.1199,7747253.3403,2457515.9843,153910.724,2.504,4.535,0.0,0.0,GPS,3,-13770304.9663,-7793228.6316,21324035.6468,20073.034,3.269,7.191,0.0,0.0,GPS,17,-16901560.6596,15101822.9855,14127233.5332,-29866.760,1.527,2.540,0.0,0.0,GPS,28,-13254917.7058,19369906.1839,-11854789.0552,213960.749,3.827,11.001,0.0,0.0,GPS,2,10312036.3033,20412788.3454,14272352.7303,36164.168,3.440,5.643,0.0,0.0,GPS,23,-22692444.4592,-2372063.7016,14234204.0301,-65126.429,2.647,4.914,0.0,0.0,GPS,19,-10999651.1988,15532369.0878,18314139.5937,-131215.236,1.513,2.503,0.0,0.0,GPS,6,-3361417.4019,15910004.7183,21028658.7136,121258.861,1.713,2.862,0.0,0.0*72e891df
#BESTPOSA,USB2_1,0,66.5,FINESTEERING,2000,302494.000,00000000,7145,12778;SOL_COMPUTED,SINGLE,36.76859060332,126.93550378758,73.5075,23.3000,WGS84,0.9223,0.8196,1.1613,"",0.000,0.000,8,8,8,8,0,12,00,01*90c25f83
#BESTXYZA,USB2_1,0,66.5,FINESTEERING,2000,302494.000,00000000,bde7,12778;SOL_COMPUTED,SINGLE,-3073974.5143,4088870.2706,3796910.3803,0.9872,0.9361,1.0101,SOL_COMPUTED,SINGLE,0.0000,0.0000,0.0000,0.0014,0.0014,0.0014,"",0.150,0.000,0.000,8,8,8,8,0,12,00,01*1158deab
#RANGEA,USB2_1,0,70.0,FINESTEERING,2000,302495.000,00000000,5103,12778;8,9,0,22401405.233,0.054,-117720203.993186,0.047,2285.034,46.4,2456.380,18009c24,3,0,23703889.644,0.088,-124564782.743275,0.049,-3325.186,42.3,2456.380,08009c44,17,0,20504396.057,0.031,-107751327.207854,0.031,-427.287,51.1,2456.370,18009c64,28,0,23914231.139,0.135,-125670129.999799,0.084,-3442.869,38.6,2456.380,18009c84,2,0,23530184.368,0.681,-123651961.976708,0.098,2029.835,35.9,12.400,18009ca4,23,0,23207387.389,0.047,-121955651.556069,0.031,153.990,47.8,2456.360,08009cc4,19,0,20243823.990,0.043,-106382018.342545,0.039,415.941,48.6,2456.350,08009d04,6,0,20777282.161,0.053,-109185356.539769,0.047,777.075,46.7,2456.390,08009d64*c4e5e1a7
#SATXYZ2A,USB2_1,0,70.0,FINESTEERING,2000,302495.000,00000000,7513,12778;8,GPS,9,-25290533.6380,7746856.8651,2460652.8804,153910.724,2.504,4.535,0.0,0.0,GPS,3,-13769783.9673,-7795889.4053,21323405.7950,20073.037,3.270,7.193,0.0,0.0,GPS,17,-16903259.9701,15102181.8651,14124736.6056,-29866.758,1.527,2.540,0.0,0.0,GPS,28,-13254686.6306,19368313.8564,-11857503.3282,213960.749,3.828,11.007,0.0,0.0,GPS,2,10310540.6210,20411931.3484,14274729.5020,36164.166,3.439,5.642,0.0,0.0,GPS,23,-22690889.5564,-2372888.2104,14236550.4767,-65126.428,2.647,4.914,0.0,0.0,GPS,19,-11001978.7053,15532850.2340,18312379.3099,-131215.236,1.513,2.503,0.0,0.0,GPS,6,-3363509.9980,15908361.0717,21029571.5700,121258.860,1.713,2.862,0.0,0.0*f05564cd
#BESTPOSA,USB2_1,0,70.0,FINESTEERING,2000,302495.000,00000000,7145,12778;SOL_COMPUTED,SINGLE,36.76859060332,126.93550378758,73.5075,23.3000,WGS84,0.9149,0.8130,1.1520,"",0.000,0.000,8,8,8,8,0,12,00,01*39cd3ff3
#BESTXYZA,USB2_1,0,70.0,FINESTEERING,2000,302495.000,00000000,bde7,12778;SOL_COMPUTED,SINGLE,-3073974.5143,4088870.2706,3796910.3803,0.9792,0.9286,1.0020,SOL_COMPUTED,SINGLE,0.0000,0.0000,0.0000,0.0011,0.0011,0.0011,"",0.150,0.000,0.000,8,8,8,8,0,12,00,01*ad21edf8
#RANGEA,USB2_1,0,70.0,FINESTEERING,2000,302496.000,00000000,5103,12778;8,9,0,22400970.544,0.053,-117717919.572108,0.038,2287.441,46.6,2457.380,18009c24,3,0,23704522.511,0.091,-124568108.403500,0.080,-3322.591,41.9,2457.380,08009c44,17,0,20504477.475,0.031,-107751755.082509,0.032,-424.875,51.2,2457.370,18009c64,28,0,23914886.347,0.139,-125673573.218909,0.167,-3440.996,38.2,2457.380,18009c84,2,0,23529797.864,0.627,-123649932.086392,0.102,2032.135,36.2,13.400,18009ca4,23,0,23207358.227,0.047,-121955498.290158,0.032,156.175,47.7,2457.360,08009cc4,19,0,20243744.928,0.043,-106381602.848372,0.035,418.396,48.6,2457.350,08009d04,6,0,20777134.380,0.052,-109184579.957318,0.038,779.831,46.9,2457.390,08009d64*b96a8c2b
#SATXYZ2A,USB2_1,0,70.0,FINESTEERING,2000,302496.000,00000000,7513,12778;8,GPS,9,-25290345.8105,7746460.2391,2463789.7241,153910.724,2.504,4.534,0.0,0.0,GPS,3,-13769263.1364,-7798550.1304,21322775.4892,20073.039,3.270,7.195,0.0,0.0,GPS,17,-16904958.9644,15102540.7570,14122239.3824,-29866.757,1.527,2.540,0.0,0.0,GPS,28,-13254455.5675,19366721.1736,-11860217.3412,213960.749,3.828,11.012,0.0,0.0,GPS,2,10309044.6587,20411074.2629,14277105.9831,36164.165,3.438,5.641,0.0,0.0,GPS,23,-22689334.4294,-2373712.9099,14238896.6315,-65126.427,2.647,4.914,0.0,0.0,GPS,19,-11004305.9622,15533331.4662,18310618.6299,-131215.236,1.513,2.503,0.0,0.0,GPS,6,-3365602.7803,15906717.4774,21030483.9802,121258.860,1.713,2.861,0.0,0.0*167fed21
#BESTPOSA,USB2_1,0,70.0,FINESTEERING,2000,302496.000,00000000,7145,12778;SOL_COMPUTED,SINGLE,36.76859057022,126.93550378770,73.5054,23.3000,WGS84,0.9092,0.8070,1.1458,"",0.000,0.000,8,8,8,8,0,12,00,01*2f59764e
#BESTXYZA,USB2_1,0,70.0,FINESTEERING,2000,302496.000,00000000,bde7,12778;SOL_COMPUTED,SINGLE,-3073974.5147,4088870.2710,3796910.3761,0.9728,0.9230,0.9963,SOL_COMPUTED,SINGLE,0.0000,0.0000,0.0000,0.0011,0.0011,0.0011,"",0.150,0.000,0.000,8,8,8,8,0,12,00,01*50c37958
#RANGEA,USB2_1,0,68.0,FINESTEERING,2000,302497.000,00000000,5103,12778;8,9,0,22400535.494,0.054,-117715633.256287,0.039,2288.336,46.6,2458.380,18009c24,3,0,23705154.953,0.090,-124571431.883710,0.098,-3321.399,42.0,2458.380,08009c44,17,0,20504558.550,0.031,-107752181.177535,0.035,-424.462,51.2,2458.370,18009c64,28,0,23915541.116,0.137,-125677014.107709,0.123,-3438.311,38.4,2458.380,18009c84,2,0,23529410.974,0.553,-123647900.078177,0.106,2034.862,36.8,14.400,18009ca4,23,0,23207328.744,0.047,-121955343.284610,0.036,156.957,47.7,2458.360,08009cc4,19,0,20243665.526,0.043,-106381185.584832,0.037,419.212,48.4,2458.350,08009d04,6,0,20776986.203,0.052,-109183801.328809,0.038,780.086,46.9,2458.390,08009d64*464ab147
#SATXYZ2A,USB2_1,0,68.0,FINESTEERING,2000,302497.000,00000000,7513,12778;8,GPS,9,-25290157.6376,7746063.4621,2466926.5155,153910.724,2.504,4.533,0.0,0.0,GPS,3,-13768742.4737,-7801210.8069,21322144.7295,20073.041,3.271,7.198,0.0,0.0,GPS,17,-16906657.6427,15102899.6609,14119741.8637,-29866.755,1.528,2.540,0.0,0.0,GPS,28,-13254224.5166,19365128.1355,-11862931.0942,213960.749,3.829,11.018,0.0,0.0,GPS,2,10307548.4166,20410217.0889,14279482.1737,36164.163,3.437,5.640,0.0,0.0,GPS,23,-22687779.0783,-2374537.8001,14241242.4944,-65126.425,2.647,4.914,0.0,0.0,GPS,19,-11006632.9694,15533812.7844,18308857.5538,-131215.236,1.513,2.503,0.0,0.0,GPS,6,-3367695.7488,15905073.9354,21031395.9441,121258.859,1.713,2.861,0.0,0.0*1081d027
#BESTPOSA,USB2_1,0,68.0,FINESTEERING,2000,302497.000,00000000,7145,12778;SOL_COMPUTED,SINGLE,36.76859057022,126.93550378770,73.5054,23.3000,WGS84,0.9076,0.8056,1.1438,"",0.000,0.000,8,8,8,8,0,12,00,01*6ecf985a
#BESTXYZA,USB2_1,0,68.0,FINESTEERING,2000,302497.000,00000000,bde7,12778;SOL_COMPUTED,SINGLE,-3073974.5147,4088870.2710,3796910.3761,0.9711,0.9214,0.9946,SOL_COMPUTED,SINGLE,0.0000,0.0000,0.0000,0.0011,0.0011,0.0011,"",0.150,0.000,0.000,8,8,8,8,0,12,00,01*a8f2bf52
#RANGEA,USB2_1,0,68.0,FINESTEERING,2000,302498.000,00000000,5103,12778;8,9,0,22400100.579,0.053,-117713347.694060,0.035,2284.845,46.6,2459.380,18009c24,3,0,23705787.493,0.089,-124574755.863786,0.065,-3324.732,42.1,2459.380,08009c44,17,0,20504639.791,0.031,-107752608.127166,0.034,-427.688,51.2,2459.370,18009c64,28,0,23916195.977,0.132,-125680455.510836,0.117,-3441.358,38.7,2459.380,18009c84,2,0,23529024.137,0.564,-123645868.426820,0.100,2031.482,36.0,15.400,18009ca4,23,0,23207299.427,0.048,-121955189.189013,0.035,153.445,47.6,2459.360,08009cc4,19,0,20243586.303,0.043,-106380769.209178,0.035,415.738,48.4,2459.350,08009d04,6,0,20776838.132,0.051,-109183023.273576,0.035,777.211,46.9,2459.390,08009d64*33a04f70
