#BESTPOSA,USB2_1,0,72.0,FINESTEERING,1996,34580.000,00000000,7145,12778;SOL_COMPUTED,SINGLE,36.76923470641,126.93443045986,78.0151,23.3000,WGS84,2.0490,1.8325,4.5394,"",0.000,0.000,6,6,6,6,0,02,00,01*083c45e9
#RANGEA,USB2_1,0,56.0,FINESTEERING,1996,34581.000,00000000,5103,12778;6,30,0,21544884.213,0.043,-113219127.933734,0.051,-13.096,48.4,229.900,18009c04,8,0,21334186.008,0.034,-112111877.071545,0.050,-1494.795,50.4,257.760,08009c24,28,0,22888523.878,0.220,-120280014.316005,0.057,2602.582,35.4,103.340,18009c44,7,0,21314671.593,0.040,-112009330.112765,0.034,-1678.917,49.1,294.820,08009ce4,1,0,20323690.390,0.033,-106801692.291228,0.035,1456.579,50.6,300.970,18009d44,11,0,20181927.452,0.052,-106056721.924666,0.036,590.764,46.9,291.490,08009d64*cdb06bf5
#SATXYZ2A,USB2_1,0,56.0,FINESTEERING,1996,34581.000,00000000,7513,12778;6,GPS,30,1860399.4346,22627255.1556,13660399.8565,26050.367,3.198,3.416,0.0,0.0,GPS,8,-15289364.5268,4908853.9628,21233005.3400,-29116.377,2.644,3.078,0.0,0.0,GPS,28,6930210.7821,13916936.5677,22152434.1011,211161.343,3.904,4.508,0.0,0.0,GPS,7,-4486731.8677,25326517.9948,5791986.0553,63190.892,3.184,3.371,0.0,0.0,GPS,1,-13611285.7676,20519131.0885,9416919.4140,-11783.273,2.424,2.614,0.0,0.0,GPS,11,-10317516.0097,18558069.7954,15484901.1435,-221087.195,2.307,2.465,0.0,0.0*846503ff
#BESTPOSA,USB2_1,0,56.0,FINESTEERING,1996,34581.000,00000000,7145,12778;SOL_COMPUTED,SINGLE,36.76923482558,126.93443055525,77.9994,23.3000,WGS84,2.0637,1.8499,4.5662,"",0.000,0.000,6,6,6,6,0,02,00,01*f7b6805d
#RANGEA,USB2_1,0,56.0,FINESTEERING,1996,34582.000,00000000,5103,12778;6,30,0,21544886.679,0.045,-113219140.868661,0.039,-12.562,48.0,230.900,18009c04,8,0,21334470.508,0.035,-112113372.076169,0.039,-1495.148,50.2,258.760,08009c24,28,0,22888028.703,0.179,-120277411.938292,0.044,2602.610,37.1,104.340,18009c44,7,0,21314991.002,0.040,-112011008.638713,0.032,-1677.813,49.1,295.820,08009ce4,1,0,20323413.273,0.032,-106800236.024787,0.032,1456.247,51.1,301.970,18009d44,11,0,20181815.120,0.048,-106056131.615106,0.032,590.307,47.4,292.490,08009d64*38e3c23e
#SATXYZ2A,USB2_1,0,56.0,FINESTEERING,1996,34582.000,00000000,7513,12778;6,GPS,30,1859521.1569,22628785.6727,13657968.4157,26050.366,3.198,3.416,0.0,0.0,GPS,8,-15291136.1296,4906844.1974,21232206.5666,-29116.377,2.644,3.079,0.0,0.0,GPS,28,6927576.1425,13917292.8309,22153056.3986,211161.346,3.903,4.507,0.0,0.0,GPS,7,-4487262.6146,25327094.1553,5788901.3085,63190.890,3.184,3.371,0.0,0.0,GPS,1,-13611140.3366,20517889.5690,9419820.7235,-11783.274,2.424,2.614,0.0,0.0,GPS,11,-10318037.3962,18556032.3786,15486908.7107,-221087.196,2.307,2.465,0.0,0.0*6fd998cc
#BESTPOSA,USB2_1,0,56.0,FINESTEERING,1996,34582.000,00000000,7145,12778;SOL_COMPUTED,SINGLE,36.76923470209,126.93443054479,77.9542,23.3000,WGS84,2.0696,1.8556,4.5733,"",0.000,0.000,6,6,6,6,0,02,00,01*fdff00b3
#RANGEA,USB2_1,0,63.0,FINESTEERING,1996,34583.000,00000000,5103,12778;7,30,0,21544889.046,0.036,-113219153.277470,0.035,-11.028,50.0,231.900,18009c04,8,0,21334754.914,0.037,-112114866.636407,0.034,-1492.037,49.9,259.760,08009c24,28,0,22887533.277,0.209,-120274808.588595,0.085,2605.060,35.7,105.340,18009c44,7,0,21315310.296,0.039,-112012686.582375,0.076,-1676.693,49.3,296.820,08009ce4,10,0,24905006.662,1.640,-130876692.463111,0.114,-1307.174,36.5,0.750,08009504,1,0,20323136.082,0.033,-106798779.416116,0.032,1458.505,50.8,302.970,18009d44,11,0,20181702.710,0.043,-106055540.880481,0.032,592.628,48.4,293.490,08009d64*7440281b
#SATXYZ2A,USB2_1,0,63.0,FINESTEERING,1996,34583.000,00000000,7513,12778;6,GPS,30,1858643.0724,22630315.9533,13655536.6821,26050.364,3.198,3.416,0.0,0.0,GPS,8,-15292907.7838,4904834.6129,21231407.3446,-29116.377,2.644,3.079,0.0,0.0,GPS,28,6924941.4524,13917649.2725,22153678.2506,211161.349,3.902,4.507,0.0,0.0,GPS,7,-4487793.2038,25327669.9769,5785816.4357,63190.887,3.184,3.371,0.0,0.0,GPS,1,-13610994.8629,20516647.6910,9422721.8281,-11783.276,2.424,2.614,0.0,0.0,GPS,11,-10318558.9081,18553994.7290,15488915.9377,-221087.197,2.307,2.465,0.0,0.0*20d789b5
#BESTPOSA,USB2_1,0,63.0,FINESTEERING,1996,34583.000,00000000,7145,12778;SOL_COMPUTED,SINGLE,36.76923431598,126.93442956802,77.9199,23.3000,WGS84,2.0791,1.8579,4.5905,"",0.000,0.000,7,6,6,6,0,02,00,01*28a47df6
#RANGEA,USB2_1,0,63.0,FINESTEERING,1996,34584.000,00000000,5103,12778;7,30,0,21544891.574,0.036,-113219166.490498,0.109,-13.259,50.0,232.900,18009c04,8,0,21335039.249,0.038,-112116360.777732,0.035,-1492.698,49.4,260.760,08009c24,28,0,22887037.908,0.282,-120272205.552386,0.062,2603.028,36.8,106.340,18009c44,7,0,21315629.709,0.035,-112014365.127898,0.104,-1677.903,50.3,297.820,08009ce4,10,0,24905253.135,1.400,-130878001.505120,0.090,-1309.519,37.8,1.750,08009504,1,0,20322858.945,0.032,-106797323.048884,0.035,1457.232,51.1,303.970,18009d44,11,0,20181590.325,0.045,-106054950.277957,0.035,591.677,48.0,294.490,08009d64*386a24e1
#SATXYZ2A,USB2_1,0,63.0,FINESTEERING,1996,34584.000,00000000,7513,12778;6,GPS,30,1857765.1811,22631845.9974,13653104.6559,26050.363,3.197,3.416,0.0,0.0,GPS,8,-15294679.4894,4902825.2092,21230607.6740,-29116.377,2.644,3.079,0.0,0.0,GPS,28,6922306.7119,13918005.8926,22154299.6571,211161.352,3.902,4.506,0.0,0.0,GPS,7,-4488323.6352,25328245.4597,5782731.4371,63190.885,3.184,3.371,0.0,0.0,GPS,1,-13610849.3466,20515405.4545,9425622.7276,-11783.277,2.423,2.613,0.0,0.0,GPS,11,-10319080.5455,18551956.8468,15490922.8245,-221087.198,2.307,2.465,0.0,0.0*71a9befa
#BESTPOSA,USB2_1,0,63.0,FINESTEERING,1996,34584.000,00000000,7145,12778;SOL_COMPUTED,SINGLE,36.76923398087,126.93442978312,78.0187,23.3000,WGS84,2.0878,1.8647,4.6116,"",0.000,0.000,7,6,6,6,0,02,00,01*7b710977
#RANGEA,USB2_1,0,69.5,FINESTEERING,1996,34585.000,00000000,5103,12778;6,30,0,21544894.452,0.043,-113219181.525134,0.072,-14.298,48.4,233.900,18009c04,8,0,21335324.138,0.041,-112117857.906548,0.037,-1496.643,49.0,261.760,08009c24,28,0,22886542.846,0.436,-120269604.308820,0.090,2602.130,38.4,107.340,18009c44,7,0,21315949.409,0.041,-112016045.146783,0.070,-1678.706,48.9,298.820,08009ce4,1,0,20322582.233,0.031,-106795868.843104,0.036,1454.219,51.2,304.970,18009d44,11,0,20181478.375,0.051,-106054361.989118,0.037,588.662,47.0,295.490,08009d64*57132dc2
#SATXYZ2A,USB2_1,0,69.5,FINESTEERING,1996,34585.000,00000000,7513,12778;6,GPS,30,1856887.4831,22633375.8049,13650672.3370,26050.361,3.197,3.416,0.0,0.0,GPS,8,-15296451.2463,4900815.9864,21229807.5549,-29116.377,2.644,3.079,0.0,0.0,GPS,28,6919671.9211,13918362.6912,22154920.6182,211161.355,3.901,4.505,0.0,0.0,GPS,7,-4488853.9090,25328820.6036,5779646.3126,63190.882,3.184,3.372,0.0,0.0,GPS,1,-13610703.7877,20514162.8595,9428523.4220,-11783.279,2.423,2.613,0.0,0.0,GPS,11,-10319602.3084,18549918.7318,15492929.3711,-221087.199,2.306,2.465,0.0,0.0*79e3d451
#BESTPOSA,USB2_1,0,69.5,FINESTEERING,1996,34585.000,00000000,7145,12778;SOL_COMPUTED,SINGLE,36.76923202731,126.93442763277,78.0902,23.3000,WGS84,2.1010,1.8775,4.6417,"",0.000,0.000,6,6,6,6,0,02,00,01*12c0b8dc
#RANGEA,USB2_1,0,62.5,FINESTEERING,1996,34586.000,00000000,5103,12778;6,30,0,21544897.315,0.043,-113219196.587615,0.049,-15.032,48.6,234.900,18009c04,8,0,21335609.190,0.036,-112119355.872296,0.031,-1497.513,50.0,262.760,08009c24,28,0,22886047.701,0.375,-120267002.355389,0.061,2601.996,41.6,108.340,18009c44,7,0,21316269.176,0.041,-112017725.506625,0.048,-1680.459,48.8,299.820,08009ce4,1,0,20322305.703,0.033,-106794415.688393,0.031,1453.291,50.8,305.970,18009d44,11,0,20181366.590,0.045,-106053774.516383,0.032,587.770,48.0,296.490,08009d64*6f70c19b
#SATXYZ2A,USB2_1,0,62.5,FINESTEERING,1996,34586.000,00000000,7513,12778;6,GPS,30,1856009.9782,22634905.3758,13648239.7257,26050.360,3.197,3.416,0.0,0.0,GPS,8,-15298223.0545,4898806.9446,21229006.9873,-29116.377,2.644,3.079,0.0,0.0,GPS,28,6917037.0800,13918719.6683,22155541.1337,211161.357,3.900,4.504,0.0,0.0,GPS,7,-4489384.0252,25329395.4085,5776561.0624,63190.880,3.184,3.372,0.0,0.0,GPS,1,-13610558.1864,20512919.9061,9431423.9112,-11783.280,2.423,2.613,0.0,0.0,GPS,11,-10320124.1968,18547880.3843,15494935.5773,-221087.200,2.306,2.465,0.0,0.0*7b91dc48
#BESTPOSA,USB2_1,0,62.5,FINESTEERING,1996,34586.000,00000000,7145,12778;SOL_COMPUTED,SINGLE,36.76923062659,126.93442299581,78.0188,23.3000,WGS84,2.1065,1.8807,4.6477,"",0.000,0.000,6,6,6,6,0,02,00,01*3ff19fc0
#RANGEA,USB2_1,0,61.5,FINESTEERING,1996,34587.000,00000000,5103,12778;6,30,0,21544900.893,0.038,-113219215.427865,0.042,-17.462,49.6,235.900,18009c04,8,0,21335894.810,0.040,-112120856.812924,0.034,-1500.596,49.0,263.760,08009c24,28,0,22885553.205,0.321,-120264403.747710,0.046,2600.200,44.0,109.340,18009c44,7,0,21316589.575,0.039,-112019409.246102,0.042,-1682.093,49.3,300.820,08009ce4,1,0,20322029.797,0.034,-106792965.779824,0.033,1450.236,50.6,306.970,18009d44,11,0,20181255.432,0.047,-106053190.379477,0.034,584.731,47.7,297.490,08009d64*a1510f44
#SATXYZ2A,USB2_1,0,61.5,FINESTEERING,1996,34587.000,00000000,7513,12778;6,GPS,30,1855132.6664,22636434.7101,13645806.8218,26050.359,3.197,3.416,0.0,0.0,GPS,8,-15299994.9138,4896798.0837,21228205.9712,-29116.378,2.644,3.080,0.0,0.0,GPS,28,6914402.1887,13919076.8238,22156161.2038,211161.360,3.900,4.503,0.0,0.0,GPS,7,-4489913.9837,25329969.8745,5773475.6866,63190.877,3.184,3.372,0.0,0.0,GPS,1,-13610412.5425,20511676.5942,9434324.1952,-11783.282,2.423,2.613,0.0,0.0,GPS,11,-10320646.2108,18545841.8041,15496941.4432,-221087.201,2.306,2.465,0.0,0.0*8f56b3be
#BESTPOSA,USB2_1,0,61.5,FINESTEERING,1996,34587.000,00000000,7145,12778;SOL_COMPUTED,SINGLE,36.76922839710,126.93441925319,77.9701,23.3000,WGS84,2.1095,1.8812,4.6492,"",0.000,0.000,6,6,6,6,0,02,00,01*a90ea2e2
#RANGEA,USB2_1,0,61.5,FINESTEERING,1996,34588.000,00000000,5103,12778;6,30,0,21544904.198,0.033,-113219232.810456,0.035,-18.213,50.8,236.900,18009c04,8,0,21336180.164,0.047,-112122356.382630,0.093,-1500.911,47.7,264.760,08009c24,28,0,22885058.403,0.269,-120261803.540269,0.039,2600.141,46.3,110.340,18009c44,7,0,21316909.726,0.035,-112021091.637393,0.037,-1683.864,50.3,301.820,08009ce4,1,0,20321753.592,0.035,-106791514.290681,0.034,1449.871,50.3,307.970,18009d44,11,0,20181143.912,0.048,-106052604.314736,0.091,584.720,47.6,298.490,08009d64*7d16d1a8
#SATXYZ2A,USB2_1,0,61.5,FINESTEERING,1996,34588.000,00000000,7513,12778;6,GPS,30,1854255.5478,22637963.8076,13643373.6255,26050.357,3.197,3.416,0.0,0.0,GPS,8,-15301766.8243,4894789.4039,21227404.5066,-29116.378,2.644,3.080,0.0,0.0,GPS,28,6911767.2472,13919434.1577,22156780.8284,211161.363,3.899,4.503,0.0,0.0,GPS,7,-4490443.7848,25330544.0015,5770390.1851,63190.875,3.184,3.373,0.0,0.0,GPS,1,-13610266.8563,20510432.9239,9437224.2739,-11783.283,2.422,2.613,0.0,0.0,GPS,11,-10321168.3503,18543802.9915,15498946.9687,-221087.202,2.306,2.465,0.0,0.0*2cd37aa2
#BESTPOSA,USB2_1,0,61.5,FINESTEERING,1996,34588.000,00000000,7145,12778;SOL_COMPUTED,SINGLE,36.76922650038,126.93441410714,78.4195,23.3000,WGS84,2.1145,1.8913,4.6856,"",0.000,0.000,6,6,6,6,0,02,00,01*6190eaf0
#RANGEA,USB2_1,0,62.5,FINESTEERING,1996,34589.000,00000000,5103,12778;6,30,0,21544907.894,0.038,-113219252.193969,0.084,-24.631,49.6,237.900,18009c04,8,0,21336465.726,0.046,-112123857.053862,0.084,-1502.320,47.9,265.760,08009c24,28,0,22884563.772,0.223,-120259204.330722,0.083,2594.770,45.6,111.340,18009c44,7,0,21317230.204,0.038,-112022775.781041,0.034,-1688.955,49.4,302.820,08009ce4,1,0,20321477.793,0.032,-106790064.974336,0.032,1445.929,51.0,308.970,18009d44,11,0,20181032.799,0.049,-106052020.469985,0.060,580.182,47.2,299.490,08009d64*4e0ca93e
#SATXYZ2A,USB2_1,0,62.5,FINESTEERING,1996,34589.000,00000000,7513,12778;6,GPS,30,1853378.6224,22639492.6683,13640940.1368,26050.356,3.197,3.416,0.0,0.0,GPS,8,-15303538.7859,4892780.9052,21226602.5935,-29116.378,2.644,3.080,0.0,0.0,GPS,28,6909132.2557,13919791.6702,22157400.0074,211161.366,3.898,4.502,0.0,0.0,GPS,7,-4490973.4283,25331117.7894,5767304.5581,63190.873,3.185,3.373,0.0,0.0,GPS,1,-13610121.1278,20509188.8951,9440124.1473,-11783.285,2.422,2.613,0.0,0.0,GPS,11,-10321690.6153,18541763.9464,15500952.1538,-221087.203,2.306,2.465,0.0,0.0*62fd688a
#BESTPOSA,USB2_1,0,62.5,FINESTEERING,1996,34589.000,00000000,7145,12778;SOL_COMPUTED,SINGLE,36.76922440325,126.93440991094,78.3949,23.3000,WGS84,2.1251,1.9132,4.7381,"",0.000,0.000,6,6,6,6,0,02,00,01*5e4fb644
#RANGEA,USB2_1,0,70.5,FINESTEERING,1996,34590.000,00000000,5103,12778;6,30,0,21544911.740,0.039,-113219272.442889,0.056,-19.829,49.3,238.900,18009c04,8,0,21336750.885,0.050,-112125355.639619,0.056,-1499.057,47.2,266.760,08009c24,28,0,22884069.131,0.175,-120256605.073674,0.056,2600.251,46.4,112.340,18009c44,7,0,21317550.804,0.040,-112024460.623837,0.031,-1683.853,49.1,303.820,08009ce4,1,0,20321201.925,0.032,-106788615.325644,0.029,1449.684,51.0,309.970,18009d44,11,0,20180921.624,0.043,-106051436.278003,0.043,584.256,48.4,300.490,08009d64*6df627cf
#SATXYZ2A,USB2_1,0,70.5,FINESTEERING,1996,34590.000,00000000,7513,12778;6,GPS,30,1852501.8900,22641021.2922,13638506.3557,26050.354,3.197,3.416,0.0,0.0,GPS,8,-15305310.7985,4890772.5875,21225800.2320,-29116.378,2.644,3.080,0.0,0.0,GPS,28,6906497.2142,13920149.3611,22158018.7409,211161.369,3.897,4.501,0.0,0.0,GPS,7,-4491502.9143,25331691.2383,5764218.8057,63190.870,3.185,3.373,0.0,0.0,GPS,1,-13609975.3570,20507944.5080,9443023.8152,-11783.286,2.422,2.612,0.0,0.0,GPS,11,-10322213.0060,18539724.6688,15502956.9984,-221087.204,2.306,2.465,0.0,0.0*f83f6798
#BESTPOSA,USB2_1,0,70.5,FINESTEERING,1996,34590.000,00000000,7145,12778;SOL_COMPUTED,SINGLE,36.76922295002,126.93441011793,78.4056,23.3000,WGS84,2.1313,1.9248,4.7549,"",0.000,0.000,6,6,6,6,0,02,00,01*26f7cd23
#RANGEA,USB2_1,0,69.0,FINESTEERING,1996,34591.000,00000000,5103,12778;6,30,0,21544915.653,0.037,-113219293.018395,0.042,-19.248,49.7,239.900,18009c04,8,0,21337036.451,0.041,-112126856.314742,0.040,-1501.961,49.0,267.760,08009c24,28,0,22883574.554,0.128,-120254006.102704,0.041,2599.931,47.2,113.340,18009c44,7,0,21317871.426,0.038,-112026145.514727,0.032,-1683.066,49.7,304.820,08009ce4,1,0,20320926.265,0.032,-106787166.736245,0.028,1449.133,51.0,310.970,18009d44,11,0,20180810.679,0.042,-106050853.246339,0.034,583.526,48.7,301.490,08009d64*c5ebf467
#SATXYZ2A,USB2_1,0,69.0,FINESTEERING,1996,34591.000,00000000,7513,12778;6,GPS,30,1851625.3507,22642549.6791,13636072.2824,26050.353,3.196,3.416,0.0,0.0,GPS,8,-15307082.8621,4888764.4510,21224997.4221,-29116.378,2.644,3.080,0.0,0.0,GPS,28,6903862.1227,13920507.2305,22158637.0289,211161.372,3.897,4.500,0.0,0.0,GPS,7,-4492032.2430,25332264.3480,5761132.9278,63190.868,3.185,3.374,0.0,0.0,GPS,1,-13609829.5439,20506699.7624,9445923.2776,-11783.288,2.422,2.612,0.0,0.0,GPS,11,-10322735.5223,18537685.1589,15504961.5024,-221087.205,2.305,2.465,0.0,0.0*8770e7be
#BESTPOSA,USB2_1,0,69.0,FINESTEERING,1996,34591.000,00000000,7145,12778;SOL_COMPUTED,SINGLE,36.76921991848,126.93440680898,78.3321,23.3000,WGS84,2.1316,1.9252,4.7520,"",0.000,0.000,6,6,6,6,0,02,00,01*1e9cabaa
#RANGEA,USB2_1,0,62.0,FINESTEERING,1996,34592.000,00000000,5103,12778;6,30,0,21544918.924,0.043,-113219310.236085,0.085,-12.562,48.6,240.900,18009c04,8,0,21337321.791,0.041,-112128355.836759,0.037,-1496.080,48.8,268.760,08009c24,28,0,22883079.324,0.097,-120251403.678174,0.038,2606.989,44.9,114.340,18009c44,7,0,21318191.431,0.036,-112027827.155869,0.036,-1677.015,49.9,305.820,08009ce4,1,0,20320650.195,0.031,-106785715.940371,0.034,1453.992,51.3,311.970,18009d44,11,0,20180699.285,0.043,-106050267.843083,0.035,589.082,48.4,302.490,08009d64*9abf40b2
#SATXYZ2A,USB2_1,0,62.0,FINESTEERING,1996,34592.000,00000000,7513,12778;6,GPS,30,1850749.0044,22644077.8292,13633637.9168,26050.352,3.196,3.416,0.0,0.0,GPS,8,-15308854.9766,4886756.4957,21224194.1637,-29116.379,2.644,3.081,0.0,0.0,GPS,28,6901226.9813,13920865.2784,22159254.8713,211161.375,3.896,4.499,0.0,0.0,GPS,7,-4492561.4142,25332837.1187,5758046.9246,63190.865,3.185,3.374,0.0,0.0,GPS,1,-13609683.6887,20505454.6584,9448822.5344,-11783.289,2.421,2.612,0.0,0.0,GPS,11,-10323258.1643,18535645.4167,15506965.6659,-221087.206,2.305,2.465,0.0,0.0*4a593672
#BESTPOSA,USB2_1,0,62.0,FINESTEERING,1996,34592.000,00000000,7145,12778;SOL_COMPUTED,SINGLE,36.76921629320,126.93439862079,78.3515,23.3000,WGS84,2.1326,1.9257,4.7456,"",0.000,0.000,6,6,6,6,0,02,00,01*95aaf500
#RANGEA,USB2_1,0,62.0,FINESTEERING,1996,34593.000,00000000,5103,12778;6,30,0,21544922.337,0.040,-113219328.145844,0.059,-19.081,49.1,241.900,18009c04,8,0,21337607.226,0.039,-112129855.831128,0.036,-1501.103,49.2,269.760,08009c24,28,0,22882584.139,0.062,-120248801.527963,0.036,2601.784,46.3,115.340,18009c44,7,0,21318511.558,0.038,-112029509.432736,0.038,-1683.390,49.6,306.820,08009ce4,1,0,20320374.237,0.031,-106784265.772290,0.034,1448.143,51.2,312.970,18009d44,11,0,20180587.995,0.044,-106049683.000096,0.035,582.561,48.3,303.490,08009d64*12080f8b
#SATXYZ2A,USB2_1,0,62.0,FINESTEERING,1996,34593.000,00000000,7513,12778;6,GPS,30,1849872.8512,22645605.7423,13631203.2591,26050.350,3.196,3.416,0.0,0.0,GPS,8,-15310627.1420,4884748.7216,21223390.4570,-29116.379,2.644,3.081,0.0,0.0,GPS,28,6898591.7902,13921223.5047,22159872.2682,211161.378,3.895,4.499,0.0,0.0,GPS,7,-4493090.4282,25333409.5501,5754960.7961,63190.863,3.185,3.374,0.0,0.0,GPS,1,-13609537.7913,20504209.1961,9451721.5857,-11783.291,2.421,2.612,0.0,0.0,GPS,11,-10323780.9320,18533605.4421,15508969.4888,-221087.208,2.305,2.465,0.0,0.0*78b1a781
#BESTPOSA,USB2_1,0,62.0,FINESTEERING,1996,34593.000,00000000,7145,12778;SOL_COMPUTED,SINGLE,36.76921242043,126.93439006560,78.4655,23.3000,WGS84,2.1357,1.9277,4.7435,"",0.000,0.000,6,6,6,6,0,02,00,01*19b85055
#RANGEA,USB2_1,0,58.0,FINESTEERING,1996,34594.000,00000000,5103,12778;6,30,0,21544926.171,0.043,-113219348.395007,0.045,-22.453,48.5,242.900,18009c04,8,0,21337892.852,0.037,-112131356.780051,0.035,-1502.137,49.7,270.760,08009c24,28,0,22882089.200,0.061,-120246200.621924,0.035,2598.751,46.1,116.340,18009c44,7,0,21318832.114,0.038,-112031193.952208,0.038,-1685.241,49.6,307.820,08009ce4,1,0,20320098.702,0.032,-106782817.823945,0.034,1447.248,50.9,313.970,18009d44,11,0,20180477.087,0.045,-106049100.181872,0.035,581.686,48.1,304.490,08009d64*cdf0d088
#SATXYZ2A,USB2_1,0,58.0,FINESTEERING,1996,34594.000,00000000,7513,12778;6,GPS,30,1848996.8910,22647133.4183,13628768.3092,26050.349,3.196,3.416,0.0,0.0,GPS,8,-15312399.3583,4882741.1287,21222586.3019,-29116.379,2.644,3.081,0.0,0.0,GPS,28,6895956.5493,13921581.9096,22160489.2194,211161.381,3.895,4.498,0.0,0.0,GPS,7,-4493619.2848,25333981.6423,5751874.5424,63190.860,3.185,3.375,0.0,0.0,GPS,1,-13609391.8519,20502963.3754,9454620.4312,-11783.292,2.421,2.612,0.0,0.0,GPS,11,-10324303.8253,18531565.2354,15510972.9710,-221087.209,2.305,2.465,0.0,0.0*c5eca873
#BESTPOSA,USB2_1,0,58.0,FINESTEERING,1996,34594.000,00000000,7145,12778;SOL_COMPUTED,SINGLE,36.76920928234,126.93438284872,78.4187,23.3000,WGS84,2.1363,1.9258,4.7386,"",0.000,0.000,6,6,6,6,0,02,00,01*6b537004
#RANGEA,USB2_1,0,58.0,FINESTEERING,1996,34595.000,00000000,5103,12778;6,30,0,21544930.075,0.037,-113219368.903228,0.037,-19.003,49.8,243.900,18009c04,8,0,21338178.661,0.041,-112132858.719096,0.034,-1500.735,49.0,271.760,08009c24,28,0,22881594.328,0.061,-120243600.036467,0.033,2602.388,46.1,117.340,18009c44,7,0,21319152.677,0.040,-112032878.521190,0.035,-1682.897,49.2,308.820,08009ce4,1,0,20319823.240,0.032,-106781370.270015,0.035,1448.539,51.0,314.970,18009d44,11,0,20180366.277,0.045,-106048517.862302,0.034,583.431,48.1,305.490,08009d64*6270981a
#SATXYZ2A,USB2_1,0,58.0,FINESTEERING,1996,34595.000,00000000,7513,12778;6,GPS,30,1848121.1238,22648660.8572,13626333.0672,26050.347,3.196,3.416,0.0,0.0,GPS,8,-15314171.6252,4880733.7172,21221781.6984,-29116.379,2.644,3.081,0.0,0.0,GPS,28,6893321.2587,13921940.4929,22161105.7251,211161.383,3.894,4.497,0.0,0.0,GPS,7,-4494147.9841,25334553.3953,5748788.1636,63190.858,3.185,3.375,0.0,0.0,GPS,1,-13609245.8705,20501717.1964,9457519.0711,-11783.294,2.420,2.612,0.0,0.0,GPS,11,-10324826.8444,18529524.7965,15512976.1124,-221087.210,2.305,2.465,0.0,0.0*99dcc01a
#BESTPOSA,USB2_1,0,58.0,FINESTEERING,1996,34595.000,00000000,7145,12778;SOL_COMPUTED,SINGLE,36.76920490623,126.93437390976,78.4508,23.3000,WGS84,2.1364,1.9232,4.7339,"",0.000,0.000,6,6,6,6,0,02,00,01*c88f6524
#RANGEA,USB2_1,0,63.0,FINESTEERING,1996,34596.000,00000000,5103,12778;6,30,0,21544933.855,0.041,-113219388.790364,0.036,-25.426,48.9,244.900,18009c04,8,0,21338464.336,0.039,-112134360.007970,0.034,-1506.195,49.3,272.760,08009c24,28,0,22881099.236,0.054,-120240998.346877,0.034,2597.403,47.0,118.340,18009c44,7,0,21319473.088,0.037,-112034562.258998,0.035,-1688.624,49.9,309.820,08009ce4,1,0,20319547.670,0.031,-106779922.134049,0.035,1443.347,51.2,315.970,18009d44,11,0,20180255.348,0.044,-106047934.967696,0.034,577.805,48.3,306.490,08009d64*55c85148
#SATXYZ2A,USB2_1,0,63.0,FINESTEERING,1996,34596.000,00000000,7513,12778;6,GPS,30,1847245.5496,22650188.0589,13623897.5332,26050.346,3.196,3.416,0.0,0.0,GPS,8,-15315943.9430,4878726.4869,21220976.6466,-29116.379,2.644,3.081,0.0,0.0,GPS,28,6890685.9184,13922299.2547,22161721.7852,211161.386,3.893,4.496,0.0,0.0,GPS,7,-4494676.5263,25335124.8090,5745701.6597,63190.855,3.185,3.375,0.0,0.0,GPS,1,-13609099.8471,20500470.6591,9460417.5051,-11783.295,2.420,2.611,0.0,0.0,GPS,11,-10325349.9892,18527484.1255,15514978.9132,-221087.211,2.304,2.465,0.0,0.0*24bf08d1
#BESTPOSA,USB2_1,0,63.0,FINESTEERING,1996,34596.000,00000000,7145,12778;SOL_COMPUTED,SINGLE,36.76919995678,126.93436436460,78.4490,23.3000,WGS84,2.1355,1.9195,4.7266,"",0.000,0.000,6,6,6,6,0,02,00,01*267e9ecb
#RANGEA,USB2_1,0,65.0,FINESTEERING,1996,34597.000,00000000,5103,12778;6,30,0,21544938.407,0.041,-113219412.709279,0.074,-25.586,49.0,245.900,18009c04,8,0,21338750.721,0.041,-112135864.929540,0.033,-1507.211,49.0,273.760,08009c24,28,0,22880604.837,0.054,-120238400.272216,0.032,2595.307,47.0,119.340,18009c44,7,0,21319794.272,0.040,-112036250.089896,0.033,-1690.163,49.0,310.820,08009ce4,1,0,20319272.878,0.032,-106778478.058446,0.032,1442.099,51.1,316.970,18009d44,11,0,20180145.179,0.045,-106047356.047393,0.032,576.651,48.1,307.490,08009d64*ad638527
#SATXYZ2A,USB2_1,0,65.0,FINESTEERING,1996,34597.000,00000000,7513,12778;6,GPS,30,1846370.1683,22651715.0235,13621461.7072,26050.344,3.196,3.416,0.0,0.0,GPS,8,-15317716.3113,4876719.4381,21220171.1464,-29116.379,2.644,3.082,0.0,0.0,GPS,28,6888050.5287,13922658.1950,22162337.3996,211161.389,3.892,4.496,0.0,0.0,GPS,7,-4495204.9112,25335695.8834,5742615.0308,63190.853,3.186,3.375,0.0,0.0,GPS,1,-13608953.7818,20499223.7634,9463315.7332,-11783.297,2.420,2.611,0.0,0.0,GPS,11,-10325873.2598,18525443.2224,15516981.3731,-221087.212,2.304,2.465,0.0,0.0*679e05f8
#BESTPOSA,USB2_1,0,65.0,FINESTEERING,1996,34597.000,00000000,7145,12778;SOL_COMPUTED,SINGLE,36.76919503736,126.93435482266,78.4841,23.3000,WGS84,2.1357,1.9200,4.7161,"",0.000,0.000,6,6,6,6,0,02,00,01*14ae2721
#RANGEA,USB2_1,0,64.5,FINESTEERING,1996,34598.000,00000000,5103,12778;6,30,0,21544943.355,0.044,-113219438.711528,0.054,-27.889,48.3,246.900,18009c04,8,0,21339037.232,0.038,-112137370.566995,0.033,-1506.606,49.6,274.760,08009c24,28,0,22880110.678,0.066,-120235803.498996,0.035,2596.305,45.2,120.340,18009c44,7,0,21320115.735,0.040,-112037939.401206,0.092,-1690.360,49.1,311.820,08009ce4,1,0,20318998.341,0.035,-106777035.331799,0.034,1441.591,50.2,317.970,18009d44,11,0,20180035.288,0.044,-106046778.529082,0.034,576.188,48.2,308.490,08009d64*d7d8f5fa
#SATXYZ2A,USB2_1,0,64.5,FINESTEERING,1996,34598.000,00000000,7513,12778;6,GPS,30,1845494.9800,22653241.7507,13619025.5893,26050.343,3.195,3.416,0.0,0.0,GPS,8,-15319488.7303,4874712.5707,21219365.1980,-29116.380,2.644,3.082,0.0,0.0,GPS,28,6885415.0894,13923017.3138,22162952.5685,211161.392,3.892,4.495,0.0,0.0,GPS,7,-4495733.1390,25336266.6185,5739528.2769,63190.850,3.186,3.376,0.0,0.0,GPS,1,-13608807.6747,20497976.5095,9466213.7554,-11783.298,2.420,2.611,0.0,0.0,GPS,11,-10326396.6562,18523402.0873,15518983.4921,-221087.213,2.304,2.465,0.0,0.0*93020dcc
#BESTPOSA,USB2_1,0,64.5,FINESTEERING,1996,34598.000,00000000,7145,12778;SOL_COMPUTED,SINGLE,36.76918952251,126.93434691928,78.4673,23.3000,WGS84,2.1384,1.9196,4.7166,"",0.000,0.000,6,6,6,6,0,02,00,01*729d749a
#RANGEA,USB2_1,0,62.5,FINESTEERING,1996,34599.000,00000000,5103,12778;6,30,0,21544948.612,0.036,-113219466.343528,0.046,-31.011,50.0,247.900,18009c04,8,0,21339323.923,0.037,-112138877.123874,0.034,-1510.026,49.8,275.760,08009c24,28,0,22879616.828,0.050,-120233208.288712,0.037,2592.104,47.6,121.340,18009c44,7,0,21320437.436,0.037,-112039629.952880,0.076,-1693.326,49.8,312.820,08009ce4,1,0,20318724.012,0.032,-106775593.702042,0.036,1437.704,50.9,318.970,18009d44,11,0,20179925.630,0.043,-106046202.260913,0.036,572.562,48.4,309.490,08009d64*c8b7e9ae
#SATXYZ2A,USB2_1,0,62.5,FINESTEERING,1996,34599.000,00000000,7513,12778;6,GPS,30,1844619.9846,22654768.2407,13616589.1796,26050.342,3.195,3.416,0.0,0.0,GPS,8,-15321261.1998,4872705.8847,21218558.8012,-29116.380,2.644,3.082,0.0,0.0,GPS,28,6882779.6008,13923376.6111,22163567.2917,211161.395,3.891,4.494,0.0,0.0,GPS,7,-4496261.2097,25336837.0142,5736441.3982,63190.848,3.186,3.376,0.0,0.0,GPS,1,-13608661.5258,20496728.8972,9469111.5716,-11783.300,2.419,2.611,0.0,0.0,GPS,11,-10326920.1784,18521360.7202,15520985.2703,-221087.214,2.304,2.465,0.0,0.0*3ec983c0
#BESTPOSA,USB2_1,0,62.5,FINESTEERING,1996,34599.000,00000000,7145,12778;SOL_COMPUTED,SINGLE,36.76918288937,126.93433999764,78.4702,23.3000,WGS84,2.1452,1.9185,4.7301,"",0.000,0.000,6,6,6,6,0,02,00,01*47cecbfd
#RANGEA,USB2_1,0,62.5,FINESTEERING,1996,34600.000,00000000,5103,12778;6,30,0,21544954.255,0.042,-113219495.974402,0.040,-31.145,48.7,248.900,18009c04,8,0,21339611.031,0.038,-112140385.931455,0.030,-1509.730,49.6,276.760,08009c24,28,0,22879123.305,0.066,-120230614.827313,0.069,2592.771,45.1,122.340,18009c44,7,0,21320759.478,0.045,-112041322.265204,0.057,-1693.651,48.1,313.820,08009ce4,1,0,20318450.078,0.032,-106774154.156436,0.035,1438.514,51.0,319.970,18009d44,11,0,20179816.401,0.044,-106045628.237636,0.034,572.718,48.3,310.490,08009d64*32978be6
#SATXYZ2A,USB2_1,0,62.5,FINESTEERING,1996,34600.000,00000000,7513,12778;6,GPS,30,1843745.1820,22656294.4933,13614152.4780,26050.340,3.195,3.416,0.0,0.0,GPS,8,-15323033.7198,4870699.3803,21217751.9562,-29116.380,2.644,3.082,0.0,0.0,GPS,28,6880144.0627,13923736.0869,22164181.5692,211161.398,3.890,4.493,0.0,0.0,GPS,7,-4496789.1234,25337407.0704,5733354.3947,63190.845,3.186,3.376,0.0,0.0,GPS,1,-13608515.3351,20495480.9267,9472009.1818,-11783.301,2.419,2.611,0.0,0.0,GPS,11,-10327443.8265,18519319.1212,15522986.7075,-221087.215,2.304,2.465,0.0,0.0*055728db
#BESTPOSA,USB2_1,0,62.5,FINESTEERING,1996,34600.000,00000000,7145,12778;SOL_COMPUTED,SINGLE,36.76917511622,126.93433229260,78.3422,23.3000,WGS84,2.1488,1.9160,4.7321,"",0.000,0.000,6,6,6,6,0,02,00,01*53c01720
#RANGEA,USB2_1,0,64.0,FINESTEERING,1996,34601.000,00000000,5103,12778;6,30,0,21544960.244,0.038,-113219527.418609,0.038,-28.213,49.5,249.900,18009c04,8,0,21339898.221,0.037,-112141895.141383,0.033,-1505.279,49.8,277.760,08009c24,28,0,22878629.988,0.055,-120228022.464299,0.099,2596.248,46.7,123.340,18009c44,7,0,21321081.800,0.060,-112043016.083985,0.046,-1691.269,45.6,314.820,08009ce4,1,0,20318176.351,0.032,-106772715.700547,0.036,1441.881,51.1,320.970,18009d44,11,0,20179707.362,0.042,-106045055.221377,0.034,576.858,48.8,311.490,08009d64*0221e960
#SATXYZ2A,USB2_1,0,64.0,FINESTEERING,1996,34601.000,00000000,7513,12778;6,GPS,30,1842870.5724,22657820.5085,13611715.4846,26050.339,3.195,3.416,0.0,0.0,GPS,8,-15324806.2902,4868693.0574,21216944.6630,-29116.380,2.644,3.082,0.0,0.0,GPS,28,6877508.4754,13924095.7412,22164795.4011,211161.401,3.889,4.493,0.0,0.0,GPS,7,-4497316.8800,25337976.7872,5730267.2664,63190.843,3.186,3.377,0.0,0.0,GPS,1,-13608369.1028,20494232.5979,9474906.5858,-11783.303,2.419,2.611,0.0,0.0,GPS,11,-10327967.6004,18517277.2903,15524987.8037,-221087.216,2.304,2.465,0.0,0.0*9c95be20
#BESTPOSA,USB2_1,0,64.0,FINESTEERING,1996,34601.000,00000000,7145,12778;SOL_COMPUTED,SINGLE,36.76916726664,126.93432620433,78.3702,23.3000,WGS84,2.1514,1.9136,4.7310,"",0.000,0.000,6,6,6,6,0,02,00,01*bf2cc42a
#RANGEA,USB2_1,0,65.0,FINESTEERING,1996,34602.000,00000000,5103,12778;5,30,0,21544965.409,0.035,-113219554.537080,0.034,-26.852,50.2,250.900,18009c04,8,0,21340184.463,0.037,-112143399.351537,0.032,-1503.378,49.7,278.760,08009c24,7,0,21321403.331,0.101,-112044705.653396,0.126,-1690.935,41.0,315.820,08009ce4,1,0,20317901.757,0.033,-106771272.675904,0.031,1443.280,50.8,321.970,18009d44,11,0,20179597.490,0.042,-106044477.787801,0.030,577.658,48.7,312.490,08009d64*027aa859
#SATXYZ2A,USB2_1,0,65.0,FINESTEERING,1996,34602.000,00000000,7513,12778;5,GPS,30,1841996.1555,22659346.2862,13609278.1995,26050.337,3.195,3.416,0.0,0.0,GPS,8,-15326578.9111,4866686.9160,21216136.9215,-29116.380,2.643,3.083,0.0,0.0,GPS,7,-4497844.4796,25338546.1645,5727180.0135,63190.840,3.186,3.377,0.0,0.0,GPS,1,-13608222.8288,20492983.9109,9477803.7837,-11783.304,2.419,2.611,0.0,0.0,GPS,11,-10328491.5002,18515235.2276,15526988.5589,-221087.217,2.303,2.465,0.0,0.0*93f62e66
#BESTPOSA,USB2_1,0,65.0,FINESTEERING,1996,34602.000,00000000,7145,12778;SOL_COMPUTED,SINGLE,36.76915884078,126.93432089189,78.2903,23.3000,WGS84,2.1677,1.9207,4.7511,"",0.000,0.000,5,5,5,5,0,02,00,01*e12a5cf8
#RANGEA,USB2_1,0,60.5,FINESTEERING,1996,34603.000,00000000,5103,12778;4,30,0,21544970.574,0.035,-113219581.681359,0.033,-27.180,50.2,251.900,18009c04,8,0,21340470.584,0.039,-112144902.955645,0.034,-1502.692,49.2,279.760,08009c24,1,0,20317627.088,0.033,-106769829.257810,0.032,1444.152,50.8,322.970,18009d44,11,0,20179487.527,0.043,-106043899.931676,0.033,578.231,48.5,313.490,08009d64*ee01e24b
#SATXYZ2A,USB2_1,0,60.5,FINESTEERING,1996,34603.000,00000000,7513,12778;4,GPS,30,1841121.9316,22660871.8263,13606840.6228,26050.336,3.195,3.416,0.0,0.0,GPS,8,-15328351.5822,4864680.9562,21215328.7317,-29116.380,2.643,3.083,0.0,0.0,GPS,1,-13608076.5132,20491734.8657,9480700.7753,-11783.306,2.418,2.610,0.0,0.0,GPS,11,-10329015.5259,18513192.9331,15528988.9730,-221087.218,2.303,2.465,0.0,0.0*1c10ae7d
#BESTPOSA,USB2_1,0,60.5,FINESTEERING,1996,34603.000,00000000,7145,12778;SOL_COMPUTED,SINGLE,36.76914968364,126.93431604988,78.2624,23.3000,WGS84,2.3088,2.0258,4.9749,"",0.000,0.000,4,4,4,4,0,02,00,01*7ae2670a
#RANGEA,USB2_1,0,60.0,FINESTEERING,1996,34604.000,00000000,5103,12778;6,30,0,21544975.838,0.037,-113219609.334149,0.031,-30.066,49.8,252.900,18009c04,8,0,21340756.486,0.044,-112146405.377974,0.029,-1503.545,48.3,280.760,08009c24,28,0,22877147.742,9.677,-120220224.311904,0.094,2594.967,48.7,0.954,08009444,7,0,21322047.022,12.247,-112048112.578124,0.116,-1692.767,40.3,0.260,080094e4,1,0,20317352.376,0.034,-106768385.632922,0.033,1441.548,50.6,323.970,18009d44,11,0,20179377.532,0.043,-106043321.919974,0.032,575.988,48.4,314.490,08009d64*c99d29b3
#SATXYZ2A,USB2_1,0,60.0,FINESTEERING,1996,34604.000,00000000,7513,12778;6,GPS,30,1840247.9004,22662397.1289,13604402.7544,26050.335,3.195,3.416,0.0,0.0,GPS,8,-15330124.3037,4862675.1781,21214520.0938,-29116.381,2.643,3.083,0.0,0.0,GPS,28,6869601.4184,13925175.7751,22166634.2227,211161.409,3.888,4.492,0.0,0.0,GPS,7,-4498899.2082,25339683.9006,5721005.1339,63190.835,3.186,3.378,0.0,0.0,GPS,1,-13607930.1562,20490485.4622,9483597.5606,-11783.307,2.418,2.610,0.0,0.0,GPS,11,-10329539.6776,18511150.4069,15530989.0460,-221087.219,2.303,2.465,0.0,0.0*0e5b2b11
#BESTPOSA,USB2_1,0,60.0,FINESTEERING,1996,34604.000,00000000,7145,12778;SOL_COMPUTED,SINGLE,36.76914022945,126.93431363276,78.1335,23.3000,WGS84,2.3419,2.0493,5.0107,"",0.000,0.000,6,6,6,6,0,02,00,01*32021a5a
#RANGEA,USB2_1,0,60.0,FINESTEERING,1996,34605.000,00000000,5103,12778;6,30,0,21544981.760,0.041,-113219640.430579,0.031,-31.484,49.0,253.900,18009c04,8,0,21341042.598,0.043,-112147908.926860,0.027,-1503.361,48.4,281.760,08009c24,28,0,22876653.138,0.916,-120217629.337464,0.061,2595.320,47.8,1.954,08009444,7,0,21322368.232,1.355,-112049805.678712,0.151,-1693.048,37.3,1.260,080094e4,1,0,20317078.147,0.033,-106766944.527959,0.031,1440.294,50.7,324.970,18009d44,11,0,20179267.999,0.044,-106042746.334397,0.030,575.248,48.3,315.490,08009d64*db73d932
#SATXYZ2A,USB2_1,0,60.0,FINESTEERING,1996,34605.000,00000000,7513,12778;6,GPS,30,1839374.0620,22663922.1939,13601964.5945,26050.333,3.195,3.417,0.0,0.0,GPS,8,-15331897.0754,4860669.5817,21213711.0077,-29116.381,2.643,3.084,0.0,0.0,GPS,28,6866965.6346,13925536.1434,22167246.2718,211161.412,3.887,4.491,0.0,0.0,GPS,7,-4499426.3371,25340252.2592,5717917.5073,63190.833,3.187,3.379,0.0,0.0,GPS,1,-13607783.7576,20489235.7006,9486494.1395,-11783.309,2.418,2.611,0.0,0.0,GPS,11,-10330063.9552,18509107.6490,15532988.7778,-221087.220,2.303,2.465,0.0,0.0*a19a3111
#BESTPOSA,USB2_1,0,60.0,FINESTEERING,1996,34605.000,00000000,7145,12778;SOL_COMPUTED,SINGLE,36.76913152579,126.93431429090,78.1426,23.3000,WGS84,2.3581,2.0555,5.0328,"",0.000,0.000,6,6,6,6,0,02,00,01*ad5a6feb
#RANGEA,USB2_1,0,63.5,FINESTEERING,1996,34606.000,00000000,5103,12778;6,30,0,21544988.002,0.046,-113219673.202903,0.034,-33.989,47.8,254.900,18009c04,8,0,21341328.723,0.056,-112149412.504662,0.032,-1504.121,46.2,282.760,08009c24,28,0,22876159.545,0.882,-120215035.220540,0.047,2593.605,45.8,2.954,08009444,7,0,21322691.165,1.321,-112051496.955388,0.104,-1695.148,36.3,0.130,080094e4,1,0,20316804.112,0.035,-106765504.478562,0.034,1439.171,50.2,325.970,18009d44,11,0,20179158.666,0.044,-106042171.776416,0.033,574.101,48.2,316.490,08009d64*dfd3bd37
#SATXYZ2A,USB2_1,0,63.5,FINESTEERING,1996,34606.000,00000000,7513,12778;6,GPS,30,1838500.4164,22665447.0211,13599526.1431,26050.332,3.194,3.417,0.0,0.0,GPS,8,-15333669.8972,4858664.1670,21212901.4734,-29116.381,2.643,3.084,0.0,0.0,GPS,28,6864329.8018,13925896.6902,22167857.8752,211161.415,3.886,4.490,0.0,0.0,GPS,7,-4499953.3093,25340820.2782,5714829.7564,63190.830,3.187,3.379,0.0,0.0,GPS,1,-13607637.3177,20487985.5807,9489390.5120,-11783.310,2.417,2.610,0.0,0.0,GPS,11,-10330588.3589,18507064.6595,15534988.1684,-221087.221,2.303,2.465,0.0,0.0*caba55d5
#BESTPOSA,USB2_1,0,63.5,FINESTEERING,1996,34606.000,00000000,7145,12778;SOL_COMPUTED,SINGLE,36.76912231807,126.93431740299,78.0982,23.3000,WGS84,2.3428,2.0363,5.0316,"",0.000,0.000,6,5,5,5,0,02,00,01*6017c5db
#RANGEA,USB2_1,0,68.0,FINESTEERING,1996,34607.000,00000000,5103,12778;6,30,0,21544993.688,0.037,-113219703.172671,0.034,-25.655,49.8,255.900,18009c04,8,0,21341614.067,0.063,-112150911.949683,0.034,-1494.414,45.1,283.760,08009c24,28,0,22875665.383,0.775,-120212437.611668,0.038,2601.633,48.9,3.954,08009444,7,0,21323012.497,0.713,-112053188.199410,0.097,-1687.683,40.2,1.130,080094e4,1,0,20316529.459,0.035,-106764061.162494,0.032,1448.379,50.3,326.970,18009d44,11,0,20179048.681,0.046,-106041593.818278,0.031,582.760,47.9,317.490,08009d64*4456cc68
#SATXYZ2A,USB2_1,0,68.0,FINESTEERING,1996,34607.000,00000000,7513,12778;6,GPS,30,1837626.9635,22666971.6107,13597087.4002,26050.330,3.194,3.416,0.0,0.0,GPS,8,-15335442.7692,4856658.9341,21212091.4910,-29116.381,2.643,3.084,0.0,0.0,GPS,28,6861693.9201,13926257.4156,22168469.0329,211161.418,3.885,4.488,0.0,0.0,GPS,7,-4500480.1246,25341387.9576,5711741.8811,63190.828,3.187,3.379,0.0,0.0,GPS,1,-13607490.8364,20486735.1027,9492286.6779,-11783.312,2.417,2.610,0.0,0.0,GPS,11,-10331112.8885,18505021.4385,15536987.2178,-221087.222,2.303,2.465,0.0,0.0*05557fd3
#BESTPOSA,USB2_1,0,68.0,FINESTEERING,1996,34607.000,00000000,7145,12778;SOL_COMPUTED,SINGLE,36.76911390988,126.93432165244,78.1486,23.3000,WGS84,2.3583,2.0436,5.0516,"",0.000,0.000,6,6,6,6,0,02,00,01*162530c0
#RANGEA,USB2_1,0,64.5,FINESTEERING,1996,34608.000,00000000,5103,12778;6,30,0,21544999.097,0.039,-113219731.617520,0.033,-30.834,49.3,256.900,18009c04,8,0,21341898.925,0.094,-112152408.761731,0.104,-1499.928,41.7,284.760,08009c24,28,0,22875170.792,0.728,-120209837.765721,0.034,2597.747,47.9,4.954,08009444,7,0,21323333.655,0.706,-112054877.528077,0.083,-1691.922,39.0,2.130,080094e4,1,0,20316254.488,0.034,-106762616.156381,0.034,1443.106,50.5,327.970,18009d44,11,0,20178938.356,0.043,-106041014.047841,0.033,577.952,48.5,318.490,08009d64*12efe7a9
#SATXYZ2A,USB2_1,0,64.5,FINESTEERING,1996,34608.000,00000000,7513,12778;6,GPS,30,1836753.7034,22668495.9624,13594648.3659,26050.329,3.194,3.416,0.0,0.0,GPS,8,-15337215.6912,4854653.8830,21211281.0604,-29116.381,2.643,3.084,0.0,0.0,GPS,28,6859057.9895,13926618.3194,22169079.7449,211161.421,3.884,4.487,0.0,0.0,GPS,7,-4501006.7833,25341955.2973,5708653.8815,63190.825,3.187,3.379,0.0,0.0,GPS,1,-13607344.3138,20485484.2665,9495182.6374,-11783.313,2.417,2.609,0.0,0.0,GPS,11,-10331637.5442,18502977.9859,15538985.9258,-221087.223,2.302,2.464,0.0,0.0*74cdf038
#BESTPOSA,USB2_1,0,64.5,FINESTEERING,1996,34608.000,00000000,7145,12778;SOL_COMPUTED,SINGLE,36.76910563018,126.93432718230,78.1065,23.3000,WGS84,2.3390,2.0343,5.0547,"",0.000,0.000,6,6,6,6,0,02,00,01*19c42bca
#RANGEA,USB2_1,0,64.5,FINESTEERING,1996,34609.000,00000000,5103,12778;6,30,0,21545004.999,0.046,-113219762.599128,0.033,-32.107,47.9,257.900,18009c04,8,0,21342184.161,0.060,-112153907.708857,0.071,-1499.563,45.6,285.760,08009c24,28,0,22874677.005,0.688,-120207239.841409,0.034,2597.259,46.6,5.954,08009c44,7,0,21323654.899,0.842,-112056569.727214,0.107,-1690.761,36.6,3.130,18009ce4,1,0,20315979.995,0.034,-106761173.654984,0.035,1442.239,50.6,328.970,18009d44,11,0,20178828.503,0.042,-106040436.769675,0.034,576.218,48.6,319.490,08009d64*3facf3e0
#SATXYZ2A,USB2_1,0,64.5,FINESTEERING,1996,34609.000,00000000,7513,12778;6,GPS,30,1835880.6359,22670020.0763,13592209.0402,26050.328,3.194,3.416,0.0,0.0,GPS,8,-15338988.6633,4852649.0137,21210470.1818,-29116.381,2.643,3.084,0.0,0.0,GPS,28,6856422.0102,13926979.4018,22169690.0111,211161.424,3.884,4.487,0.0,0.0,GPS,7,-4501533.2852,25342522.2973,5705565.7577,63190.823,3.187,3.379,0.0,0.0,GPS,1,-13607197.7499,20484233.0722,9498078.3902,-11783.315,2.417,2.609,0.0,0.0,GPS,11,-10332162.3259,18500934.3018,15540984.2925,-221087.224,2.302,2.464,0.0,0.0*d51ed5c3
#BESTPOSA,USB2_1,0,64.5,FINESTEERING,1996,34609.000,00000000,7145,12778;SOL_COMPUTED,SINGLE,36.76909745468,126.93433258086,78.1121,23.3000,WGS84,2.3191,2.0293,5.0567,"",0.000,0.000,6,6,6,6,0,02,00,01*04a80bb5
#RANGEA,USB2_1,0,68.5,FINESTEERING,1996,34610.000,00000000,5103,12778;7,30,0,21545011.455,0.055,-113219796.461886,0.032,-37.838,46.3,258.900,18009c04,8,0,21342469.893,0.043,-112155409.167855,0.049,-1504.335,48.6,286.760,08009c24,28,0,22874181.761,0.664,-120204644.183782,0.033,2592.313,44.3,6.954,08009c44,22,0,23451395.820,1.041,-123237916.893706,0.078,2651.839,43.6,1.880,08009c64,7,0,21323978.661,0.556,-112058264.246465,0.071,-1698.400,39.4,4.130,18009ce4,1,0,20315706.002,0.034,-106759733.833842,0.031,1436.846,50.6,329.970,18009d44,11,0,20178719.152,0.043,-106039862.103681,0.030,571.262,48.5,320.490,08009d64*06dab618
#SATXYZ2A,USB2_1,0,68.5,FINESTEERING,1996,34610.000,00000000,7513,12778;6,GPS,30,1835007.7612,22671543.9523,13589769.4233,26050.326,3.194,3.417,0.0,0.0,GPS,8,-15340761.6853,4850644.3263,21209658.8550,-29116.382,2.643,3.085,0.0,0.0,GPS,28,6853785.9822,13927340.6627,22170299.8315,211161.427,3.883,4.486,0.0,0.0,GPS,7,-4502059.6305,25343088.9575,5702477.5098,63190.820,3.187,3.380,0.0,0.0,GPS,1,-13607051.1449,20482981.5197,9500973.9363,-11783.316,2.416,2.609,0.0,0.0,GPS,11,-10332687.2337,18498890.3863,15542982.3177,-221087.225,2.302,2.465,0.0,0.0*c87d9847
#BESTPOSA,USB2_1,0,68.5,FINESTEERING,1996,34610.000,00000000,7145,12778;SOL_COMPUTED,SINGLE,36.76908868433,126.93433777318,78.0709,23.3000,WGS84,2.2982,2.0179,5.0483,"",0.000,0.000,7,6,6,6,0,02,00,01*fd9e427a
#RANGEA,USB2_1,0,66.5,FINESTEERING,1996,34611.000,00000000,5103,12778;7,30,0,21545018.447,0.080,-113219833.221864,0.030,-37.981,43.1,259.900,18009c04,8,0,21342755.888,0.044,-112156912.137153,0.037,-1504.311,48.2,287.760,08009c24,28,0,22873688.364,0.618,-120202051.051877,0.033,2591.377,43.9,7.954,08009c44,22,0,23450891.222,0.942,-123235264.487615,0.110,2650.951,43.7,2.880,08009c64,7,0,21324301.831,0.507,-112059960.974404,0.108,-1697.188,39.6,5.130,18009ce4,1,0,20315432.414,0.032,-106758296.123067,0.030,1435.314,51.0,330.970,18009d44,11,0,20178610.219,0.043,-106039289.645135,0.029,570.200,48.4,321.490,08009d64*104cb0b3
#SATXYZ2A,USB2_1,0,66.5,FINESTEERING,1996,34611.000,00000000,7513,12778;6,GPS,30,1834135.0791,22673067.5903,13587329.5151,26050.325,3.194,3.417,0.0,0.0,GPS,8,-15342534.7572,4848639.8209,21208847.0801,-29116.382,2.643,3.085,0.0,0.0,GPS,28,6851149.9056,13927702.1022,22170909.2062,211161.430,3.882,4.486,0.0,0.0,GPS,7,-4502585.8192,25343655.2779,5699389.1379,63190.818,3.187,3.381,0.0,0.0,GPS,1,-13606904.4987,20481729.6092,9503869.2756,-11783.318,2.416,2.610,0.0,0.0,GPS,11,-10333212.2677,18496846.2395,15544980.0016,-221087.226,2.302,2.465,0.0,0.0*c13de731
#BESTPOSA,USB2_1,0,66.5,FINESTEERING,1996,34611.000,00000000,7145,12778;SOL_COMPUTED,SINGLE,36.76907932552,126.93434481155,78.0594,23.3000,WGS84,2.2785,2.0026,5.0357,"",0.000,0.000,7,6,6,6,0,02,00,01*3181be96
#RANGEA,USB2_1,0,66.5,FINESTEERING,1996,34612.000,00000000,5103,12778;6,8,0,21343041.661,0.042,-112158413.872933,0.032,-1498.677,48.8,288.760,08009c24,28,0,22873194.858,0.569,-120199456.957646,0.034,2597.551,43.8,8.954,08009c44,22,0,23450386.556,0.855,-123232610.597707,0.073,2657.293,43.9,3.880,08009c64,7,0,21324624.913,0.483,-112061657.249566,0.112,-1693.497,39.5,6.130,18009ce4,1,0,20315158.690,0.032,-106756857.705886,0.034,1441.384,51.0,331.970,18009d44,11,0,20178501.159,0.043,-106038716.498006,0.029,576.052,48.6,322.490,08009d64*333681ea
#SATXYZ2A,USB2_1,0,66.5,FINESTEERING,1996,34612.000,00000000,7513,12778;5,GPS,8,-15344307.8789,4846635.4974,21208034.8572,-29116.382,2.643,3.085,0.0,0.0,GPS,28,6848513.7804,13928063.7201,22171518.1351,211161.432,3.882,4.484,0.0,0.0,GPS,7,-4503111.8513,25344221.2584,5696300.6419,63190.815,3.187,3.380,0.0,0.0,GPS,1,-13606757.8114,20480477.3405,9506764.4081,-11783.319,2.416,2.609,0.0,0.0,GPS,11,-10333737.4277,18494801.8613,15546977.3439,-221087.227,2.302,2.464,0.0,0.0*669bfb30
#BESTPOSA,USB2_1,0,66.5,FINESTEERING,1996,34612.000,00000000,7145,12778;SOL_COMPUTED,SINGLE,36.76906993375,126.93435266399,78.1025,23.3000,WGS84,2.2696,1.9986,5.0346,"",0.000,0.000,6,5,5,5,0,02,00,01*f9f3dd84
#RANGEA,USB2_1,0,69.5,FINESTEERING,1996,34613.000,00000000,5103,12778;6,8,0,21343326.983,0.040,-112159913.260999,0.095,-1500.470,49.2,289.760,08009c24,28,0,22872700.542,0.507,-120196860.444062,0.037,2596.355,44.6,9.954,08009c44,22,0,23449881.127,0.810,-123229955.352525,0.119,2654.221,43.1,4.880,08009c64,7,0,21324947.069,1.164,-112063352.543145,0.121,-1693.979,36.6,0.120,080094e4,1,0,20314884.720,0.033,-106755417.953334,0.101,1438.966,50.9,332.970,18009d44,11,0,20178391.765,0.044,-106038141.639354,0.105,574.119,48.3,323.490,08009d64*6bc73c82
#SATXYZ2A,USB2_1,0,69.5,FINESTEERING,1996,34613.000,00000000,7513,12778;5,GPS,8,-15346081.0505,4844631.3559,21207222.1863,-29116.382,2.643,3.085,0.0,0.0,GPS,28,6845877.6067,13928425.5166,22172126.6181,211161.435,3.881,4.483,0.0,0.0,GPS,7,-4503637.7268,25344786.8991,5693212.0220,63190.813,3.188,3.380,0.0,0.0,GPS,1,-13606611.0831,20479224.7138,9509659.3338,-11783.321,2.415,2.608,0.0,0.0,GPS,11,-10334262.7139,18492757.2518,15548974.3447,-221087.228,2.302,2.464,0.0,0.0*da677656
#BESTPOSA,USB2_1,0,69.5,FINESTEERING,1996,34613.000,00000000,7145,12778;SOL_COMPUTED,SINGLE,36.76906139032,126.93436054676,78.0773,23.3000,WGS84,2.3968,2.0915,5.2776,"",0.000,0.000,6,4,4,4,0,02,00,01*9ccd8588
#RANGEA,USB2_1,0,68.0,FINESTEERING,1996,34614.000,00000000,5103,12778;6,30,0,21545038.932,12.247,-113219944.560807,0.125,-35.048,37.7,0.942,08009404,8,0,21343612.599,0.042,-112161414.174615,0.064,-1499.659,48.7,290.760,08009c24,28,0,22872206.686,0.448,-120194264.567517,0.037,2597.106,45.5,10.954,08009c44,22,0,23449375.748,0.735,-123227301.433915,0.084,2654.559,43.7,5.880,08009c64,1,0,20314611.041,0.032,-106753979.719119,0.067,1438.823,50.9,333.970,18009d44,11,0,20178282.649,0.044,-106037568.239497,0.069,574.263,48.3,324.490,08009d64*1ddbcf2c
#SATXYZ2A,USB2_1,0,68.0,FINESTEERING,1996,34614.000,00000000,7513,12778;5,GPS,30,1831518.1886,22677637.0762,13580008.0435,26050.321,3.193,3.416,0.0,0.0,GPS,8,-15347854.2717,4842627.3965,21206409.0673,-29116.382,2.643,3.085,0.0,0.0,GPS,28,6843241.3845,13928787.4916,22172734.6554,211161.438,3.880,4.482,0.0,0.0,GPS,1,-13606464.3139,20477971.7289,9512554.0525,-11783.322,2.415,2.608,0.0,0.0,GPS,11,-10334788.1263,18490712.4111,15550971.0039,-221087.229,2.301,2.464,0.0,0.0*de4b0b67
#BESTPOSA,USB2_1,0,68.0,FINESTEERING,1996,34614.000,00000000,7145,12778;SOL_COMPUTED,SINGLE,36.76905281507,126.93436715414,78.0401,23.3000,WGS84,2.7185,2.2875,5.9427,"",0.000,0.000,6,5,5,5,0,02,00,01*99e41eeb
#RANGEA,USB2_1,0,64.5,FINESTEERING,1996,34615.000,00000000,5103,12778;6,30,0,21545047.723,1.322,-113219983.550332,0.122,-40.136,39.1,1.942,18009c04,8,0,21343898.801,0.039,-112162918.144833,0.047,-1504.109,49.4,291.760,08009c24,28,0,22871713.284,0.396,-120191671.881585,0.035,2592.204,46.0,11.954,08009c44,22,0,23448871.118,0.694,-123224650.376387,0.100,2649.531,42.9,6.880,08009c64,1,0,20314338.034,0.033,-106752545.045512,0.049,1434.000,50.8,334.970,18009d44,11,0,20178174.198,0.043,-106036998.348311,0.050,569.389,48.5,325.490,08009d64*4e3bfc79
#SATXYZ2A,USB2_1,0,64.5,FINESTEERING,1996,34615.000,00000000,7513,12778;5,GPS,30,1830646.2770,22679159.7619,13577566.9709,26050.319,3.193,3.416,0.0,0.0,GPS,8,-15349627.5427,4840623.6191,21205595.5003,-29116.382,2.643,3.085,0.0,0.0,GPS,28,6840605.1140,13929149.6452,22173342.2469,211161.441,3.879,4.482,0.0,0.0,GPS,1,-13606317.5037,20476718.3861,9515448.5642,-11783.324,2.415,2.608,0.0,0.0,GPS,11,-10335313.6649,18488667.3393,15552967.3214,-221087.230,2.301,2.464,0.0,0.0*96c4ad53
#BESTPOSA,USB2_1,0,64.5,FINESTEERING,1996,34615.000,00000000,7145,12778;SOL_COMPUTED,SINGLE,36.76904365252,126.93437373991,77.9631,23.3000,WGS84,2.7767,2.3342,6.0096,"",0.000,0.000,6,5,5,5,0,02,00,01*2fe03992
#RANGEA,USB2_1,0,64.5,FINESTEERING,1996,34616.000,00000000,5103,12778;6,30,0,21545056.841,0.975,-113220032.028619,0.113,-41.995,38.1,0.430,08009404,8,0,21344185.327,0.040,-112164423.743512,0.039,-1504.074,49.0,292.760,08009c24,28,0,22871220.310,0.342,-120189080.733333,0.032,2592.756,46.7,12.954,08009c44,22,0,23448366.810,0.685,-123222001.078849,0.096,2649.769,41.1,7.880,08009c64,1,0,20314065.436,0.033,-106751112.531659,0.041,1433.760,50.7,335.970,18009d44,11,0,20178066.143,0.043,-106036430.490268,0.041,569.603,48.6,326.490,08009d64*491f390d
#SATXYZ2A,USB2_1,0,64.5,FINESTEERING,1996,34616.000,00000000,7513,12778;5,GPS,30,1829774.5580,22680682.2093,13575125.6072,26050.318,3.193,3.418,0.0,0.0,GPS,8,-15351400.8633,4838620.0239,21204781.4853,-29116.383,2.643,3.087,0.0,0.0,GPS,28,6837968.7951,13929511.9773,22173949.3925,211161.444,3.879,4.483,0.0,0.0,GPS,1,-13606170.6526,20475464.6852,9518342.8688,-11783.325,2.415,2.609,0.0,0.0,GPS,11,-10335839.3297,18486622.0363,15554963.2973,-221087.231,2.301,2.465,0.0,0.0*24e53ee0
#BESTPOSA,USB2_1,0,64.5,FINESTEERING,1996,34616.000,00000000,7145,12778;SOL_COMPUTED,SINGLE,36.76903466325,126.93438061345,77.8724,23.3000,WGS84,2.8463,2.3780,6.1228,"",0.000,0.000,6,4,4,4,0,02,00,01*66d9d784
#RANGEA,USB2_1,0,63.0,FINESTEERING,1996,34617.000,00000000,5103,12778;5,8,0,21344471.441,0.042,-112165927.336696,0.031,-1502.685,48.7,293.760,08009c24,28,0,22870726.930,0.296,-120186487.566628,0.029,2593.154,46.8,13.954,08009c44,22,0,23447862.488,0.621,-123219349.974433,0.063,2651.198,41.5,8.880,08009c64,1,0,20313792.574,0.032,-106749678.622052,0.031,1433.763,50.9,336.970,18009d44,11,0,20177957.802,0.042,-106035861.139239,0.033,569.273,48.7,327.490,08009d64*a30e4d70
#SATXYZ2A,USB2_1,0,63.0,FINESTEERING,1996,34617.000,00000000,7513,12778;4,GPS,8,-15353174.2335,4836616.6108,21203967.0224,-29116.383,2.643,3.086,0.0,0.0,GPS,28,6835332.4280,13929874.4879,22174556.0923,211161.447,3.878,4.481,0.0,0.0,GPS,1,-13606023.7607,20474210.6262,9521236.9663,-11783.327,2.414,2.608,0.0,0.0,GPS,11,-10336365.1207,18484576.5023,15556958.9315,-221087.232,2.301,2.464,0.0,0.0*971fb433
#BESTPOSA,USB2_1,0,63.0,FINESTEERING,1996,34617.000,00000000,7145,12778;SOL_COMPUTED,SINGLE,36.76902585108,126.93438788182,77.7467,23.3000,WGS84,2.9550,2.4573,6.3250,"",0.000,0.000,5,4,4,4,0,02,00,01*893e2b55
#RANGEA,USB2_1,0,63.0,FINESTEERING,1996,34618.000,00000000,5103,12778;6,30,0,21545070.367,12.247,-113220109.845164,0.079,-44.588,36.6,0.720,08009404,8,0,21344757.906,0.041,-112167432.734754,0.031,-1507.265,48.8,294.760,08009c24,28,0,22870233.959,0.251,-120183895.815278,0.029,2589.677,47.0,14.954,08009c44,22,0,23447358.705,0.618,-123216700.940793,0.047,2646.518,39.9,9.880,08009c64,1,0,20313520.135,0.033,-106748246.942725,0.028,1429.685,50.8,337.970,18009d44,11,0,20177849.843,0.043,-106035293.829635,0.029,565.033,48.6,328.490,08009d64*eea61382
#SATXYZ2A,USB2_1,0,63.0,FINESTEERING,1996,34618.000,00000000,7513,12778;5,GPS,30,1828031.6974,22683726.3894,13570242.0071,26050.315,3.193,3.416,0.0,0.0,GPS,8,-15354947.6531,4834613.3799,21203152.1115,-29116.383,2.643,3.086,0.0,0.0,GPS,28,6832696.0128,13930237.1771,22175162.3462,211161.450,3.877,4.479,0.0,0.0,GPS,1,-13605876.8281,20472956.2093,9524130.8566,-11783.328,2.414,2.608,0.0,0.0,GPS,11,-10336891.0381,18482530.7373,15558954.2239,-221087.233,2.301,2.464,0.0,0.0*dc21e277
#BESTPOSA,USB2_1,0,63.0,FINESTEERING,1996,34618.000,00000000,7145,12778;SOL_COMPUTED,SINGLE,36.76901718137,126.93439455394,77.6096,23.3000,WGS84,3.0143,2.5069,6.4142,"",0.000,0.000,6,5,5,5,0,02,00,01*d1a26823
#RANGEA,USB2_1,0,63.5,FINESTEERING,1996,34619.000,00000000,5103,12778;7,30,0,21545077.782,1.372,-113220152.753922,0.094,-42.866,38.7,1.720,08009404,8,0,21345044.351,0.039,-112168937.980161,0.035,-1505.293,49.3,295.760,08009c24,28,0,22869740.832,0.202,-120181304.025638,0.032,2591.302,47.7,15.954,08009c44,22,0,23446854.171,0.548,-123214051.282176,0.103,2649.913,40.6,10.880,08009c64,7,0,21326886.965,3.937,-112073545.996062,0.076,-1702.598,39.4,1.000,080094e4,1,0,20313247.709,0.033,-106746815.336089,0.033,1431.715,50.7,338.970,18009d44,11,0,20177741.904,0.043,-106034726.605014,0.033,567.039,48.5,329.490,08009d64*4ad46ced
#SATXYZ2A,USB2_1,0,63.5,FINESTEERING,1996,34619.000,00000000,7513,12778;6,GPS,30,1827160.5559,22685248.1219,13567799.7708,26050.314,3.193,3.418,0.0,0.0,GPS,8,-15356721.1223,4832610.3312,21202336.7526,-29116.383,2.643,3.087,0.0,0.0,GPS,28,6830059.5494,13930600.0448,22175768.1543,211161.453,3.877,4.480,0.0,0.0,GPS,7,-4506789.6953,25348173.6044,5674677.7035,63190.798,3.187,3.382,0.0,0.0,GPS,1,-13605729.8548,20471701.4343,9527024.5397,-11783.330,2.414,2.609,0.0,0.0,GPS,11,-10337417.0817,18480484.7412,15560949.1744,-221087.234,2.301,2.465,0.0,0.0*e7c0d689
#BESTPOSA,USB2_1,0,63.5,FINESTEERING,1996,34619.000,00000000,7145,12778;SOL_COMPUTED,SINGLE,36.76900820747,126.93440126828,77.6017,23.3000,WGS84,3.0149,2.4997,6.4013,"",0.000,0.000,7,6,6,6,0,02,00,01*0968394e
#RANGEA,USB2_1,0,64.5,FINESTEERING,1996,34620.000,00000000,5103,12778;8,30,0,21545087.713,1.431,-113220197.059113,0.116,-43.644,36.7,2.720,08009404,8,0,21345330.903,0.039,-112170443.785903,0.034,-1503.142,49.4,296.760,08009c24,28,0,22869247.953,0.169,-120178713.412652,0.032,2592.717,47.4,16.954,08009c44,22,0,23446349.788,0.473,-123211400.974152,0.080,2653.307,41.6,11.880,08009c64,3,0,24673093.685,1.372,-129657982.221511,0.131,3257.719,38.8,1.464,080094a4,7,0,21327211.659,1.110,-112075249.239123,0.083,-1700.762,42.0,2.000,080094e4,1,0,20312975.403,0.034,-106745384.329316,0.033,1433.057,50.6,339.970,18009d44,11,0,20177634.134,0.044,-106034160.261804,0.033,568.003,48.3,330.490,08009d64*0a7ba0a0
#SATXYZ2A,USB2_1,0,64.5,FINESTEERING,1996,34620.000,00000000,7513,12778;6,GPS,30,1826289.6069,22686769.6160,13565357.2437,26050.312,3.192,3.417,0.0,0.0,GPS,8,-15358494.6408,4830607.4649,21201520.9459,-29116.383,2.643,3.087,0.0,0.0,GPS,28,6827423.0380,13930963.0910,22176373.5165,211161.456,3.876,4.479,0.0,0.0,GPS,7,-4507314.4762,25348736.8651,5671588.2179,63190.796,3.189,3.384,0.0,0.0,GPS,1,-13605582.8408,20470446.3014,9529918.0154,-11783.331,2.414,2.608,0.0,0.0,GPS,11,-10337943.2516,18478438.5143,15562943.7832,-221087.236,2.300,2.465,0.0,0.0*4e66f435
#BESTPOSA,USB2_1,0,64.5,FINESTEERING,1996,34620.000,00000000,7145,12778;SOL_COMPUTED,SINGLE,36.76899742469,126.93440947114,77.5522,23.3000,WGS84,2.9488,2.4532,6.3304,"",0.000,0.000,8,6,6,6,0,02,00,01*127a8cee
#RANGEA,USB2_1,0,63.5,FINESTEERING,1996,34621.000,00000000,5103,12778;8,30,0,21545095.298,1.099,-113220239.927903,0.111,-42.751,38.7,3.720,18009c04,8,0,21345617.146,0.042,-112171948.073813,0.033,-1503.748,48.7,297.760,08009c24,28,0,22868754.857,0.142,-120176121.748542,0.032,2592.235,47.4,17.954,08009c44,22,0,23445845.074,0.456,-123208748.524728,0.104,2654.063,40.6,12.880,08009c64,3,0,24672475.652,1.423,-129654725.028479,0.115,3258.762,37.2,2.464,18009ca4,7,0,21327536.848,1.111,-112076959.515086,0.086,-1702.439,39.3,0.550,080094e4,1,0,20312702.870,0.033,-106743952.145053,0.031,1432.429,50.8,340.970,18009d44,11,0,20177526.152,0.044,-106033592.829596,0.030,567.792,48.3,331.490,08009d64*0a59bf6f
#SATXYZ2A,USB2_1,0,63.5,FINESTEERING,1996,34621.000,00000000,7513,12778;6,GPS,30,1825418.8503,22688290.8716,13562914.4259,26050.311,3.192,3.418,0.0,0.0,GPS,8,-15360268.2088,4828604.7808,21200704.6912,-29116.384,2.643,3.088,0.0,0.0,GPS,28,6824786.4785,13931326.3158,22176978.4328,211161.458,3.875,4.479,0.0,0.0,GPS,7,-4507839.1010,25349299.7857,5668498.6088,63190.793,3.189,3.384,0.0,0.0,GPS,1,-13605435.7862,20469190.8105,9532811.2837,-11783.333,2.413,2.609,0.0,0.0,GPS,11,-10338469.5479,18476392.0565,15564938.0500,-221087.237,2.300,2.465,0.0,0.0*20ecefe9
#BESTPOSA,USB2_1,0,63.5,FINESTEERING,1996,34621.000,00000000,7145,12778;SOL_COMPUTED,SINGLE,36.76898589969,126.93441854249,77.4904,23.3000,WGS84,2.9547,2.4474,6.3297,"",0.000,0.000,8,6,6,6,0,02,00,01*a17ac5d7
#RANGEA,USB2_1,0,63.5,FINESTEERING,1996,34622.000,00000000,5103,12778;7,30,0,21545103.742,1.038,-113220283.212289,0.098,-44.521,38.0,4.720,18009c04,8,0,21345903.296,0.044,-112173451.859664,0.029,-1504.212,48.3,298.760,08009c24,28,0,22868261.653,0.127,-120173529.542893,0.027,2591.748,47.6,18.954,08009c44,22,0,23445340.451,0.434,-123206095.493058,0.069,2651.158,40.0,13.880,08009c64,3,0,24671854.756,1.446,-129651467.340613,0.120,3256.482,35.2,3.464,18009ca4,1,0,20312430.249,0.034,-106742519.541974,0.030,1431.434,50.5,341.970,18009d44,11,0,20177418.098,0.042,-106033025.001086,0.030,567.166,48.6,332.490,08009d64*f6309bd9
#SATXYZ2A,USB2_1,0,63.5,FINESTEERING,1996,34622.000,00000000,7513,12778;5,GPS,30,1824548.2862,22689811.8886,13560471.3174,26050.309,3.192,3.418,0.0,0.0,GPS,8,-15362041.8260,4826602.2791,21199887.9887,-29116.384,2.643,3.088,0.0,0.0,GPS,28,6822149.8712,13931689.7192,22177582.9032,211161.461,3.875,4.478,0.0,0.0,GPS,1,-13605288.6911,20467934.9616,9535704.3446,-11783.334,2.413,2.608,0.0,0.0,GPS,11,-10338995.9705,18474345.3678,15566931.9748,-221087.238,2.300,2.465,0.0,0.0*c266f8e9
#BESTPOSA,USB2_1,0,63.5,FINESTEERING,1996,34622.000,00000000,7145,12778;SOL_COMPUTED,SINGLE,36.76897366596,126.93442753363,77.4698,23.3000,WGS84,3.0250,2.4980,6.4341,"",0.000,0.000,7,5,5,5,0,02,00,01*daf1f96e
#RANGEA,USB2_1,0,65.5,FINESTEERING,1996,34623.000,00000000,5103,12778;8,30,0,21545112.053,1.215,-113220329.064757,0.118,-43.645,33.4,5.720,18009c04,8,0,21346189.892,0.040,-112174957.978391,0.031,-1505.665,49.2,299.760,08009c24,28,0,22867768.866,0.113,-120170939.533793,0.030,2589.949,48.3,19.954,08009c44,22,0,23444836.023,0.532,-123203443.997022,0.168,2652.151,36.9,14.880,08009c64,3,0,24671236.216,1.356,-129648211.092526,0.114,3256.561,34.7,4.464,18009ca4,7,0,21328188.482,12.247,-112080378.925101,0.100,-1703.494,39.4,0.760,080094e4,1,0,20312158.113,0.036,-106741089.536412,0.031,1431.065,50.0,342.970,18009d44,11,0,20177310.548,0.043,-106032459.807988,0.031,566.159,48.4,333.490,08009d64*eb32f62e
#SATXYZ2A,USB2_1,0,65.5,FINESTEERING,1996,34623.000,00000000,7513,12778;6,GPS,30,1823677.9145,22691332.6671,13558027.9182,26050.308,3.192,3.416,0.0,0.0,GPS,8,-15363815.4924,4824599.9598,21199070.8382,-29116.384,2.643,3.087,0.0,0.0,GPS,28,6819513.2160,13932053.3011,22178186.9277,211161.464,3.874,4.476,0.0,0.0,GPS,7,-4508887.8820,25350424.6063,5662319.0209,63190.788,3.189,3.383,0.0,0.0,GPS,1,-13605141.5555,20466678.7548,9538597.1980,-11783.336,2.413,2.607,0.0,0.0,GPS,11,-10339522.5196,18472298.4484,15568925.5577,-221087.239,2.300,2.464,0.0,0.0*a9d82bd2
#BESTPOSA,USB2_1,0,65.5,FINESTEERING,1996,34623.000,00000000,7145,12778;SOL_COMPUTED,SINGLE,36.76896084752,126.93443661195,77.3817,23.3000,WGS84,3.0260,2.4896,6.4202,"",0.000,0.000,8,6,6,6,0,02,00,01*5a6a2765
#RANGEA,USB2_1,0,65.5,FINESTEERING,1996,34624.000,00000000,5103,12778;7,30,0,21545120.346,0.528,-113220373.848573,0.117,-41.206,40.3,6.720,18009c04,8,0,21346476.188,0.043,-112176462.466998,0.031,-1501.172,48.4,300.760,08009c24,28,0,22867275.672,0.124,-120168347.532569,0.034,2595.813,47.3,20.954,08009c44,22,0,23444331.332,0.316,-123200791.501756,0.084,2654.987,41.6,15.880,08009c64,3,0,24670616.461,1.052,-129644953.510711,0.094,3259.687,36.8,5.464,18009ca4,1,0,20311885.777,0.034,-106739658.402938,0.033,1433.499,50.6,343.970,18009d44,11,0,20177202.737,0.042,-106031893.279485,0.032,569.260,48.7,334.490,08009d64*410a1db7
#SATXYZ2A,USB2_1,0,65.5,FINESTEERING,1996,34624.000,00000000,7513,12778;5,GPS,30,1822807.7351,22692853.2069,13555584.2285,26050.307,3.192,3.417,0.0,0.0,GPS,8,-15365589.2081,4822597.8229,21198253.2400,-29116.384,2.643,3.088,0.0,0.0,GPS,28,6816876.5130,13932417.0615,22178790.5062,211161.467,3.873,4.476,0.0,0.0,GPS,1,-13604994.3795,20465422.1901,9541489.8438,-11783.337,2.412,2.608,0.0,0.0,GPS,11,-10340049.1950,18470251.2983,15570918.7985,-221087.240,2.300,2.464,0.0,0.0*e9cfb7d3
#BESTPOSA,USB2_1,0,65.5,FINESTEERING,1996,34624.000,00000000,7145,12778;SOL_COMPUTED,SINGLE,36.76894837157,126.93444513417,77.2931,23.3000,WGS84,3.0785,2.5231,6.4925,"",0.000,0.000,7,5,5,5,0,02,00,01*65b95321
#RANGEA,USB2_1,0,64.0,FINESTEERING,1996,34625.000,00000000,5103,12778;7,30,0,21545129.050,0.747,-113220419.123292,0.111,-43.333,37.4,7.720,18009c04,8,0,21346762.461,0.043,-112177966.931905,0.039,-1504.162,48.4,301.760,08009c24,28,0,22866782.391,0.123,-120165755.286403,0.035,2592.433,47.2,21.954,08009c44,22,0,23443826.670,0.274,-123198139.385127,0.075,2651.518,42.0,16.880,08009c64,3,0,24669995.618,0.886,-129641695.925652,0.086,3258.525,38.2,6.464,18009ca4,1,0,20311613.614,0.033,-106738228.179292,0.036,1429.456,50.6,344.970,18009d44,11,0,20177095.054,0.043,-106031327.385251,0.036,565.110,48.4,335.490,08009d64*246a78f7
#SATXYZ2A,USB2_1,0,64.0,FINESTEERING,1996,34625.000,00000000,7513,12778;5,GPS,30,1821937.7482,22694373.5080,13553140.2483,26050.305,3.192,3.417,0.0,0.0,GPS,8,-15367362.9729,4820595.8685,21197435.1939,-29116.384,2.643,3.088,0.0,0.0,GPS,28,6814239.7623,13932781.0005,22179393.6389,211161.470,3.872,4.475,0.0,0.0,GPS,1,-13604847.1631,20464165.2674,9544382.2820,-11783.339,2.412,2.607,0.0,0.0,GPS,11,-10340575.9969,18468203.9175,15572911.6972,-221087.241,2.300,2.464,0.0,0.0*f95f8b50
#BESTPOSA,USB2_1,0,64.0,FINESTEERING,1996,34625.000,00000000,7145,12778;SOL_COMPUTED,SINGLE,36.76893698507,126.93445358104,77.1942,23.3000,WGS84,3.1339,2.5616,6.5871,"",0.000,0.000,7,5,5,5,0,02,00,01*bb7f52d4
#RANGEA,USB2_1,0,64.0,FINESTEERING,1996,34626.000,00000000,5103,12778;6,8,0,21347049.051,0.046,-112179472.916249,0.040,-1509.694,47.9,302.760,08009c24,28,0,22866289.437,0.124,-120163164.547162,0.038,2587.606,46.9,22.954,08009c44,22,0,23443322.369,0.217,-123195488.941419,0.098,2647.829,43.4,17.880,08009c64,3,0,24669375.993,0.927,-129638439.993180,0.093,3254.366,36.4,7.464,18009ca4,1,0,20311341.849,0.033,-106736800.053061,0.036,1423.354,50.8,345.970,18009d44,11,0,20176987.738,0.044,-106030763.427619,0.036,559.335,48.3,336.490,08009d64*47f36e85
