#BESTPOSA,COM1_1,0,73.5,FINESTEERING,1979,541663.000,00000000,7145,12778;SOL_COMPUTED,SINGLE,36.76914162242,126.93478072074,96.7128,23.3000,WGS84,0.6213,0.5432,0.9375,"",0.000,0.000,10,9,9,9,0,12,00,01*32422b4d
#BESTXYZA,COM1_1,0,73.5,FINESTEERING,1979,541663.000,00000000,bde7,12778;SOL_COMPUTED,SINGLE,-3073912.0879,4088894.6640,3796973.2549,0.7144,0.7882,0.6544,SOL_COMPUTED,SINGLE,0.0000,0.0000,-6.3631e-10,0.0011,0.0011,0.0011,"",0.150,0.000,0.000,10,9,9,9,0,12,00,01*b3c6622b
#BESTPOSA,COM1_1,0,68.5,FINESTEERING,1979,541664.000,00000000,7145,12778;SOL_COMPUTED,SINGLE,36.76914161539,126.93478070574,96.7124,23.3000,WGS84,0.6203,0.5420,0.9364,"",0.000,0.000,10,9,9,9,0,12,00,01*4521b091
#BESTXYZA,COM1_1,0,68.5,FINESTEERING,1979,541664.000,00000000,bde7,12778;SOL_COMPUTED,SINGLE,-3073912.0869,4088894.6650,3796973.2541,0.7133,0.7872,0.6534,SOL_COMPUTED,SINGLE,0.0000,0.0000,0.0000,0.0011,0.0011,0.0011,"",0.150,0.000,0.000,10,9,9,9,0,12,00,01*57170e47
#BESTPOSA,COM1_1,0,68.5,FINESTEERING,1979,541665.000,00000000,7145,12778;SOL_COMPUTED,SINGLE,36.76914161539,126.93478070574,96.7124,23.3000,WGS84,0.6203,0.5420,0.9364,"",0.000,0.000,10,9,9,9,0,12,00,01*4e469915
#BESTXYZA,COM1_1,0,68.5,FINESTEERING,1979,541665.000,00000000,bde7,12778;SOL_COMPUTED,SINGLE,-3073912.0869,4088894.6650,3796973.2541,0.7133,0.7872,0.6534,SOL_COMPUTED,SINGLE,0.0000,0.0000,0.0000,0.0011,0.0011,0.0011,"",0.150,0.000,0.000,10,9,9,9,0,12,00,01*b11c799b
#BESTPOSA,COM1_1,0,68.5,FINESTEERING,1979,541666.000,00000000,7145,12778;SOL_COMPUTED,SINGLE,36.76914160789,126.93478069065,96.7122,23.3000,WGS84,0.6194,0.5409,0.9353,"",0.000,0.000,10,10,10,10,0,12,00,01*99d76332
#BESTXYZA,COM1_1,0,68.5,FINESTEERING,1979,541666.000,00000000,bde7,12778;SOL_COMPUTED,SINGLE,-3073912.0860,4088894.6661,3796973.2533,0.7122,0.7862,0.6524,SOL_COMPUTED,SINGLE,0.0000,0.0000,0.0000,0.0011,0.0011,0.0011,"",0.150,0.000,0.000,10,10,10,10,0,12,00,01*637bc57e
#BESTPOSA,COM1_1,0,68.5,FINESTEERING,1979,541667.000,00000000,7145,12778;SOL_COMPUTED,SINGLE,36.76914160789,126.93478069065,96.7122,23.3000,WGS84,0.6194,0.5409,0.9353,"",0.000,0.000,10,9,9,9,0,12,00,01*05d52dc4
#BESTXYZA,COM1_1,0,68.5,FINESTEERING,1979,541667.000,00000000,bde7,12778;SOL_COMPUTED,SINGLE,-3073912.0860,4088894.6661,3796973.2533,0.7122,0.7862,0.6524,SOL_COMPUTED,SINGLE,0.0000,0.0000,0.0000,0.0011,0.0011,0.0011,"",0.150,0.000,0.000,10,9,9,9,0,12,00,01*c592bbed
#BESTPOSA,COM1_1,0,69.5,FINESTEERING,1979,541668.000,00000000,7145,12778;SOL_COMPUTED,SINGLE,36.76914160789,126.93478069065,96.7122,23.3000,WGS84,0.6194,0.5409,0.9353,"",0.000,0.000,10,9,9,9,0,12,00,01*e30f01d7
#BESTXYZA,COM1_1,0,69.5,FINESTEERING,1979,541668.000,00000000,bde7,12778;SOL_COMPUTED,SINGLE,-3073912.0860,4088894.6661,3796973.2533,0.7123,0.7862,0.6524,SOL_COMPUTED,SINGLE,0.0000,0.0000,-6.8896e-10,0.0011,0.0011,0.0011,"",0.150,0.000,0.000,10,9,9,9,0,12,00,01*2ce42b9e
#BESTPOSA,COM1_1,0,71.0,FINESTEERING,1979,541669.000,00000000,7145,12778;SOL_COMPUTED,SINGLE,36.76914160018,126.93478067572,96.7120,23.3000,WGS84,0.6184,0.5398,0.9343,"",0.000,0.000,10,9,9,9,0,12,00,01*52f14aa2
#BESTXYZA,COM1_1,0,71.0,FINESTEERING,1979,541669.000,00000000,bde7,12778;SOL_COMPUTED,SINGLE,-3073912.0852,4088894.6672,3796973.2525,0.7112,0.7853,0.6515,SOL_COMPUTED,SINGLE,0.0000,0.0000,0.0000,0.0011,0.0011,0.0011,"",0.150,0.000,0.000,10,9,9,9,0,12,00,01*e0ec745a
#BESTPOSA,COM1_1,0,68.5,FINESTEERING,1979,541670.000,00000000,7145,12778;SOL_COMPUTED,SINGLE,36.76914160018,126.93478067572,96.7120,23.3000,WGS84,0.6184,0.5399,0.9343,"",0.000,0.000,10,9,9,9,0,12,00,01*f0146c20
#BESTXYZA,COM1_1,0,68.5,FINESTEERING,1979,541670.000,00000000,bde7,12778;SOL_COMPUTED,SINGLE,-3073912.0852,4088894.6672,3796973.2525,0.7112,0.7853,0.6515,SOL_COMPUTED,SINGLE,0.0000,0.0000,0.0000,0.0011,0.0011,0.0011,"",0.150,0.000,0.000,10,9,9,9,0,12,00,01*c08ae583
#BESTPOSA,COM1_1,0,68.0,FINESTEERING,1979,541671.000,00000000,7145,12778;SOL_COMPUTED,SINGLE,36.76914159373,126.93478066343,96.7115,23.3000,WGS84,0.6176,0.5390,0.9336,"",0.000,0.000,9,9,9,9,0,12,00,01*2dd04b7a
#BESTXYZA,COM1_1,0,68.0,FINESTEERING,1979,541671.000,00000000,bde7,12778;SOL_COMPUTED,SINGLE,-3073912.0843,4088894.6678,3796973.2516,0.7101,0.7849,0.6505,SOL_COMPUTED,SINGLE,0.0000,0.0000,0.0000,0.0011,0.0011,0.0011,"",0.150,0.000,0.000,9,9,9,9,0,12,00,01*1ccd8786
#BESTPOSA,COM1_1,0,68.0,FINESTEERING,1979,541672.000,00000000,7145,12778;SOL_COMPUTED,SINGLE,36.76914159373,126.93478066343,96.7115,23.3000,WGS84,0.6176,0.5390,0.9336,"",0.000,0.000,9,9,9,9,0,12,00,01*33baa36a
#BESTXYZA,COM1_1,0,68.0,FINESTEERING,1979,541672.000,00000000,bde7,12778;SOL_COMPUTED,SINGLE,-3073912.0843,4088894.6678,3796973.2516,0.7102,0.7849,0.6505,SOL_COMPUTED,SINGLE,0.0000,0.0000,0.0000,0.0011,0.0011,0.0011,"",0.150,0.000,0.000,9,9,9,9,0,12,00,01*8cb1f062
#BESTPOSA,COM1_1,0,71.5,FINESTEERING,1979,541673.000,00000000,7145,12778;SOL_COMPUTED,SINGLE,36.76914159373,126.93478066343,96.7115,23.3000,WGS84,0.6176,0.5390,0.9336,"",0.000,0.000,9,9,9,9,0,12,00,01*fc51c39c
#BESTXYZA,COM1_1,0,71.5,FINESTEERING,1979,541673.000,00000000,bde7,12778;SOL_COMPUTED,SINGLE,-3073912.0843,4088894.6678,3796973.2516,0.7102,0.7849,0.6505,SOL_COMPUTED,SINGLE,8.1938e-10,8.5152e-10,-6.8437e-10,0.0011,0.0011,0.0011,"",0.150,0.000,0.000,9,9,9,9,0,12,00,01*29fceb0b
#BESTPOSA,COM1_1,0,72.0,FINESTEERING,1979,541674.000,00000000,7145,12778;SOL_COMPUTED,SINGLE,36.76914158705,126.93478065121,96.7110,23.3000,WGS84,0.6168,0.5381,0.9329,"",0.000,0.000,9,9,9,9,0,12,00,01*530a3b88
#BESTXYZA,COM1_1,0,72.0,FINESTEERING,1979,541674.000,00000000,bde7,12778;SOL_COMPUTED,SINGLE,-3073912.0835,4088894.6685,3796973.2507,0.7091,0.7845,0.6496,SOL_COMPUTED,SINGLE,0.0000,0.0000,0.0000,0.0011,0.0011,0.0011,"",0.150,0.000,0.000,9,9,9,9,0,12,00,01*3e003918
#BESTPOSA,COM1_1,0,72.0,FINESTEERING,1979,541675.000,00000000,7145,12778;SOL_COMPUTED,SINGLE,36.76914158705,126.93478065121,96.7110,23.3000,WGS84,0.6168,0.5381,0.9329,"",0.000,0.000,9,9,9,9,0,12,00,01*effc9e47
#BESTXYZA,COM1_1,0,72.0,FINESTEERING,1979,541675.000,00000000,bde7,12778;SOL_COMPUTED,SINGLE,-3073912.0835,4088894.6685,3796973.2507,0.7091,0.7845,0.6496,SOL_COMPUTED,SINGLE,0.0000,0.0000,0.0000,0.0011,0.0011,0.0011,"",0.150,0.000,0.000,9,9,9,9,0,12,00,01*562be457
#BESTPOSA,COM1_1,0,72.0,FINESTEERING,1979,541676.000,00000000,7145,12778;SOL_COMPUTED,SINGLE,36.76914158003,126.93478063853,96.7104,23.3000,WGS84,0.6160,0.5372,0.9322,"",0.000,0.000,9,9,9,9,0,12,00,01*a7220ba3
#BESTXYZA,COM1_1,0,72.0,FINESTEERING,1979,541676.000,00000000,bde7,12778;SOL_COMPUTED,SINGLE,-3073912.0826,4088894.6692,3796973.2497,0.7081,0.7841,0.6487,SOL_COMPUTED,SINGLE,0.0000,0.0000,0.0000,0.0011,0.0011,0.0011,"",0.150,0.000,0.000,9,9,9,9,0,12,00,01*27f63106
#BESTPOSA,COM1_1,0,71.5,FINESTEERING,1979,541677.000,00000000,7145,12778;SOL_COMPUTED,SINGLE,36.76914158003,126.93478063853,96.7104,23.3000,WGS84,0.6160,0.5372,0.9322,"",0.000,0.000,9,9,9,9,0,12,00,01*c033aa38
#BESTXYZA,COM1_1,0,71.5,FINESTEERING,1979,541677.000,00000000,bde7,12778;SOL_COMPUTED,SINGLE,-3073912.0826,4088894.6692,3796973.2497,0.7081,0.7841,0.6487,SOL_COMPUTED,SINGLE,0.0000,0.0000,0.0000,0.0011,0.0011,0.0011,"",0.150,0.000,0.000,9,9,9,9,0,12,00,01*e5be4fd0
#BESTPOSA,COM1_1,0,71.5,FINESTEERING,1979,541678.000,00000000,7145,12778;SOL_COMPUTED,SINGLE,36.76914158003,126.93478063853,96.7104,23.3000,WGS84,0.6160,0.5372,0.9322,"",0.000,0.000,9,9,9,9,0,12,00,01*a7f2e268
#BESTXYZA,COM1_1,0,71.5,FINESTEERING,1979,541678.000,00000000,bde7,12778;SOL_COMPUTED,SINGLE,-3073912.0826,4088894.6692,3796973.2497,0.7081,0.7841,0.6487,SOL_COMPUTED,SINGLE,8.3747e-10,8.5862e-10,-6.8214e-10,0.0011,0.0011,0.0011,"",0.150,0.000,0.000,9,9,9,9,0,12,00,01*6452e237
#BESTPOSA,COM1_1,0,71.5,FINESTEERING,1979,541679.000,00000000,7145,12778;SOL_COMPUTED,SINGLE,36.76914157315,126.93478062591,96.7099,23.3000,WGS84,0.6152,0.5363,0.9316,"",0.000,0.000,9,9,9,9,0,12,00,01*00ae386a
#BESTXYZA,COM1_1,0,71.5,FINESTEERING,1979,541679.000,00000000,bde7,12778;SOL_COMPUTED,SINGLE,-3073912.0817,4088894.6699,3796973.2488,0.7071,0.7837,0.6478,SOL_COMPUTED,SINGLE,0.0000,0.0000,0.0000,0.0011,0.0011,0.0011,"",0.150,0.000,0.000,9,9,9,9,0,12,00,01*3ea0bd69
#BESTXYZA,COM1_1,0,71.5,FINESTEERING,1979,541680.000,00000000,bde7,12778;SOL_COMPUTED,SINGLE,-3073912.0817,4088894.6699,3796973.2488,0.7071,0.7838,0.6478,SOL_COMPUTED,SINGLE,0.0000,0.0000,0.0000,0.0011,0.0011,0.0011,"",0.150,0.000,0.000,9,9,9,9,0,12,00,01*2a17900c
#BESTPOSA,COM1_1,0,71.5,FINESTEERING,1979,541680.000,00000000,7145,12778;SOL_COMPUTED,SINGLE,36.76914157315,126.93478062591,96.7099,23.3000,WGS84,0.6152,0.5363,0.9316,"",0.000,0.000,9,9,9,9,0,12,00,01*30b630a6
#BESTPOSA,COM1_1,0,70.0,FINESTEERING,1979,541681.000,00000000,7145,12778;SOL_COMPUTED,SINGLE,36.76914156602,126.93478061330,96.7093,23.3000,WGS84,0.6143,0.5355,0.9309,"",0.000,0.000,9,9,9,9,0,12,00,01*8ce9c0b8
#BESTXYZA,COM1_1,0,70.0,FINESTEERING,1979,541681.000,00000000,bde7,12778;SOL_COMPUTED,SINGLE,-3073912.0808,4088894.6706,3796973.2478,0.7061,0.7834,0.6469,SOL_COMPUTED,SINGLE,0.0000,0.0000,0.0000,0.0011,0.0011,0.0011,"",0.150,0.000,0.000,9,9,9,9,0,12,00,01*2f56ba6c
#BESTPOSA,COM1_1,0,70.0,FINESTEERING,1979,541682.000,00000000,7145,12778;SOL_COMPUTED,SINGLE,36.76914156602,126.93478061330,96.7093,23.3000,WGS84,0.6144,0.5355,0.9309,"",0.000,0.000,9,9,9,9,0,12,00,01*88e9e953
#BESTXYZA,COM1_1,0,70.0,FINESTEERING,1979,541682.000,00000000,bde7,12778;SOL_COMPUTED,SINGLE,-3073912.0808,4088894.6706,3796973.2478,0.7061,0.7834,0.6469,SOL_COMPUTED,SINGLE,0.0000,0.0000,0.0000,0.0011,0.0011,0.0011,"",0.150,0.000,0.000,9,9,9,9,0,12,00,01*972addbd
#BESTPOSA,COM1_1,0,71.0,FINESTEERING,1979,541683.000,00000000,7145,12778;SOL_COMPUTED,SINGLE,36.76914156602,126.93478061330,96.7093,23.3000,WGS84,0.6144,0.5355,0.9309,"",0.000,0.000,9,9,9,9,0,12,00,01*eaae1683
#BESTXYZA,COM1_1,0,71.0,FINESTEERING,1979,541683.000,00000000,bde7,12778;SOL_COMPUTED,SINGLE,-3073912.0808,4088894.6706,3796973.2478,0.7061,0.7834,0.6469,SOL_COMPUTED,SINGLE,8.2891e-10,8.6000e-10,-7.0241e-10,0.0011,0.0011,0.0011,"",0.150,0.000,0.000,9,9,9,9,0,12,00,01*6b83679d
#BESTPOSA,COM1_1,0,71.0,FINESTEERING,1979,541684.000,00000000,7145,12778;SOL_COMPUTED,SINGLE,36.76914155876,126.93478060047,96.7088,23.3000,WGS84,0.6135,0.5346,0.9302,"",0.000,0.000,9,9,9,9,0,12,00,01*46ffd6f7
#BESTXYZA,COM1_1,0,71.0,FINESTEERING,1979,541684.000,00000000,bde7,12778;SOL_COMPUTED,SINGLE,-3073912.0799,4088894.6713,3796973.2469,0.7050,0.7830,0.6460,SOL_COMPUTED,SINGLE,0.0000,0.0000,0.0000,0.0011,0.0011,0.0011,"",0.150,0.000,0.000,9,9,9,9,0,12,00,01*d425652b
#BESTPOSA,COM1_1,0,72.0,FINESTEERING,1979,541685.000,00000000,7145,12778;SOL_COMPUTED,SINGLE,36.76914155876,126.93478060047,96.7088,23.3000,WGS84,0.6135,0.5346,0.9302,"",0.000,0.000,9,9,9,9,0,12,00,01*42ab9b58
#BESTXYZA,COM1_1,0,72.0,FINESTEERING,1979,541685.000,00000000,bde7,12778;SOL_COMPUTED,SINGLE,-3073912.0799,4088894.6713,3796973.2469,0.7051,0.7830,0.6460,SOL_COMPUTED,SINGLE,0.0000,0.0000,0.0000,0.0011,0.0011,0.0011,"",0.150,0.000,0.000,9,9,9,9,0,12,00,01*17d4ce02
#BESTPOSA,COM1_1,0,72.0,FINESTEERING,1979,541686.000,00000000,7145,12778;SOL_COMPUTED,SINGLE,36.76914155128,126.93478058734,96.7083,23.3000,WGS84,0.6127,0.5337,0.9295,"",0.000,0.000,9,9,9,9,0,12,00,01*c160fd8b
#BESTXYZA,COM1_1,0,72.0,FINESTEERING,1979,541686.000,00000000,bde7,12778;SOL_COMPUTED,SINGLE,-3073912.0790,4088894.6721,3796973.2459,0.7040,0.7826,0.6451,SOL_COMPUTED,SINGLE,0.0000,0.0000,0.0000,0.0011,0.0011,0.0011,"",0.150,0.000,0.000,9,9,9,9,0,12,00,01*db217093
#BESTPOSA,COM1_1,0,71.0,FINESTEERING,1979,541687.000,00000000,7145,12778;SOL_COMPUTED,SINGLE,36.76914155128,126.93478058734,96.7083,23.3000,WGS84,0.6127,0.5337,0.9295,"",0.000,0.000,9,9,9,9,0,12,00,01*c534b024
#BESTXYZA,COM1_1,0,71.0,FINESTEERING,1979,541687.000,00000000,bde7,12778;SOL_COMPUTED,SINGLE,-3073912.0790,4088894.6721,3796973.2459,0.7041,0.7826,0.6451,SOL_COMPUTED,SINGLE,0.0000,0.0000,0.0000,0.0011,0.0011,0.0011,"",0.150,0.000,0.000,9,9,9,9,0,12,00,01*18d0dbba
#BESTPOSA,COM1_1,0,70.0,FINESTEERING,1979,541688.000,00000000,7145,12778;SOL_COMPUTED,SINGLE,36.76914155128,126.93478058734,96.7083,23.3000,WGS84,0.6128,0.5338,0.9295,"",0.000,0.000,9,9,9,9,0,12,00,01*1f1ca831
#BESTXYZA,COM1_1,0,70.0,FINESTEERING,1979,541688.000,00000000,bde7,12778;SOL_COMPUTED,SINGLE,-3073912.0790,4088894.6721,3796973.2459,0.7041,0.7826,0.6451,SOL_COMPUTED,SINGLE,8.8363e-10,0.0000,-7.1330e-10,0.0011,0.0011,0.0011,"",0.150,0.000,0.000,9,9,9,9,0,12,00,01*cdaf60d6
#BESTPOSA,COM1_1,0,70.0,FINESTEERING,1979,541689.000,00000000,7145,12778;SOL_COMPUTED,SINGLE,36.76914154370,126.93478057382,96.7078,23.3000,WGS84,0.6119,0.5329,0.9289,"",0.000,0.000,9,9,9,9,0,12,00,01*5477ccc8
#BESTXYZA,COM1_1,0,70.0,FINESTEERING,1979,541689.000,00000000,bde7,12778;SOL_COMPUTED,SINGLE,-3073912.0781,4088894.6729,3796973.2449,0.7031,0.7823,0.6442,SOL_COMPUTED,SINGLE,0.0000,0.0000,0.0000,0.0011,0.0011,0.0011,"",0.150,0.000,0.000,9,9,9,9,0,12,00,01*232a7b96
#BESTPOSA,COM1_1,0,71.5,FINESTEERING,1979,541690.000,00000000,7145,12778;SOL_COMPUTED,SINGLE,36.76914154370,126.93478057382,96.7078,23.3000,WGS84,0.6119,0.5329,0.9289,"",0.000,0.000,9,9,9,9,0,12,00,01*b9f0cb17
#BESTXYZA,COM1_1,0,71.5,FINESTEERING,1979,541690.000,00000000,bde7,12778;SOL_COMPUTED,SINGLE,-3073912.0781,4088894.6729,3796973.2449,0.7031,0.7823,0.6442,SOL_COMPUTED,SINGLE,0.0000,0.0000,0.0000,0.0011,0.0011,0.0011,"",0.150,0.000,0.000,9,9,9,9,0,12,00,01*400991d5
#BESTPOSA,COM1_1,0,70.5,FINESTEERING,1979,541691.000,00000000,7145,12778;SOL_COMPUTED,SINGLE,36.76914153616,126.93478056019,96.7073,23.3000,WGS84,0.6111,0.5320,0.9282,"",0.000,0.000,9,9,9,9,0,12,00,01*387a57a4
#BESTXYZA,COM1_1,0,70.5,FINESTEERING,1979,541691.000,00000000,bde7,12778;SOL_COMPUTED,SINGLE,-3073912.0772,4088894.6737,3796973.2440,0.7021,0.7819,0.6434,SOL_COMPUTED,SINGLE,0.0000,0.0000,0.0000,0.0011,0.0011,0.0011,"",0.150,0.000,0.000,9,9,9,9,0,12,00,01*33c4eafe
#BESTPOSA,COM1_1,0,70.0,FINESTEERING,1979,541692.000,00000000,7145,12778;SOL_COMPUTED,SINGLE,36.76914153616,126.93478056019,96.7073,23.3000,WGS84,0.6111,0.5320,0.9282,"",0.000,0.000,9,9,9,9,0,12,00,01*45555380
#BESTXYZA,COM1_1,0,70.0,FINESTEERING,1979,541692.000,00000000,bde7,12778;SOL_COMPUTED,SINGLE,-3073912.0772,4088894.6737,3796973.2440,0.7021,0.7819,0.6434,SOL_COMPUTED,SINGLE,0.0000,0.0000,0.0000,0.0011,0.0011,0.0011,"",0.150,0.000,0.000,9,9,9,9,0,12,00,01*24d1aafc
#BESTXYZA,COM1_1,0,70.0,FINESTEERING,1979,541693.000,00000000,bde7,12778;SOL_COMPUTED,SINGLE,-3073912.0772,4088894.6737,3796973.2440,0.7021,0.7819,0.6434,SOL_COMPUTED,SINGLE,8.9162e-10,0.0000,-7.1224e-10,0.0011,0.0011,0.0011,"",0.150,0.000,0.000,9,9,9,9,0,12,00,01*9b84e1d4
#BESTPOSA,COM1_1,0,70.0,FINESTEERING,1979,541693.000,00000000,7145,12778;SOL_COMPUTED,SINGLE,36.76914153616,126.93478056019,96.7073,23.3000,WGS84,0.6112,0.5321,0.9282,"",0.000,0.000,9,9,9,9,0,12,00,01*120305d5
#BESTPOSA,COM1_1,0,71.0,FINESTEERING,1979,541694.000,00000000,7145,12778;SOL_COMPUTED,SINGLE,36.76914152834,126.93478054636,96.7068,23.3000,WGS84,0.6104,0.5312,0.9275,"",0.000,0.000,9,9,9,9,0,12,00,01*9d7329b9
#BESTXYZA,COM1_1,0,71.0,FINESTEERING,1979,541694.000,00000000,bde7,12778;SOL_COMPUTED,SINGLE,-3073912.0763,4088894.6746,3796973.2430,0.7011,0.7815,0.6425,SOL_COMPUTED,SINGLE,0.0000,0.0000,0.0000,0.0011,0.0011,0.0011,"",0.150,0.000,0.000,9,9,9,9,0,12,00,01*71ffd40a
#BESTPOSA,COM1_1,0,71.5,FINESTEERING,1979,541695.000,00000000,7145,12778;SOL_COMPUTED,SINGLE,36.76914152834,126.93478054636,96.7068,23.3000,WGS84,0.6104,0.5312,0.9275,"",0.000,0.000,9,9,9,9,0,12,00,01*42c06042
#BESTXYZA,COM1_1,0,71.5,FINESTEERING,1979,541695.000,00000000,bde7,12778;SOL_COMPUTED,SINGLE,-3073912.0763,4088894.6746,3796973.2430,0.7011,0.7815,0.6425,SOL_COMPUTED,SINGLE,0.0000,0.0000,0.0000,0.0011,0.0011,0.0011,"",0.150,0.000,0.000,9,9,9,9,0,12,00,01*b6bd2e96
#BESTPOSA,COM1_1,0,73.0,FINESTEERING,1979,541696.000,00000000,7145,12778;SOL_COMPUTED,SINGLE,36.76914152049,126.93478053193,96.7063,23.3000,WGS84,0.6096,0.5304,0.9269,"",0.000,0.000,9,9,9,9,0,12,00,01*0db7d143
#BESTXYZA,COM1_1,0,73.0,FINESTEERING,1979,541696.000,00000000,bde7,12778;SOL_COMPUTED,SINGLE,-3073912.0754,4088894.6754,3796973.2420,0.7001,0.7811,0.6416,SOL_COMPUTED,SINGLE,0.0000,0.0000,0.0000,0.0011,0.0011,0.0011,"",0.150,0.000,0.000,9,9,9,9,0,12,00,01*1fead78e
#BESTPOSA,COM1_1,0,71.5,FINESTEERING,1979,541697.000,00000000,7145,12778;SOL_COMPUTED,SINGLE,36.76914152049,126.93478053193,96.7063,23.3000,WGS84,0.6096,0.5304,0.9269,"",0.000,0.000,9,9,9,9,0,12,00,01*b4172ac7
#BESTXYZA,COM1_1,0,71.5,FINESTEERING,1979,541697.000,00000000,bde7,12778;SOL_COMPUTED,SINGLE,-3073912.0754,4088894.6754,3796973.2420,0.7001,0.7811,0.6416,SOL_COMPUTED,SINGLE,0.0000,0.0000,0.0000,0.0011,0.0011,0.0011,"",0.150,0.000,0.000,9,9,9,9,0,12,00,01*687428a1
#BESTPOSA,COM1_1,0,71.5,FINESTEERING,1979,541698.000,00000000,7145,12778;SOL_COMPUTED,SINGLE,36.76914152049,126.93478053193,96.7063,23.3000,WGS84,0.6096,0.5304,0.9269,"",0.000,0.000,9,9,9,9,0,12,00,01*d3d66297
#BESTXYZA,COM1_1,0,71.5,FINESTEERING,1979,541698.000,00000000,bde7,12778;SOL_COMPUTED,SINGLE,-3073912.0754,4088894.6754,3796973.2420,0.7001,0.7811,0.6416,SOL_COMPUTED,SINGLE,0.0000,0.0000,-7.4373e-10,0.0011,0.0011,0.0011,"",0.150,0.000,0.000,9,9,9,9,0,12,00,01*7aa5ea8e
#BESTPOSA,COM1_1,0,72.0,FINESTEERING,1979,541699.000,00000000,7145,12778;SOL_COMPUTED,SINGLE,36.76914151262,126.93478051709,96.7058,23.3000,WGS84,0.6088,0.5295,0.9262,"",0.000,0.000,9,9,9,9,0,12,00,01*62892613
#BESTXYZA,COM1_1,0,72.0,FINESTEERING,1979,541699.000,00000000,bde7,12778;SOL_COMPUTED,SINGLE,-3073912.0744,4088894.6763,3796973.2410,0.6991,0.7808,0.6407,SOL_COMPUTED,SINGLE,0.0000,0.0000,0.0000,0.0011,0.0011,0.0011,"",0.150,0.000,0.000,9,9,9,9,0,12,00,01*fee08770
#BESTPOSA,COM1_1,0,71.0,FINESTEERING,1979,541700.000,00000000,7145,12778;SOL_COMPUTED,SINGLE,36.76914151262,126.93478051709,96.7058,23.3000,WGS84,0.6088,0.5295,0.9262,"",0.000,0.000,9,9,9,9,0,12,00,01*3bbf13b7
#BESTXYZA,COM1_1,0,71.0,FINESTEERING,1979,541700.000,00000000,bde7,12778;SOL_COMPUTED,SINGLE,-3073912.0744,4088894.6763,3796973.2410,0.6991,0.7808,0.6407,SOL_COMPUTED,SINGLE,0.0000,0.0000,0.0000,0.0011,0.0011,0.0011,"",0.150,0.000,0.000,9,9,9,9,0,12,00,01*506a7d3f
#BESTPOSA,COM1_1,0,68.5,FINESTEERING,1979,541701.000,00000000,7145,12778;SOL_COMPUTED,SINGLE,36.76914150489,126.93478050199,96.7053,23.3000,WGS84,0.6080,0.5287,0.9256,"",0.000,0.000,9,9,9,9,0,12,00,01*9ce00a7d
#BESTXYZA,COM1_1,0,68.5,FINESTEERING,1979,541701.000,00000000,bde7,12778;SOL_COMPUTED,SINGLE,-3073912.0734,4088894.6772,3796973.2400,0.6981,0.7804,0.6399,SOL_COMPUTED,SINGLE,0.0000,0.0000,0.0000,0.0011,0.0011,0.0011,"",0.150,0.000,0.000,9,9,9,9,0,12,00,01*b3838ded
