#RAWEPHEMA,COM1_1,9,71.5,SATTIME,1979,286500.000,00000000,58ba,12778;12,1979,288000,8b0eec5d43a7eed0005d8ec8427a668b2b746c55e531465000fff02f43de,8b0eec5d442b31fb4b2d84fa73f451fbdf0369cd8909a6a10d6aa146507d,8b0eec5d422cfff5b7736e350028283e829c26bf2510a3a8ffa6fa31f829*bc3cba07
#RAWEPHEMA,COM1_1,8,71.5,SATTIME,1979,286470.000,00000000,58ba,12778;15,1979,288000,8b0eec5d4125eed0005d8ec8427a668b2b746c55e92d4650000000d127db,8b0eec5d41a82d015036bf644b1f2d00ff052506441628a10d5496465047,8b0eec5d422cffd05c74e1bcffb125d4920b14081a569f1effa7262df63e*273b6858
#RAWEPHEMA,COM1_1,7,71.5,SATTIME,1979,286470.000,00000000,58ba,12778;10,1979,287984,8b0eec5d4125eed0005d8ec8427a668b2b746c55042b464f00003b10d8ed,8b0eec5d41a82bfb7e33fbdc8ed24efbcb018dd5fe0e3ea10d4b28464f1d,8b0eec5d422c002f34d95f6dfff2271e81961f438a61a9c5ffa7332bf12f*1768bfa6
#RAWEPHEMA,COM1_1,6,71.5,SATTIME,1979,286470.000,00000000,58ba,12778;18,1979,288000,8b0eec5d4125eed0005d8ec8427a668b2b746c55e86b4650000002530601,8b0eec5d41a86bfbdb3d4cc401c4effcd1095621890c6da10d16de46507e,8b0eec5d422c006232d69e54010525b8e2231eb6b8081ae9ffa2616bf1a9*c45c3755
#RAWEPHEMA,COM1_1,5,71.5,SATTIME,1979,286500.000,00000000,58ba,12778;20,1979,288000,8b0eec5d43a7eed0005d8ec8427a668b2b746c55ee49465000000940ef90,8b0eec5d41a849fba73d355ac1e346fc1e025f9fdf0b1ba10e157646507f,8b0eec5d422c001a30c1c6e1ffe425c7d522204946caf6e8ffa25049f44f*a8ac9419
#RAWEPHEMA,COM1_1,4,71.5,SATTIME,1979,286500.000,00000000,58ba,12778;24,1979,288000,8b0eec5d43a7eed0005d8ec8427a668b2b746c55066b465000fffcfa4fd4,8b0eec5d41a86b0b6a361538fe6e4b09e40350b06e0ca2a10d5cdb46507d,8b0eec5d422cffff88c3e61e00322672930a1fb513df10c0ffa37b6b057d*e7b4057d
#RAWEPHEMA,COM1_1,3,71.5,SATTIME,1979,286500.000,00000000,58ba,12778;25,1979,288000,8b0eec5d43a7eed0005d8ec8427a668b2b746c550c5d465000ffc9bdd0b3,8b0eec5d442b5dfb1d30c8e8adb16efbe5037c233908a8a10db49846507c,8b0eec5d422c0003b5190618003a27bf135326b920cdb9f7ffa5785df7d8*5616e684
#RAWEPHEMA,COM1_1,2,71.5,SATTIME,1979,286470.000,00000000,58ba,12778;32,1979,288000,8b0eec5d4125eed0005d8ec8427a668b2b746c550165465000ffefba98dc,8b0eec5d41a86503b02ecda586454e036000c44bc71759a10cf0ca46507f,8b0eec5d422cffd95f56b5b40006270235551471933e2c80ffaaf365f9ca*c170ad1f
#RAWEPHEMA,COM1_1,1,71.5,SATTIME,1979,286470.000,00000000,58ba,12778;14,1979,288000,8b0eec5d4125eed0005d8ec8427a668b2b746c55eb4c465000fffaf42408,8b0eec5d41a84c05c22cb579a6b77204ee04bb35d717e0a10dd10e46507d,8b0eec5d422c002062c55a8dffef272c7e7013acb0763b78ffacf54cfc20*3014af8a
#RAWEPHEMA,COM1_1,0,71.5,SATTIME,1979,286470.000,00000000,58ba,12778;31,1979,288000,8b0eec5d4125eed0005d8ec8427a668b2b746c55e326465000ffe9146c92,8b0eec5d41a82609ae31cb09d7be3908a00482bab50af5a10c9498465060,8b0eec5d422c004b8b9015a4ffcc27543b2522bdf7d36da3ffa4cb260b56*4f197227
#RANGEA,COM1_1,0,71.5,FINESTEERING,1979,286515.000,00000000,5103,12778;10,20,0,24912043.229,0.089,-130913664.932782,0.096,-3791.404,42.2,1129.930,18009c04,31,0,24524818.190,0.078,-128878797.844109,0.057,3164.811,43.3,445.210,18009c24,18,0,20621197.568,0.037,-108365124.715960,0.039,-1297.125,49.8,1134.050,08009c44,32,0,22413508.289,0.041,-117783779.052537,0.039,2282.642,48.9,1103.460,18009c84,24,0,21814225.064,0.053,-114634534.445863,0.093,-2570.036,46.7,1124.500,18009ca4,15,0,24070910.904,0.051,-126493493.547839,0.049,-2725.747,46.9,1134.350,18009ce4,14,0,23972211.139,0.081,-125974829.768758,0.085,2478.510,42.9,1074.920,18009d04,10,0,20501214.104,0.031,-107734608.503701,0.039,574.950,51.4,1140.750,18009d24,25,0,21892898.292,0.046,-115047962.783242,0.096,2971.133,47.8,1113.920,18009d44,12,0,20991467.408,0.033,-110310912.795762,0.039,763.551,50.8,1143.640,18009d64*ece42e31
#SATXYZ2A,COM1_1,0,71.5,FINESTEERING,1979,286515.000,00000000,7513,12778;10,GPS,20,-21301458.0568,10177176.5080,-12287800.6605,148522.594,9.656,18.575,0.0,0.0,GPS,31,7432013.7301,24971302.5348,-3773358.7396,46719.712,9.768,15.142,0.0,0.0,GPS,18,-13583278.8337,21707559.2444,7295233.7990,189909.757,3.421,2.724,0.0,0.0,GPS,32,5684196.3261,16502390.9680,20059659.2928,-158739.336,4.694,3.981,0.0,0.0,GPS,24,-15691914.5843,1093003.5766,21321334.6756,-13014.943,4.068,3.579,0.0,0.0,GPS,15,-26169811.8607,-2192186.0823,4975453.9229,-107146.201,6.342,7.314,0.0,0.0,GPS,14,12720491.1034,17208219.9477,16117146.3458,-27123.951,6.765,7.022,0.0,0.0,GPS,10,-5420795.7949,20364991.0753,16103954.6107,38532.182,3.264,2.620,0.0,0.0,GPS,25,-19580564.0445,17758242.2462,140083.1684,-151375.780,4.463,3.613,0.0,0.0,GPS,12,-22245911.3972,8255197.6123,11560243.9197,108112.503,3.681,3.072,0.0,0.0*9750acfd
#BESTPOSA,COM1_1,0,71.5,FINESTEERING,1979,286515.000,00000000,7145,12778;SOL_COMPUTED,SINGLE,36.76914625761,126.93478679583,94.3416,23.3000,WGS84,0.6886,0.5579,1.1312,"",0.000,0.000,10,10,10,10,00,12,00,01*6836141b
#RANGEA,COM1_1,0,69.5,FINESTEERING,1979,286516.000,00000000,5103,12778;10,20,0,24912764.640,0.086,-130917456.010999,0.094,-3791.152,42.5,1130.930,18009c04,31,0,24524215.927,0.076,-128875632.930402,0.089,3165.019,43.5,446.210,18009c24,18,0,20621444.378,0.037,-108366421.710271,0.098,-1297.170,49.9,1135.050,08009c44,32,0,22413073.871,0.041,-117781496.191722,0.094,2282.882,48.9,1104.460,18009c84,24,0,21814714.064,0.053,-114637104.241433,0.097,-2569.734,46.7,1125.500,18009ca4,15,0,24071429.530,0.051,-126496218.916724,0.101,-2725.426,47.0,1135.350,18009ce4,14,0,23971739.431,0.080,-125972350.930907,0.062,2478.984,43.0,1075.920,18009d04,10,0,20501104.679,0.031,-107734033.433761,0.105,574.794,51.4,1141.750,18009d24,25,0,21892332.889,0.046,-115044991.548301,0.100,2971.041,47.9,1114.920,18009d44,12,0,20991322.103,0.033,-110310149.196782,0.093,763.329,50.9,1144.640,18009d64*2b4b044f
#SATXYZ2A,COM1_1,0,69.5,FINESTEERING,1979,286516.000,00000000,7513,12778;10,GPS,20,-21300669.8115,10175809.4931,-12290333.8550,148522.595,9.657,18.590,0.0,0.0,GPS,31,7431811.3639,24971841.6750,-3770194.4447,46719.710,9.766,15.133,0.0,0.0,GPS,18,-13584145.7921,21707912.2084,7292313.9810,189909.758,3.421,2.725,0.0,0.0,GPS,32,5681733.6046,16501752.7875,20060876.9295,-158739.337,4.694,3.981,0.0,0.0,GPS,24,-15692587.1337,1090352.5325,21321004.3991,-13014.943,4.069,3.580,0.0,0.0,GPS,15,-26170371.0814,-2192666.2334,4972461.4768,-107146.201,6.343,7.316,0.0,0.0,GPS,14,12718580.9733,17207640.0094,16119294.0549,-27123.950,6.764,7.020,0.0,0.0,GPS,10,-5422433.2823,20366233.9973,16101814.3002,38532.184,3.264,2.620,0.0,0.0,GPS,25,-19580708.5063,17758029.1029,143306.0489,-151375.782,4.463,3.612,0.0,0.0,GPS,12,-22244866.7861,8254109.0352,11563010.2156,108112.501,3.681,3.072,0.0,0.0*5758689b
#BESTPOSA,COM1_1,0,69.5,FINESTEERING,1979,286516.000,00000000,7145,12778;SOL_COMPUTED,SINGLE,36.76914625761,126.93478679583,94.3416,23.3000,WGS84,0.6887,0.5579,1.1312,"",0.000,0.000,10,10,10,10,00,12,00,01*1b59e8ae
#RANGEA,COM1_1,0,69.5,FINESTEERING,1979,286517.000,00000000,5103,12778;10,20,0,24913485.069,0.087,-130921241.813655,0.114,-3786.241,42.3,1131.930,18009c04,31,0,24523612.694,0.076,-128872462.947432,0.062,3169.256,43.5,447.210,18009c24,18,0,20621690.291,0.036,-108367713.982880,0.067,-1293.205,49.9,1136.050,08009c44,32,0,22412638.471,0.041,-117779208.166812,0.064,2287.227,48.9,1105.460,18009c84,24,0,21815202.100,0.052,-114639668.957278,0.066,-2565.517,46.8,1126.500,18009ca4,15,0,24071947.169,0.050,-126498939.141877,0.069,-2721.153,47.1,1136.350,18009ce4,14,0,23971266.721,0.079,-125969866.816880,0.105,2483.586,43.1,1076.920,18009d04,10,0,20500994.372,0.031,-107733453.740691,0.070,578.719,51.4,1142.750,18009d24,25,0,21891766.564,0.046,-115042015.458987,0.068,2975.256,47.9,1115.920,18009d44,12,0,20991175.923,0.032,-110309381.041154,0.064,767.053,50.9,1145.640,18009d64*90e3f4af
#SATXYZ2A,COM1_1,0,69.5,FINESTEERING,1979,286517.000,00000000,7513,12778;10,GPS,20,-21299881.4284,10174442.2022,-12292866.7895,148522.595,9.659,18.606,0.0,0.0,GPS,31,7431608.9535,24972380.4320,-3767030.0674,46719.709,9.764,15.124,0.0,0.0,GPS,18,-13585012.4843,21708264.9558,7289394.0090,189909.758,3.421,2.725,0.0,0.0,GPS,32,5679270.6998,16501114.7042,20062094.1408,-158739.337,4.693,3.980,0.0,0.0,GPS,24,-15693259.8169,1087701.5688,21320673.6657,-13014.944,4.069,3.580,0.0,0.0,GPS,15,-26170929.9649,-2193146.2688,4969468.9268,-107146.200,6.343,7.318,0.0,0.0,GPS,14,12716670.5626,17207060.0846,16121441.4297,-27123.949,6.763,7.019,0.0,0.0,GPS,10,-5424070.5015,20367476.8312,16099673.6457,38532.185,3.264,2.620,0.0,0.0,GPS,25,-19580852.6807,17757815.6918,146528.9263,-151375.785,4.462,3.612,0.0,0.0,GPS,12,-22243821.9698,8253020.1706,11565776.2609,108112.500,3.680,3.072,0.0,0.0*7fc965e1
#BESTPOSA,COM1_1,0,69.5,FINESTEERING,1979,286517.000,00000000,7145,12778;SOL_COMPUTED,SINGLE,36.76914625761,126.93478679583,94.3416,23.3000,WGS84,0.6887,0.5579,1.1312,"",0.000,0.000,10,10,10,10,00,12,00,01*f3909045
#RANGEA,COM1_1,0,72.5,FINESTEERING,1979,286518.000,00000000,5103,12778;10,20,0,24914205.880,0.090,-130925029.747434,0.074,-3790.886,42.0,1132.930,18009c04,31,0,24523009.888,0.077,-128869295.264102,0.046,3164.573,43.4,448.210,18009c24,18,0,20621936.713,0.036,-108369008.928305,0.047,-1298.267,49.9,1137.050,08009c44,32,0,22412203.491,0.041,-117776922.356782,0.045,2282.627,48.9,1106.460,18009c84,24,0,21815690.577,0.052,-114642235.969867,0.047,-2570.115,46.7,1127.500,18009ca4,15,0,24072465.237,0.051,-126501661.611865,0.048,-2725.572,46.9,1137.350,18009ce4,14,0,23970794.421,0.080,-125967384.818997,0.068,2479.162,43.1,1077.920,18009d04,10,0,20500884.584,0.031,-107732876.793559,0.049,573.678,51.4,1143.750,18009d24,25,0,21891200.722,0.046,-115039041.911980,0.047,2970.278,47.9,1116.920,18009d44,12,0,20991030.275,0.032,-110308615.689092,0.046,761.995,50.9,1146.640,18009d64*b236b2ba
#SATXYZ2A,COM1_1,0,72.5,FINESTEERING,1979,286518.000,00000000,7513,12778;10,GPS,20,-21299092.9077,10173074.6353,-12295399.4641,148522.596,9.660,18.621,0.0,0.0,GPS,31,7431406.4987,24972918.8056,-3763865.6078,46719.707,9.762,15.115,0.0,0.0,GPS,18,-13585878.9104,21708617.4866,7286473.8831,189909.758,3.421,2.725,0.0,0.0,GPS,32,5676807.6117,16500476.7179,20063310.9268,-158739.338,4.692,3.980,0.0,0.0,GPS,24,-15693932.6340,1085050.6858,21320342.4754,-13014.944,4.069,3.581,0.0,0.0,GPS,15,-26171488.5112,-2193626.1886,4966476.2730,-107146.200,6.344,7.320,0.0,0.0,GPS,14,12714759.8713,17206480.1732,16123588.4703,-27123.949,6.762,7.017,0.0,0.0,GPS,10,-5425707.4523,20368719.5771,16097532.6471,38532.187,3.264,2.620,0.0,0.0,GPS,25,-19580996.5678,17757602.0129,149751.8006,-151375.787,4.461,3.611,0.0,0.0,GPS,12,-22242776.9485,8251931.0186,11568542.0553,108112.499,3.680,3.072,0.0,0.0*4c37ff78
#BESTPOSA,COM1_1,0,72.5,FINESTEERING,1979,286518.000,00000000,7145,12778;SOL_COMPUTED,SINGLE,36.76914626482,126.93478680959,94.3505,23.3000,WGS84,0.6873,0.5566,1.1290,"",0.000,0.000,10,10,10,10,00,12,00,01*19092a72
#RANGEA,COM1_1,0,71.0,FINESTEERING,1979,286519.000,00000000,5103,12778;10,20,0,24914926.793,0.089,-130928818.253075,0.055,-3790.867,42.1,1133.930,18009c04,31,0,24522407.247,0.076,-128866128.334061,0.042,3164.566,43.6,449.210,18009c24,18,0,20622183.344,0.037,-108370304.976395,0.042,-1298.640,49.9,1138.050,08009c44,32,0,22411768.639,0.041,-117774637.214248,0.042,2282.799,48.9,1107.460,18009c84,24,0,21816179.190,0.053,-114644803.730386,0.042,-2570.139,46.7,1128.500,18009ca4,15,0,24072983.428,0.051,-126504384.765462,0.043,-2725.580,46.9,1138.350,18009ce4,14,0,23970322.227,0.082,-125964903.415967,0.052,2479.001,42.9,1078.920,18009d04,10,0,20500775.024,0.031,-107732301.048615,0.043,573.261,51.4,1144.750,18009d24,25,0,21890635.051,0.047,-115036069.328683,0.042,2970.002,47.8,1117.920,18009d44,12,0,20990884.873,0.033,-110307851.604775,0.041,761.484,50.9,1147.640,18009d64*2efbd2ee
#SATXYZ2A,COM1_1,0,71.0,FINESTEERING,1979,286519.000,00000000,7513,12778;10,GPS,20,-21298304.2494,10171706.7924,-12297931.8787,148522.596,9.661,18.637,0.0,0.0,GPS,31,7431203.9996,24973456.7960,-3760701.0660,46719.705,9.761,15.106,0.0,0.0,GPS,18,-13586745.0705,21708969.8006,7283553.6032,189909.758,3.422,2.725,0.0,0.0,GPS,32,5674344.3404,16499838.8289,20064527.2873,-158739.338,4.692,3.979,0.0,0.0,GPS,24,-15694605.5849,1082399.8834,21320010.8283,-13014.944,4.069,3.581,0.0,0.0,GPS,15,-26172046.7204,-2194105.9929,4963483.5156,-107146.199,6.344,7.322,0.0,0.0,GPS,14,12712848.8995,17205900.2752,16125735.1765,-27123.948,6.761,7.015,0.0,0.0,GPS,10,-5427344.1349,20369962.2350,16095391.3046,38532.189,3.264,2.620,0.0,0.0,GPS,25,-19581140.1676,17757388.0662,152974.6716,-151375.789,4.460,3.610,0.0,0.0,GPS,12,-22241731.7222,8250841.5792,11571307.5990,108112.498,3.680,3.072,0.0,0.0*f49be1a1
#BESTPOSA,COM1_1,0,71.0,FINESTEERING,1979,286519.000,00000000,7145,12778;SOL_COMPUTED,SINGLE,36.76914626482,126.93478680959,94.3505,23.3000,WGS84,0.6873,0.5566,1.1291,"",0.000,0.000,10,10,10,10,00,12,00,01*d214e473
#RANGEA,COM1_1,0,70.5,FINESTEERING,1979,286520.000,00000000,5103,12778;10,20,0,24915648.183,0.089,-130932609.267012,0.075,-3790.036,42.2,1134.930,18009c04,31,0,24521805.112,0.075,-128862964.098250,0.039,3165.197,43.6,450.210,18009c24,18,0,20622430.555,0.037,-108371604.085780,0.038,-1297.804,49.8,1139.050,08009c44,32,0,22411334.281,0.042,-117772354.678656,0.038,2283.601,48.7,1108.460,18009c84,24,0,21816668.324,0.053,-114647374.171929,0.039,-2569.458,46.7,1129.500,18009ca4,15,0,24073502.125,0.052,-126507110.546204,0.039,-2724.741,46.8,1139.350,18009ce4,14,0,23969850.500,0.081,-125962424.468545,0.043,2480.406,43.0,1079.920,18009d04,10,0,20500666.066,0.031,-107731728.454024,0.039,573.695,51.4,1145.750,18009d24,25,0,21890069.943,0.047,-115033099.670924,0.037,2970.837,47.7,1118.920,18009d44,12,0,20990740.079,0.033,-110307090.741155,0.038,761.500,50.8,1148.640,18009d64*525b1875
#SATXYZ2A,COM1_1,0,70.5,FINESTEERING,1979,286520.000,00000000,7513,12778;10,GPS,20,-21297515.4535,10170338.6735,-12300464.0332,148522.597,9.663,18.652,0.0,0.0,GPS,31,7431001.4561,24973994.4029,-3757536.4420,46719.704,9.759,15.097,0.0,0.0,GPS,18,-13587610.9645,21709321.8980,7280633.1695,189909.759,3.422,2.725,0.0,0.0,GPS,32,5671880.8860,16499201.0371,20065743.2225,-158739.338,4.691,3.979,0.0,0.0,GPS,24,-15695278.6696,1079749.1617,21319678.7243,-13014.945,4.070,3.582,0.0,0.0,GPS,15,-26172604.5923,-2194585.6816,4960490.6545,-107146.198,6.345,7.324,0.0,0.0,GPS,14,12710937.6472,17205320.3908,16127881.5485,-27123.948,6.760,7.014,0.0,0.0,GPS,10,-5428980.5491,20371204.8046,16093249.6182,38532.191,3.264,2.620,0.0,0.0,GPS,25,-19581283.4802,17757173.8516,156197.5393,-151375.792,4.460,3.610,0.0,0.0,GPS,12,-22240686.2909,8249751.8523,11574072.8917,108112.497,3.679,3.072,0.0,0.0*d4ec8a8c
#BESTPOSA,COM1_1,0,70.5,FINESTEERING,1979,286520.000,00000000,7145,12778;SOL_COMPUTED,SINGLE,36.76914627221,126.93478682402,94.3592,23.3000,WGS84,0.6859,0.5553,1.1269,"",0.000,0.000,10,10,10,10,00,12,00,01*77a90593
#RANGEA,COM1_1,0,68.5,FINESTEERING,1979,286521.000,00000000,5103,12778;10,20,0,24916369.160,0.088,-130936397.943133,0.090,-3787.266,42.3,1135.930,18009c04,31,0,24521202.557,0.076,-128859797.700715,0.037,3167.736,43.6,451.210,18009c24,18,0,20622677.429,0.037,-108372901.404956,0.038,-1296.143,49.8,1140.050,08009c44,32,0,22410899.491,0.042,-117770069.904097,0.037,2286.193,48.7,1109.460,18009c84,24,0,21817157.040,0.053,-114649942.473836,0.038,-2566.698,46.7,1130.500,18009ca4,15,0,24074020.420,0.052,-126509834.151271,0.039,-2721.809,46.9,1140.350,18009ce4,14,0,23969378.322,0.082,-125959943.186271,0.040,2482.839,42.9,1080.920,18009d04,10,0,20500556.788,0.031,-107731154.146712,0.038,575.450,51.4,1146.750,18009d24,25,0,21889504.476,0.047,-115030128.104148,0.037,2973.092,47.7,1119.920,18009d44,12,0,20990594.978,0.033,-110306328.229041,0.037,764.007,50.8,1149.640,18009d64*8388a823
#SATXYZ2A,COM1_1,0,68.5,FINESTEERING,1979,286521.000,00000000,7513,12778;10,GPS,20,-21296726.5201,10168970.2785,-12302995.9276,148522.597,9.664,18.667,0.0,0.0,GPS,31,7430798.8681,24974531.6266,-3754371.7359,46719.702,9.757,15.088,0.0,0.0,GPS,18,-13588476.5925,21709673.7786,7277712.5820,189909.759,3.422,2.726,0.0,0.0,GPS,32,5669417.2485,16498563.3426,20066958.7321,-158739.339,4.691,3.978,0.0,0.0,GPS,24,-15695951.8880,1077098.5208,21319346.1635,-13014.945,4.070,3.582,0.0,0.0,GPS,15,-26173162.1270,-2195065.2549,4957497.6899,-107146.198,6.345,7.325,0.0,0.0,GPS,14,12709026.1144,17204740.5200,16130027.5860,-27123.947,6.759,7.012,0.0,0.0,GPS,10,-5430616.6951,20372447.2861,16091107.5879,38532.193,3.263,2.620,0.0,0.0,GPS,25,-19581426.5056,17756959.3691,159420.4037,-151375.794,4.459,3.609,0.0,0.0,GPS,12,-22239640.6547,8248661.8380,11576837.9335,108112.495,3.679,3.072,0.0,0.0*37ef3c1a
#BESTPOSA,COM1_1,0,68.5,FINESTEERING,1979,286521.000,00000000,7145,12778;SOL_COMPUTED,SINGLE,36.76914627221,126.93478682402,94.3592,23.3000,WGS84,0.6859,0.5554,1.1269,"",0.000,0.000,10,10,10,10,00,12,00,01*ca9e917d
#RANGEA,COM1_1,0,68.5,FINESTEERING,1979,286522.000,00000000,5103,12778;10,20,0,24917089.614,0.091,-130940183.990960,0.061,-3785.094,41.9,1136.930,18009c04,31,0,24520599.551,0.075,-128856628.880355,0.035,3169.776,43.7,452.210,18009c24,18,0,20622923.910,0.037,-108374196.673072,0.034,-1294.063,49.8,1141.050,08009c44,32,0,22410464.229,0.042,-117767782.627337,0.034,2288.558,48.7,1110.460,18009c84,24,0,21817645.284,0.052,-114652508.339576,0.035,-2564.807,46.8,1131.500,18009ca4,15,0,24074538.231,0.052,-126512555.248338,0.035,-2719.690,46.9,1141.350,18009ce4,14,0,23968905.656,0.079,-125957459.339055,0.037,2485.227,43.2,1081.920,18009d04,10,0,20500447.127,0.031,-107730577.864425,0.034,577.470,51.4,1147.750,18009d24,25,0,21888938.585,0.047,-115027154.338530,0.034,2974.786,47.7,1120.920,18009d44,12,0,20990449.513,0.033,-110305563.821921,0.034,765.286,50.8,1150.640,18009d64*0e44c25f
#SATXYZ2A,COM1_1,0,68.5,FINESTEERING,1979,286522.000,00000000,7513,12778;10,GPS,20,-21295937.4492,10167601.6075,-12305527.5617,148522.598,9.666,18.683,0.0,0.0,GPS,31,7430596.2355,24975068.4670,-3751206.9477,46719.700,9.755,15.079,0.0,0.0,GPS,18,-13589341.9545,21710025.4424,7274791.8407,189909.759,3.422,2.726,0.0,0.0,GPS,32,5666953.4280,16497925.7453,20068173.8163,-158739.339,4.690,3.978,0.0,0.0,GPS,24,-15696625.2403,1074447.9608,21319013.1458,-13014.945,4.070,3.583,0.0,0.0,GPS,15,-26173719.3245,-2195544.7127,4954504.6217,-107146.197,6.345,7.327,0.0,0.0,GPS,14,12707114.3012,17204160.6629,16132173.2891,-27123.946,6.758,7.010,0.0,0.0,GPS,10,-5432252.5726,20373689.6792,16088965.2139,38532.195,3.263,2.620,0.0,0.0,GPS,25,-19581569.2438,17756744.6186,162643.2646,-151375.796,4.458,3.609,0.0,0.0,GPS,12,-22238594.8136,8247571.5363,11579602.7243,108112.494,3.679,3.072,0.0,0.0*4f5ea269
#BESTPOSA,COM1_1,0,68.5,FINESTEERING,1979,286522.000,00000000,7145,12778;SOL_COMPUTED,SINGLE,36.76914627221,126.93478682402,94.3592,23.3000,WGS84,0.6859,0.5554,1.1269,"",0.000,0.000,10,10,10,10,00,12,00,01*28b41e01
#RANGEA,COM1_1,0,70.5,FINESTEERING,1979,286523.000,00000000,5103,12778;10,20,0,24917810.353,0.090,-130943971.525889,0.098,-3791.176,42.1,1137.930,18009c04,31,0,24519996.863,0.073,-128853461.755277,0.089,3162.948,43.8,453.210,18009c24,18,0,20623170.773,0.037,-108375493.967404,0.038,-1301.889,49.8,1142.050,08009c44,32,0,22410029.265,0.042,-117765496.939662,0.080,2281.853,48.7,1111.460,18009c84,24,0,21818133.858,0.052,-114655075.897668,0.038,-2571.555,46.8,1132.500,18009ca4,15,0,24075056.350,0.051,-126515277.960408,0.038,-2726.715,46.9,1142.350,18009ce4,14,0,23968433.267,0.080,-125954976.921094,0.077,2478.246,43.1,1082.920,18009d04,10,0,20500337.873,0.031,-107730003.719268,0.037,569.543,51.4,1148.750,18009d24,25,0,21888373.076,0.047,-115024182.484013,0.087,2967.640,47.8,1121.920,18009d44,12,0,20990304.465,0.033,-110304801.595820,0.038,757.895,50.8,1151.640,18009d64*df0d989b
#SATXYZ2A,COM1_1,0,70.5,FINESTEERING,1979,286523.000,00000000,7513,12778;10,GPS,20,-21295148.2409,10166232.6606,-12308058.9357,148522.598,9.667,18.699,0.0,0.0,GPS,31,7430393.5584,24975604.9240,-3748042.0775,46719.699,9.754,15.070,0.0,0.0,GPS,18,-13590207.0505,21710376.8894,7271870.9458,189909.760,3.422,2.726,0.0,0.0,GPS,32,5664489.4245,16497288.2454,20069388.4751,-158739.340,4.689,3.977,0.0,0.0,GPS,24,-15697298.7263,1071797.4817,21318679.6713,-13014.946,4.070,3.583,0.0,0.0,GPS,15,-26174276.1846,-2196024.0551,4951511.4501,-107146.196,6.346,7.329,0.0,0.0,GPS,14,12705202.2075,17203580.8194,16134318.6577,-27123.946,6.757,7.009,0.0,0.0,GPS,10,-5433888.1819,20374931.9841,16086822.4960,38532.197,3.263,2.620,0.0,0.0,GPS,25,-19581711.6948,17756529.6001,165866.1220,-151375.799,4.457,3.608,0.0,0.0,GPS,12,-22237548.7678,8246480.9470,11582367.2641,108112.493,3.679,3.071,0.0,0.0*5793e44d
#BESTPOSA,COM1_1,0,70.5,FINESTEERING,1979,286523.000,00000000,7145,12778;SOL_COMPUTED,SINGLE,36.76914628051,126.93478683860,94.3678,23.3000,WGS84,0.6846,0.5541,1.1248,"",0.000,0.000,10,10,10,10,00,12,00,01*4d77fc8d
#RANGEA,COM1_1,0,70.5,FINESTEERING,1979,286524.000,00000000,5103,12778;10,20,0,24918531.087,0.089,-130947758.966124,0.087,-3784.823,42.1,1138.930,18009c04,31,0,24519394.187,0.073,-128850294.690539,0.095,3170.003,43.9,454.210,18009c24,18,0,20623417.722,0.037,-108376791.690812,0.038,-1294.714,49.8,1143.050,08009c44,32,0,22409594.299,0.042,-117763211.233785,0.057,2289.036,48.8,1112.460,18009c84,24,0,21818622.448,0.053,-114657643.511191,0.039,-2564.361,46.7,1133.500,18009ca4,15,0,24075574.462,0.052,-126518000.683148,0.083,-2719.469,46.8,1143.350,18009ce4,14,0,23967960.867,0.081,-125952494.396058,0.057,2485.579,43.0,1083.920,18009d04,10,0,20500228.718,0.031,-107729430.079751,0.038,576.563,51.4,1149.750,18009d24,25,0,21887807.607,0.046,-115021210.922267,0.061,2974.622,47.8,1122.920,18009d44,12,0,20990159.522,0.033,-110304039.947457,0.038,764.540,50.9,1152.640,18009d64*b7e3c991
#SATXYZ2A,COM1_1,0,70.5,FINESTEERING,1979,286524.000,00000000,7513,12778;10,GPS,20,-21294358.8952,10164863.4376,-12310590.0493,148522.599,9.668,18.714,0.0,0.0,GPS,31,7430190.8367,24976140.9976,-3744877.1254,46719.697,9.752,15.062,0.0,0.0,GPS,18,-13591071.8805,21710728.1194,7268949.8973,189909.760,3.422,2.726,0.0,0.0,GPS,32,5662025.2381,16496650.8428,20070602.7082,-158739.340,4.689,3.977,0.0,0.0,GPS,24,-15697972.3460,1069147.0835,21318345.7400,-13014.946,4.071,3.583,0.0,0.0,GPS,15,-26174832.7075,-2196503.2822,4948518.1751,-107146.196,6.346,7.331,0.0,0.0,GPS,14,12703289.8335,17203000.9897,16136463.6918,-27123.945,6.756,7.007,0.0,0.0,GPS,10,-5435523.5228,20376174.2005,16084679.4345,38532.199,3.263,2.620,0.0,0.0,GPS,25,-19581853.8588,17756314.3136,169088.9759,-151375.801,4.457,3.608,0.0,0.0,GPS,12,-22236502.5173,8245390.0703,11585131.5527,108112.492,3.678,3.071,0.0,0.0*3abb7ece
#BESTPOSA,COM1_1,0,70.5,FINESTEERING,1979,286524.000,00000000,7145,12778;SOL_COMPUTED,SINGLE,36.76914628051,126.93478683860,94.3678,23.3000,WGS84,0.6846,0.5541,1.1248,"",0.000,0.000,10,10,10,10,00,12,00,01*ba9a9cdf
#RANGEA,COM1_1,0,70.5,FINESTEERING,1979,286525.000,00000000,5103,12778;10,20,0,24919251.349,0.089,-130951543.887233,0.064,-3778.542,42.1,1139.930,18009c04,31,0,24518791.081,0.072,-128847125.325501,0.123,3175.646,44.0,455.210,18009c24,18,0,20623664.308,0.037,-108378087.495671,0.101,-1289.668,49.8,1144.050,08009c44,32,0,22409158.890,0.042,-117760923.162120,0.102,2294.362,48.8,1113.460,18009c84,24,0,21819110.595,0.054,-114660208.829213,0.108,-2559.242,46.6,1134.500,18009ca4,15,0,24076092.129,0.051,-126520721.054822,0.062,-2713.938,47.0,1144.350,18009ce4,14,0,23967487.975,0.079,-125950009.395196,0.106,2491.151,43.1,1084.920,18009d04,10,0,20500119.212,0.031,-107728854.608172,0.101,581.605,51.4,1150.750,18009d24,25,0,21887241.743,0.047,-115018237.290294,0.097,2979.779,47.8,1123.920,18009d44,12,0,20990014.247,0.032,-110303276.524117,0.043,769.644,50.9,1153.640,18009d64*232f5d45
#SATXYZ2A,COM1_1,0,70.5,FINESTEERING,1979,286525.000,00000000,7513,12778;10,GPS,20,-21293569.4123,10163493.9386,-12313120.9026,148522.599,9.670,18.730,0.0,0.0,GPS,31,7429988.0703,24976676.6880,-3741712.0915,46719.695,9.750,15.053,0.0,0.0,GPS,18,-13591936.4446,21711079.1325,7266028.6953,189909.760,3.423,2.726,0.0,0.0,GPS,32,5659560.8688,16496013.5377,20071816.5159,-158739.341,4.688,3.976,0.0,0.0,GPS,24,-15698646.0994,1066496.7663,21318011.3518,-13014.947,4.071,3.584,0.0,0.0,GPS,15,-26175388.8931,-2196982.3940,4945524.7968,-107146.195,6.347,7.333,0.0,0.0,GPS,14,12701377.1792,17202421.1738,16138608.3914,-27123.944,6.755,7.005,0.0,0.0,GPS,10,-5437158.5953,20377416.3285,16082536.0292,38532.200,3.263,2.620,0.0,0.0,GPS,25,-19581995.7357,17756098.7590,172311.8260,-151375.803,4.456,3.607,0.0,0.0,GPS,12,-22235456.0621,8244298.9061,11587895.5901,108112.491,3.678,3.071,0.0,0.0*8c3a1944
#BESTPOSA,COM1_1,0,70.5,FINESTEERING,1979,286525.000,00000000,7145,12778;SOL_COMPUTED,SINGLE,36.76914628991,126.93478685357,94.3763,23.3000,WGS84,0.6833,0.5528,1.1227,"",0.000,0.000,10,10,10,10,00,12,00,01*4035756e
#RANGEA,COM1_1,0,70.5,FINESTEERING,1979,286526.000,00000000,5103,12778;10,20,0,24919970.990,0.087,-130955325.654368,0.049,-3783.208,42.4,1140.930,18009c04,31,0,24518187.396,0.072,-128843952.959287,0.080,3170.493,44.0,456.210,18009c24,18,0,20623910.390,0.037,-108379380.670638,0.068,-1295.040,49.8,1145.050,08009c44,32,0,22408722.892,0.041,-117758632.015601,0.068,2289.393,48.8,1114.460,18009c84,24,0,21819598.175,0.052,-114662771.166789,0.072,-2564.121,46.7,1135.500,18009ca4,15,0,24076609.223,0.051,-126523438.390672,0.048,-2719.041,47.0,1145.350,18009ce4,14,0,23967014.494,0.078,-125947521.204118,0.071,2486.652,43.2,1085.920,18009d04,10,0,20500009.222,0.031,-107728276.593011,0.068,576.104,51.4,1151.750,18009d24,25,0,21886675.373,0.047,-115015260.937783,0.066,2974.519,47.7,1124.920,18009d44,12,0,20989868.501,0.033,-110302510.640885,0.040,763.780,50.9,1154.640,18009d64*53369460
#SATXYZ2A,COM1_1,0,70.5,FINESTEERING,1979,286526.000,00000000,7513,12778;10,GPS,20,-21292779.7921,10162124.1636,-12315651.4956,148522.600,9.671,18.745,0.0,0.0,GPS,31,7429785.2592,24977211.9950,-3738546.9759,46719.694,9.748,15.044,0.0,0.0,GPS,18,-13592800.7427,21711429.9285,7263107.3398,189909.761,3.423,2.727,0.0,0.0,GPS,32,5657096.3166,16495376.3300,20073029.8979,-158739.341,4.687,3.976,0.0,0.0,GPS,24,-15699319.9865,1063846.5303,21317676.5069,-13014.947,4.071,3.584,0.0,0.0,GPS,15,-26175944.7413,-2197461.3905,4942531.3153,-107146.195,6.347,7.335,0.0,0.0,GPS,14,12699464.2445,17201841.3717,16140752.7563,-27123.944,6.754,7.004,0.0,0.0,GPS,10,-5438793.3994,20378658.3679,16080392.2803,38532.202,3.263,2.620,0.0,0.0,GPS,25,-19582137.3256,17755882.9363,175534.6725,-151375.806,4.455,3.607,0.0,0.0,GPS,12,-22234409.4023,8243207.4544,11590659.3763,108112.490,3.678,3.071,0.0,0.0*849af659
#BESTPOSA,COM1_1,0,70.5,FINESTEERING,1979,286526.000,00000000,7145,12778;SOL_COMPUTED,SINGLE,36.76914628991,126.93478685357,94.3763,23.3000,WGS84,0.6833,0.5529,1.1227,"",0.000,0.000,10,10,10,10,00,12,00,01*cb66f177
#RANGEA,COM1_1,0,71.0,FINESTEERING,1979,286527.000,00000000,5103,12778;10,20,0,24920690.669,0.086,-130959107.613856,0.040,-3782.876,42.4,1141.930,18009c04,31,0,24517583.792,0.072,-128840780.980618,0.056,3170.788,43.9,457.210,18009c24,18,0,20624156.614,0.037,-108380674.578553,0.050,-1295.070,49.8,1146.050,08009c44,32,0,22408286.956,0.042,-117756341.167291,0.051,2289.778,48.8,1115.460,18009c84,24,0,21820085.832,0.052,-114665333.882676,0.052,-2563.823,46.8,1136.500,18009ca4,15,0,24077126.381,0.051,-126526156.042134,0.040,-2718.873,47.0,1146.350,18009ce4,14,0,23966541.043,0.080,-125945033.208909,0.052,2487.245,43.1,1086.920,18009d04,10,0,20499899.392,0.031,-107727699.406457,0.050,575.987,51.4,1152.750,18009d24,25,0,21886109.105,0.046,-115012285.167506,0.048,2974.472,47.8,1125.920,18009d44,12,0,20989722.929,0.032,-110301745.641389,0.037,763.490,50.9,1155.640,18009d64*a70a98d6
#SATXYZ2A,COM1_1,0,71.0,FINESTEERING,1979,286527.000,00000000,7513,12778;10,GPS,20,-21291990.0347,10160754.1126,-12318181.8280,148522.600,9.673,18.761,0.0,0.0,GPS,31,7429582.4033,24977746.9187,-3735381.7785,46719.692,9.747,15.035,0.0,0.0,GPS,18,-13593664.7748,21711780.5076,7260185.8308,189909.761,3.423,2.727,0.0,0.0,GPS,32,5654631.5817,16494739.2198,20074242.8544,-158739.342,4.687,3.975,0.0,0.0,GPS,24,-15699994.0072,1061196.3754,21317341.2051,-13014.947,4.071,3.585,0.0,0.0,GPS,15,-26176500.2521,-2197940.2718,4939537.7305,-107146.194,6.347,7.337,0.0,0.0,GPS,14,12697551.0295,17201261.5835,16142896.7866,-27123.943,6.753,7.002,0.0,0.0,GPS,10,-5440427.9352,20379900.3188,16078248.1879,38532.204,3.263,2.619,0.0,0.0,GPS,25,-19582278.6285,17755666.8454,178757.5152,-151375.808,4.454,3.606,0.0,0.0,GPS,12,-22233362.5379,8242115.7151,11593422.9112,108112.488,3.678,3.071,0.0,0.0*711c0d7e
#BESTPOSA,COM1_1,0,71.0,FINESTEERING,1979,286527.000,00000000,7145,12778;SOL_COMPUTED,SINGLE,36.76914628991,126.93478685357,94.3763,23.3000,WGS84,0.6833,0.5529,1.1227,"",0.000,0.000,10,10,10,10,00,12,00,01*4e018d36
#RANGEA,COM1_1,0,72.0,FINESTEERING,1979,286528.000,00000000,5103,12778;10,20,0,24921410.847,0.085,-130962892.171328,0.040,-3780.302,42.6,1142.930,18009c04,31,0,24516980.710,0.070,-128837611.778268,0.047,3173.636,44.2,458.210,18009c24,18,0,20624403.435,0.037,-108381971.653010,0.044,-1292.643,49.9,1147.050,08009c44,32,0,22407851.533,0.041,-117754053.012441,0.045,2292.624,48.8,1116.460,18009c84,24,0,21820574.017,0.053,-114667899.363730,0.045,-2561.083,46.6,1137.500,18009ca4,15,0,24077644.051,0.052,-126528876.416602,0.040,-2716.071,46.8,1147.350,18009ce4,14,0,23966068.089,0.077,-125942547.824193,0.045,2490.374,43.3,1087.920,18009d04,10,0,20499790.177,0.031,-107727125.462176,0.044,578.130,51.4,1153.750,18009d24,25,0,21885543.415,0.046,-115009312.442397,0.043,2976.844,47.9,1126.920,18009d44,12,0,20989577.984,0.032,-110300983.947600,0.039,765.764,50.9,1156.640,18009d64*8e4d6fe5
#SATXYZ2A,COM1_1,0,72.0,FINESTEERING,1979,286528.000,00000000,7513,12778;10,GPS,20,-21291200.1402,10159383.7856,-12320711.9000,148522.601,9.674,18.777,0.0,0.0,GPS,31,7429379.5025,24978281.4590,-3732216.4995,46719.690,9.745,15.026,0.0,0.0,GPS,18,-13594528.5411,21712130.8695,7257264.1685,189909.761,3.423,2.727,0.0,0.0,GPS,32,5652166.6641,16494102.2071,20075455.3852,-158739.342,4.686,3.975,0.0,0.0,GPS,24,-15700668.1616,1058546.3017,21317005.4466,-13014.948,4.072,3.585,0.0,0.0,GPS,15,-26177055.4255,-2198419.0379,4936544.0426,-107146.193,6.348,7.338,0.0,0.0,GPS,14,12695637.5343,17200681.8092,16145040.4822,-27123.942,6.752,7.000,0.0,0.0,GPS,10,-5442062.2025,20381142.1811,16076103.7519,38532.206,3.262,2.619,0.0,0.0,GPS,25,-19582419.6444,17755450.4863,181980.3540,-151375.811,4.453,3.605,0.0,0.0,GPS,12,-22232315.4690,8241023.6884,11596186.1947,108112.487,3.677,3.071,0.0,0.0*22fbb769
#BESTPOSA,COM1_1,0,72.0,FINESTEERING,1979,286528.000,00000000,7145,12778;SOL_COMPUTED,SINGLE,36.76914629984,126.93478686886,94.3848,23.3000,WGS84,0.6819,0.5516,1.1206,"",0.000,0.000,10,9,9,9,00,12,00,01*87b05357
#RANGEA,COM1_1,0,72.0,FINESTEERING,1979,286529.000,00000000,5103,12778;10,20,0,24922130.742,0.086,-130966675.299767,0.036,-3783.147,42.5,1143.930,18009c04,31,0,24516377.408,0.071,-128834441.383054,0.040,3170.253,44.1,459.210,18009c24,18,0,20624650.088,0.037,-108383267.838527,0.037,-1296.580,49.8,1148.050,08009c44,32,0,22407415.860,0.042,-117751763.543279,0.038,2289.230,48.8,1117.460,18009c84,24,0,21821061.978,0.053,-114670463.641402,0.038,-2564.577,46.6,1138.500,18009ca4,15,0,24078161.471,0.052,-126531595.510558,0.035,-2719.106,46.8,1148.350,18009ce4,14,0,23965594.860,0.077,-125940061.007211,0.039,2486.708,43.4,1088.920,18009d04,10,0,20499680.813,0.031,-107726550.715508,0.037,574.332,51.4,1154.750,18009d24,25,0,21884977.533,0.046,-115006338.683383,0.037,2973.517,47.8,1127.920,18009d44,12,0,20989432.907,0.032,-110300221.537875,0.035,762.113,50.9,1157.640,18009d64*a4af1b6b
#SATXYZ2A,COM1_1,0,72.0,FINESTEERING,1979,286529.000,00000000,7513,12778;10,GPS,20,-21290410.1086,10158013.1826,-12323241.7114,148522.601,9.675,18.792,0.0,0.0,GPS,31,7429176.5569,24978815.6160,-3729051.1389,46719.689,9.743,15.017,0.0,0.0,GPS,18,-13595392.0414,21712481.0142,7254342.3529,189909.762,3.423,2.727,0.0,0.0,GPS,32,5649701.5639,16493465.2920,20076667.4903,-158739.343,4.685,3.974,0.0,0.0,GPS,24,-15701342.4495,1055896.3093,21316669.2313,-13014.948,4.072,3.586,0.0,0.0,GPS,15,-26177610.2615,-2198897.6889,4933550.2517,-107146.193,6.348,7.340,0.0,0.0,GPS,14,12693723.7589,17200102.0490,16147183.8430,-27123.942,6.751,6.999,0.0,0.0,GPS,10,-5443696.2014,20382383.9546,16073958.9724,38532.208,3.262,2.619,0.0,0.0,GPS,25,-19582560.3734,17755233.8590,185203.1889,-151375.813,4.453,3.605,0.0,0.0,GPS,12,-22231268.1957,8239931.3740,11598949.2269,108112.486,3.677,3.071,0.0,0.0*9609333f
#BESTPOSA,COM1_1,0,72.0,FINESTEERING,1979,286529.000,00000000,7145,12778;SOL_COMPUTED,SINGLE,36.76914629984,126.93478686886,94.3848,23.3000,WGS84,0.6819,0.5516,1.1206,"",0.000,0.000,10,9,9,9,00,12,00,01*6d6e7347
#RANGEA,COM1_1,0,72.0,FINESTEERING,1979,286530.000,00000000,5103,12778;10,20,0,24922851.188,0.085,-130970461.206326,0.036,-3783.992,42.6,1144.930,18009c04,31,0,24515774.666,0.072,-128831273.907109,0.037,3169.137,44.0,460.210,18009c24,18,0,20624897.374,0.037,-108384567.358035,0.036,-1297.313,49.9,1149.050,08009c44,32,0,22406980.730,0.041,-117749476.937743,0.036,2288.819,48.8,1118.460,18009c84,24,0,21821550.491,0.053,-114673030.829919,0.036,-2565.149,46.7,1139.500,18009ca4,15,0,24078679.461,0.051,-126534317.489095,0.035,-2720.047,46.9,1149.350,18009ce4,14,0,23965122.153,0.078,-125937576.971164,0.037,2486.356,43.3,1089.920,18009d04,10,0,20499572.097,0.030,-107725979.401427,0.036,573.458,51.5,1155.750,18009d24,25,0,21884412.252,0.046,-115003368.123027,0.036,2972.387,47.9,1128.920,18009d44,12,0,20989288.485,0.032,-110299462.595574,0.035,760.639,50.9,1158.640,18009d64*8b6ca806
#SATXYZ2A,COM1_1,0,72.0,FINESTEERING,1979,286530.000,00000000,7513,12778;10,GPS,20,-21289619.9400,10156642.3037,-12325771.2622,148522.602,9.677,18.808,0.0,0.0,GPS,31,7428973.5663,24979349.3896,-3725885.6968,46719.687,9.741,15.008,0.0,0.0,GPS,18,-13596255.2758,21712830.9418,7251420.3841,189909.762,3.423,2.727,0.0,0.0,GPS,32,5647236.2810,16492828.4744,20077879.1698,-158739.343,4.685,3.974,0.0,0.0,GPS,24,-15702016.8711,1053246.3982,21316332.5593,-13014.948,4.072,3.586,0.0,0.0,GPS,15,-26178164.7600,-2199376.2247,4930556.3577,-107146.192,6.349,7.342,0.0,0.0,GPS,14,12691809.7033,17199522.3028,16149326.8691,-27123.941,6.750,6.997,0.0,0.0,GPS,10,-5445329.9318,20383625.6394,16071813.8495,38532.210,3.262,2.619,0.0,0.0,GPS,25,-19582700.8155,17755016.9634,188426.0198,-151375.815,4.452,3.604,0.0,0.0,GPS,12,-22230220.7181,8238838.7722,11601712.0075,108112.485,3.677,3.071,0.0,0.0*b50aea3f
#BESTPOSA,COM1_1,0,72.0,FINESTEERING,1979,286530.000,00000000,7145,12778;SOL_COMPUTED,SINGLE,36.76914631025,126.93478688416,94.3931,23.3000,WGS84,0.6806,0.5504,1.1185,"",0.000,0.000,10,10,10,10,00,12,00,01*e930ac0f
#RANGEA,COM1_1,0,70.5,FINESTEERING,1979,286531.000,00000000,5103,12778;10,20,0,24923571.682,0.087,-130974247.388018,0.104,-3787.572,42.4,1145.930,18009c04,31,0,24515172.016,0.073,-128828106.907071,0.044,3165.610,43.9,461.210,18009c24,18,0,20625144.813,0.037,-108385867.678000,0.043,-1302.058,49.8,1150.050,08009c44,32,0,22406545.662,0.042,-117747190.718556,0.043,2284.842,48.8,1119.460,18009c84,24,0,21822039.089,0.053,-114675598.481652,0.113,-2569.045,46.7,1140.500,18009ca4,15,0,24079197.511,0.051,-126537039.877618,0.094,-2723.742,46.9,1150.350,18009ce4,14,0,23964649.498,0.079,-125935093.174275,0.095,2482.462,43.2,1090.920,18009d04,10,0,20499463.555,0.031,-107725408.979283,0.096,568.501,51.4,1156.750,18009d24,25,0,21883847.113,0.046,-115000398.255139,0.043,2968.174,47.8,1129.920,18009d44,12,0,20989144.244,0.032,-110298704.623538,0.099,756.236,50.9,1159.640,18009d64*ccd704f0
#SATXYZ2A,COM1_1,0,70.5,FINESTEERING,1979,286531.000,00000000,7513,12778;10,GPS,20,-21288829.6344,10155271.1487,-12328300.5523,148522.602,9.678,18.824,0.0,0.0,GPS,31,7428770.5308,24979882.7799,-3722720.1734,46719.685,9.740,14.999,0.0,0.0,GPS,18,-13597118.2444,21713180.6521,7248498.2620,189909.762,3.423,2.728,0.0,0.0,GPS,32,5644770.8156,16492191.7545,20079090.4236,-158739.344,4.684,3.973,0.0,0.0,GPS,24,-15702691.4262,1050596.5685,21315995.4304,-13014.949,4.072,3.587,0.0,0.0,GPS,15,-26178718.9211,-2199854.6455,4927562.3608,-107146.191,6.349,7.344,0.0,0.0,GPS,14,12689895.3675,17198942.5706,16151469.5603,-27123.940,6.749,6.995,0.0,0.0,GPS,10,-5446963.3938,20384867.2354,16069668.3831,38532.212,3.262,2.619,0.0,0.0,GPS,25,-19582840.9708,17754799.7994,191648.8466,-151375.818,4.451,3.604,0.0,0.0,GPS,12,-22229173.0361,8237745.8827,11604474.5365,108112.484,3.677,3.071,0.0,0.0*e4609b1c
#BESTPOSA,COM1_1,0,70.5,FINESTEERING,1979,286531.000,00000000,7145,12778;SOL_COMPUTED,SINGLE,36.76914631025,126.93478688416,94.3931,23.3000,WGS84,0.6806,0.5504,1.1185,"",0.000,0.000,10,9,9,9,00,12,00,01*f049d2aa
#RANGEA,COM1_1,0,70.5,FINESTEERING,1979,286532.000,00000000,5103,12778;10,20,0,24924292.556,0.087,-130978035.651072,0.068,-3788.828,42.4,1146.930,18009c04,31,0,24514569.790,0.072,-128824942.180758,0.037,3164.293,44.0,462.210,18009c24,18,0,20625392.762,0.037,-108387170.666036,0.036,-1303.812,49.8,1151.050,08009c44,32,0,22406111.026,0.042,-117744906.697043,0.036,2283.602,48.8,1120.460,18009c84,24,0,21822528.127,0.053,-114678168.473264,0.072,-2570.422,46.7,1141.500,18009ca4,15,0,24079715.985,0.053,-126539764.488250,0.062,-2724.875,46.7,1151.350,18009ce4,14,0,23964177.254,0.077,-125932611.467419,0.101,2481.064,43.4,1091.920,18009d04,10,0,20499355.531,0.031,-107724841.291167,0.063,566.747,51.4,1157.750,18009d24,25,0,21883282.442,0.047,-114997430.905768,0.036,2966.834,47.8,1130.920,18009d44,12,0,20989000.539,0.032,-110297949.458627,0.065,754.567,50.9,1160.640,18009d64*aa1f5b80
#SATXYZ2A,COM1_1,0,70.5,FINESTEERING,1979,286532.000,00000000,7513,12778;10,GPS,20,-21288039.1918,10153899.7178,-12330829.5817,148522.603,9.680,18.839,0.0,0.0,GPS,31,7428567.4502,24980415.7869,-3719554.5685,46719.684,9.738,14.991,0.0,0.0,GPS,18,-13597980.9471,21713530.1452,7245575.9869,189909.763,3.424,2.728,0.0,0.0,GPS,32,5642305.1677,16491555.1323,20080301.2516,-158739.344,4.684,3.973,0.0,0.0,GPS,24,-15703366.1149,1047946.8204,21315657.8449,-13014.949,4.073,3.587,0.0,0.0,GPS,15,-26179272.7447,-2200332.9513,4924568.2611,-107146.191,6.350,7.346,0.0,0.0,GPS,14,12687980.7517,17198362.8527,16153611.9167,-27123.940,6.748,6.994,0.0,0.0,GPS,10,-5448596.5873,20386108.7425,16067522.5734,38532.213,3.262,2.619,0.0,0.0,GPS,25,-19582980.8392,17754582.3672,194871.6693,-151375.820,4.450,3.603,0.0,0.0,GPS,12,-22228125.1499,8236652.7057,11607236.8140,108112.483,3.676,3.071,0.0,0.0*afed44b0
#BESTPOSA,COM1_1,0,70.5,FINESTEERING,1979,286532.000,00000000,7145,12778;SOL_COMPUTED,SINGLE,36.76914631025,126.93478688416,94.3931,23.3000,WGS84,0.6806,0.5504,1.1185,"",0.000,0.000,10,9,9,9,00,12,00,01*145ab4db
#RANGEA,COM1_1,0,72.5,FINESTEERING,1979,286533.000,00000000,5103,12778;10,20,0,24925013.930,0.087,-130981826.460936,0.050,-3792.882,42.3,1147.930,18009c04,31,0,24513968.098,0.071,-128821780.196690,0.037,3160.102,44.1,463.210,18009c24,18,0,20625641.298,0.037,-108388476.749177,0.079,-1308.496,49.9,1152.050,08009c44,32,0,22405676.888,0.041,-117742625.328702,0.036,2279.356,48.8,1121.460,18009c84,24,0,21823017.688,0.052,-114680741.180171,0.052,-2574.841,46.8,1142.500,18009ca4,15,0,24080234.978,0.053,-126542491.771657,0.047,-2729.405,46.7,1152.350,18009ce4,14,0,23963705.489,0.077,-125930132.334897,0.078,2477.041,43.4,1092.920,18009d04,10,0,20499248.114,0.031,-107724276.794564,0.048,562.086,51.4,1158.750,18009d24,25,0,21882718.344,0.046,-114994466.515984,0.036,2962.205,47.9,1131.920,18009d44,12,0,20988857.452,0.032,-110297197.543509,0.048,749.639,50.9,1161.640,18009d64*494054ea
#SATXYZ2A,COM1_1,0,72.5,FINESTEERING,1979,286533.000,00000000,7513,12778;10,GPS,20,-21287248.6124,10152528.0108,-12333358.3504,148522.603,9.681,18.855,0.0,0.0,GPS,31,7428364.3245,24980948.4105,-3716388.8824,46719.682,9.736,14.982,0.0,0.0,GPS,18,-13598843.3839,21713879.4209,7242653.5587,189909.763,3.424,2.728,0.0,0.0,GPS,32,5639839.3373,16490918.6077,20081511.6539,-158739.345,4.683,3.972,0.0,0.0,GPS,24,-15704040.9371,1045297.1537,21315319.8025,-13014.950,4.073,3.588,0.0,0.0,GPS,15,-26179826.2308,-2200811.1421,4921574.0585,-107146.190,6.350,7.348,0.0,0.0,GPS,14,12686065.8557,17197783.1489,16155753.9381,-27123.939,6.747,6.992,0.0,0.0,GPS,10,-5450229.5123,20387350.1607,16065376.4204,38532.215,3.262,2.619,0.0,0.0,GPS,25,-19583120.4209,17754364.6665,198094.4877,-151375.822,4.450,3.603,0.0,0.0,GPS,12,-22227077.0595,8235559.2411,11609998.8398,108112.481,3.676,3.070,0.0,0.0*0fe0f04f
#BESTPOSA,COM1_1,0,72.5,FINESTEERING,1979,286533.000,00000000,7145,12778;SOL_COMPUTED,SINGLE,36.76914632139,126.93478690007,94.4015,23.3000,WGS84,0.6793,0.5492,1.1165,"",0.000,0.000,10,9,9,9,00,12,00,01*58868b93
#RANGEA,COM1_1,0,72.0,FINESTEERING,1979,286534.000,00000000,5103,12778;10,20,0,24925735.343,0.088,-130985617.611621,0.044,-3790.947,42.2,1148.930,18009c04,31,0,24513366.493,0.071,-128818618.741811,0.037,3161.295,44.0,464.210,18009c24,18,0,20625890.004,0.037,-108389783.699582,0.056,-1307.112,49.8,1153.050,08009c44,32,0,22405242.832,0.042,-117740344.405349,0.036,2280.732,48.8,1122.460,18009c84,24,0,21823507.350,0.053,-114683314.386327,0.042,-2573.147,46.7,1143.500,18009ca4,15,0,24080754.048,0.052,-126545219.507304,0.041,-2727.970,46.8,1153.350,18009ce4,14,0,23963233.791,0.076,-125927653.527314,0.056,2478.462,43.5,1093.920,18009d04,10,0,20499140.881,0.031,-107723713.268889,0.041,563.275,51.4,1159.750,18009d24,25,0,21882154.389,0.046,-114991502.893838,0.036,2963.445,47.8,1132.920,18009d44,12,0,20988714.565,0.032,-110296446.664544,0.041,750.563,50.9,1162.640,18009d64*8a46e33a
#SATXYZ2A,COM1_1,0,72.0,FINESTEERING,1979,286534.000,00000000,7513,12778;10,GPS,20,-21286457.8962,10151156.0279,-12335886.8582,148522.604,9.682,18.871,0.0,0.0,GPS,31,7428161.1536,24981480.6507,-3713223.1151,46719.680,9.734,14.973,0.0,0.0,GPS,18,-13599705.5549,21714228.4792,7239730.9775,189909.763,3.424,2.728,0.0,0.0,GPS,32,5637373.3246,16490282.1809,20082721.6304,-158739.345,4.682,3.972,0.0,0.0,GPS,24,-15704715.8928,1042647.5686,21314981.3035,-13014.950,4.073,3.588,0.0,0.0,GPS,15,-26180379.3793,-2201289.2180,4918579.7532,-107146.190,6.350,7.349,0.0,0.0,GPS,14,12684150.6797,17197203.4593,16157895.6246,-27123.938,6.746,6.990,0.0,0.0,GPS,10,-5451862.1688,20388591.4898,16063229.9242,38532.217,3.262,2.619,0.0,0.0,GPS,25,-19583259.7158,17754146.6974,201317.3019,-151375.825,4.449,3.602,0.0,0.0,GPS,12,-22226028.7649,8234465.4889,11612760.6139,108112.480,3.676,3.070,0.0,0.0*68e9934d
#BESTPOSA,COM1_1,0,72.0,FINESTEERING,1979,286534.000,00000000,7145,12778;SOL_COMPUTED,SINGLE,36.76914632139,126.93478690007,94.4015,23.3000,WGS84,0.6793,0.5492,1.1165,"",0.000,0.000,10,9,9,9,00,12,00,01*b3995fc1
#RANGEA,COM1_1,0,71.5,FINESTEERING,1979,286535.000,00000000,5103,12778;10,20,0,24926456.624,0.087,-130989407.903619,0.036,-3789.343,42.4,1149.930,18009c04,31,0,24512764.761,0.074,-128815456.608731,0.033,3162.980,43.8,465.210,18009c24,18,0,20626138.649,0.037,-108391090.350106,0.042,-1305.831,49.8,1154.050,08009c44,32,0,22404808.632,0.042,-117738062.706588,0.032,2282.623,48.8,1123.460,18009c84,24,0,21823996.888,0.052,-114685886.960616,0.035,-2571.852,46.8,1144.500,18009ca4,15,0,24081272.979,0.051,-126547946.517726,0.035,-2726.169,46.9,1154.350,18009ce4,14,0,23962761.920,0.074,-125925173.844102,0.042,2480.714,43.7,1094.920,18009d04,10,0,20499033.605,0.031,-107723149.523023,0.034,564.497,51.4,1160.750,18009d24,25,0,21881590.352,0.046,-114988538.830096,0.032,2964.644,47.8,1133.920,18009d44,12,0,20988571.647,0.032,-110295695.632209,0.034,751.535,50.9,1163.640,18009d64*698d8ac0
#SATXYZ2A,COM1_1,0,71.5,FINESTEERING,1979,286535.000,00000000,7513,12778;10,GPS,20,-21285667.0432,10149783.7690,-12338415.1052,148522.604,9.684,18.887,0.0,0.0,GPS,31,7427957.9376,24982012.5076,-3710057.2666,46719.679,9.733,14.964,0.0,0.0,GPS,18,-13600567.4601,21714577.3200,7236808.2434,189909.763,3.424,2.728,0.0,0.0,GPS,32,5634907.1295,16489645.8519,20083931.1810,-158739.345,4.682,3.971,0.0,0.0,GPS,24,-15705390.9820,1039998.0652,21314642.3477,-13014.950,4.073,3.589,0.0,0.0,GPS,15,-26180932.1903,-2201767.1790,4915585.3452,-107146.189,6.351,7.351,0.0,0.0,GPS,14,12682235.2237,17196623.7841,16160036.9760,-27123.938,6.745,6.989,0.0,0.0,GPS,10,-5453494.5568,20389832.7300,16061083.0847,38532.219,3.262,2.619,0.0,0.0,GPS,25,-19583398.7241,17753928.4599,204540.1118,-151375.827,4.448,3.602,0.0,0.0,GPS,12,-22224980.2663,8233371.4490,11615522.1361,108112.479,3.676,3.070,0.0,0.0*508becca
#BESTPOSA,COM1_1,0,71.5,FINESTEERING,1979,286535.000,00000000,7145,12778;SOL_COMPUTED,SINGLE,36.76914633297,126.93478691593,94.4097,23.3000,WGS84,0.6780,0.5479,1.1144,"",0.000,0.000,10,10,10,10,00,12,00,01*111e39b6
#RANGEA,COM1_1,0,71.0,FINESTEERING,1979,286536.000,00000000,5103,12778;10,20,0,24927177.514,0.084,-130993196.173634,0.038,-3791.483,42.7,1150.930,18009c04,31,0,24512162.680,0.073,-128812292.630959,0.037,3160.609,43.8,466.210,18009c24,18,0,20626387.015,0.037,-108392395.519168,0.039,-1308.771,49.8,1155.050,08009c44,32,0,22404374.070,0.041,-117735779.093268,0.036,2280.310,48.8,1124.460,18009c84,24,0,21824486.072,0.052,-114688457.676894,0.037,-2574.174,46.8,1145.500,18009ca4,15,0,24081791.557,0.052,-126550671.631488,0.038,-2728.398,46.8,1155.350,18009ce4,14,0,23962289.670,0.076,-125922692.140677,0.041,2478.194,43.6,1095.920,18009d04,10,0,20498926.063,0.031,-107722584.374865,0.037,561.436,51.4,1161.750,18009d24,25,0,21881026.005,0.046,-114985573.151326,0.036,2962.067,47.8,1134.920,18009d44,12,0,20988428.480,0.032,-110294943.270781,0.037,748.757,50.9,1164.640,18009d64*85157562
#SATXYZ2A,COM1_1,0,71.0,FINESTEERING,1979,286536.000,00000000,7513,12778;10,GPS,20,-21284876.0535,10148411.2341,-12340943.0912,148522.605,9.685,18.903,0.0,0.0,GPS,31,7427754.6763,24982543.9811,-3706891.3371,46719.677,9.731,14.955,0.0,0.0,GPS,18,-13601429.0996,21714925.9434,7233885.3564,189909.764,3.424,2.729,0.0,0.0,GPS,32,5632440.7522,16489009.6206,20085140.3059,-158739.346,4.681,3.971,0.0,0.0,GPS,24,-15706066.2046,1037348.6435,21314302.9352,-13014.951,4.074,3.589,0.0,0.0,GPS,15,-26181484.6636,-2202245.0251,4912590.8345,-107146.188,6.351,7.353,0.0,0.0,GPS,14,12680319.4876,17196044.1232,16162177.9924,-27123.937,6.744,6.987,0.0,0.0,GPS,10,-5455126.6763,20391073.8810,16058935.9020,38532.221,3.261,2.619,0.0,0.0,GPS,25,-19583537.4456,17753709.9538,207762.9172,-151375.829,4.447,3.601,0.0,0.0,GPS,12,-22223931.5636,8232277.1216,11618283.4066,108112.478,3.675,3.070,0.0,0.0*2983fb94
#BESTPOSA,COM1_1,0,71.0,FINESTEERING,1979,286536.000,00000000,7145,12778;SOL_COMPUTED,SINGLE,36.76914633297,126.93478691593,94.4097,23.3000,WGS84,0.6780,0.5479,1.1144,"",0.000,0.000,10,9,9,9,00,12,00,01*db2d52f2
#RANGEA,COM1_1,0,71.0,FINESTEERING,1979,286537.000,00000000,5103,12778;10,20,0,24927898.799,0.086,-130996986.522933,0.041,-3790.410,42.5,1151.930,18009c04,31,0,24511561.034,0.074,-128809130.941821,0.039,3161.576,43.8,467.210,18009c24,18,0,20626635.883,0.037,-108393703.324794,0.040,-1308.432,49.8,1156.050,08009c44,32,0,22403939.922,0.042,-117733497.674916,0.039,2281.190,48.7,1125.460,18009c84,24,0,21824975.695,0.052,-114691030.694825,0.039,-2573.190,46.8,1146.500,18009ca4,15,0,24082310.540,0.054,-126553398.945521,0.039,-2727.392,46.6,1156.350,18009ce4,14,0,23961817.809,0.075,-125920212.511170,0.041,2479.422,43.7,1096.920,18009d04,10,0,20498819.044,0.031,-107722021.963853,0.039,561.787,51.4,1162.750,18009d24,25,0,21880462.137,0.046,-114982609.984561,0.039,2962.701,47.8,1135.920,18009d44,12,0,20988285.843,0.032,-110294193.693618,0.039,749.230,50.9,1165.640,18009d64*d89ee1ac
#SATXYZ2A,COM1_1,0,71.0,FINESTEERING,1979,286537.000,00000000,7513,12778;10,GPS,20,-21284084.9271,10147038.4232,-12343470.8162,148522.605,9.686,18.918,0.0,0.0,GPS,31,7427551.3696,24983075.0712,-3703725.3265,46719.675,9.729,14.947,0.0,0.0,GPS,18,-13602290.4732,21715274.3493,7230962.3166,189909.764,3.424,2.729,0.0,0.0,GPS,32,5629974.1926,16488373.4872,20086349.0049,-158739.346,4.680,3.970,0.0,0.0,GPS,24,-15706741.5607,1034699.3036,21313963.0660,-13014.951,4.074,3.589,0.0,0.0,GPS,15,-26182036.7994,-2202722.7564,4909596.2213,-107146.188,6.352,7.355,0.0,0.0,GPS,14,12678403.4717,17195464.4767,16164318.6738,-27123.936,6.744,6.985,0.0,0.0,GPS,10,-5456758.5273,20392314.9428,16056788.3762,38532.223,3.261,2.619,0.0,0.0,GPS,25,-19583675.8805,17753491.1792,210985.7181,-151375.832,4.446,3.601,0.0,0.0,GPS,12,-22222882.6570,8231182.5065,11621044.4251,108112.477,3.675,3.070,0.0,0.0*51527c2f
#BESTPOSA,COM1_1,0,71.0,FINESTEERING,1979,286537.000,00000000,7145,12778;SOL_COMPUTED,SINGLE,36.76914633297,126.93478691593,94.4097,23.3000,WGS84,0.6780,0.5480,1.1144,"",0.000,0.000,10,9,9,9,00,12,00,01*510d0b10
#RANGEA,COM1_1,0,72.0,FINESTEERING,1979,286538.000,00000000,5103,12778;10,20,0,24928619.687,0.084,-131000774.836821,0.037,-3785.534,42.7,1152.930,18009c04,31,0,24510959.029,0.075,-128805967.425338,0.036,3165.908,43.6,468.210,18009c24,18,0,20626884.469,0.037,-108395009.668317,0.036,-1304.072,49.8,1157.050,08009c44,32,0,22403505.403,0.042,-117731214.337554,0.035,2285.967,48.8,1126.460,18009c84,24,0,21825464.979,0.052,-114693601.871835,0.035,-2568.772,46.9,1147.500,18009ca4,15,0,24082829.168,0.053,-126556124.380286,0.036,-2723.145,46.7,1157.350,18009ce4,14,0,23961345.572,0.075,-125917730.869586,0.037,2484.117,43.7,1097.920,18009d04,10,0,20498711.760,0.031,-107721458.171407,0.035,566.109,51.4,1163.750,18009d24,25,0,21879897.963,0.046,-114979645.216180,0.035,2967.184,47.9,1136.920,18009d44,12,0,20988142.963,0.032,-110293442.817183,0.036,753.129,50.9,1166.640,18009d64*1d2350b2
#SATXYZ2A,COM1_1,0,72.0,FINESTEERING,1979,286538.000,00000000,7513,12778;10,GPS,20,-21283293.6642,10145665.3364,-12345998.2802,148522.606,9.688,18.934,0.0,0.0,GPS,31,7427348.0177,24983605.7780,-3700559.2350,46719.674,9.727,14.938,0.0,0.0,GPS,18,-13603151.5811,21715622.5375,7228039.1240,189909.764,3.424,2.729,0.0,0.0,GPS,32,5627507.4508,16487737.4517,20087557.2779,-158739.347,4.680,3.970,0.0,0.0,GPS,24,-15707417.0502,1032050.0455,21313622.7400,-13014.951,4.074,3.590,0.0,0.0,GPS,15,-26182588.5975,-2203200.3730,4906601.5056,-107146.187,6.352,7.357,0.0,0.0,GPS,14,12676487.1757,17194884.8446,16166459.0200,-27123.936,6.743,6.983,0.0,0.0,GPS,10,-5458390.1097,20393555.9154,16054640.5073,38532.225,3.261,2.619,0.0,0.0,GPS,25,-19583814.0289,17753272.1359,214208.5145,-151375.834,4.446,3.600,0.0,0.0,GPS,12,-22221833.5464,8230087.6037,11623805.1917,108112.476,3.675,3.070,0.0,0.0*7b7d9b11
#BESTPOSA,COM1_1,0,72.0,FINESTEERING,1979,286538.000,00000000,7145,12778;SOL_COMPUTED,SINGLE,36.76914634498,126.93478693178,94.4179,23.3000,WGS84,0.6767,0.5467,1.1124,"",0.000,0.000,10,9,9,9,00,12,00,01*7807b885
#RANGEA,COM1_1,0,71.5,FINESTEERING,1979,286539.000,00000000,5103,12778;10,20,0,24929340.744,0.084,-131004563.908999,0.042,-3791.571,42.7,1153.930,18009c04,31,0,24510357.203,0.074,-128802804.816417,0.100,3159.975,43.8,469.210,18009c24,18,0,20627133.298,0.037,-108396317.291406,0.042,-1309.911,49.8,1158.050,08009c44,32,0,22403071.044,0.041,-117728931.834906,0.041,2280.123,48.8,1127.460,18009c84,24,0,21825954.421,0.052,-114696173.944936,0.042,-2574.657,46.8,1148.500,18009ca4,15,0,24083347.963,0.052,-126558850.674277,0.042,-2729.000,46.9,1158.350,18009ce4,14,0,23960873.483,0.074,-125915249.986310,0.042,2478.644,43.8,1098.920,18009d04,10,0,20498604.733,0.031,-107720895.754613,0.042,560.000,51.4,1164.750,18009d24,25,0,21879334.008,0.046,-114976681.618260,0.041,2961.021,47.9,1137.920,18009d44,12,0,20988000.351,0.032,-110292693.360249,0.042,746.558,50.9,1167.640,18009d64*7b445626
#SATXYZ2A,COM1_1,0,71.5,FINESTEERING,1979,286539.000,00000000,7513,12778;10,GPS,20,-21282502.2646,10144291.9735,-12348525.4832,148522.606,9.689,18.950,0.0,0.0,GPS,31,7427144.6203,24984136.1015,-3697393.0627,46719.672,9.725,14.929,0.0,0.0,GPS,18,-13604012.4232,21715970.5082,7225115.7787,189909.765,3.425,2.729,0.0,0.0,GPS,32,5625040.5269,16487101.5142,20088765.1251,-158739.347,4.679,3.969,0.0,0.0,GPS,24,-15708092.6730,1029400.8693,21313281.9574,-13014.952,4.074,3.590,0.0,0.0,GPS,15,-26183140.0580,-2203677.8748,4903606.6874,-107146.186,6.353,7.359,0.0,0.0,GPS,14,12674570.5999,17194305.2270,16168599.0310,-27123.935,6.742,6.982,0.0,0.0,GPS,10,-5460021.4235,20394796.7987,16052492.2954,38532.227,3.261,2.619,0.0,0.0,GPS,25,-19583951.8906,17753052.8241,217431.3063,-151375.836,4.445,3.599,0.0,0.0,GPS,12,-22220784.2321,8228992.4133,11626565.7062,108112.474,3.675,3.070,0.0,0.0*d954d657
#BESTPOSA,COM1_1,0,71.5,FINESTEERING,1979,286539.000,00000000,7145,12778;SOL_COMPUTED,SINGLE,36.76914634498,126.93478693178,94.4179,23.3000,WGS84,0.6767,0.5467,1.1124,"",0.000,0.000,10,9,9,9,00,12,00,01*4b631f3b
#RANGEA,COM1_1,0,71.5,FINESTEERING,1979,286540.000,00000000,5103,12778;10,20,0,24930061.254,0.086,-131008350.161185,0.037,-3783.692,42.4,1154.930,18009c04,31,0,24509754.881,0.075,-128799639.588307,0.066,3167.453,43.7,470.210,18009c24,18,0,20627381.698,0.037,-108397622.651730,0.036,-1302.715,49.8,1159.050,08009c44,32,0,22402636.174,0.042,-117726646.636842,0.037,2287.947,48.8,1128.460,18009c84,24,0,21826443.365,0.051,-114698743.384044,0.037,-2566.946,47.0,1149.500,18009ca4,15,0,24083866.247,0.052,-126561574.289849,0.037,-2721.429,46.8,1159.350,18009ce4,14,0,23960400.856,0.074,-125912766.263677,0.037,2486.677,43.8,1099.920,18009d04,10,0,20498497.296,0.031,-107720331.167176,0.036,566.949,51.4,1165.750,18009d24,25,0,21878769.601,0.046,-114973715.592643,0.036,2968.324,47.9,1138.920,18009d44,12,0,20987857.341,0.032,-110291941.820674,0.036,753.646,51.0,1168.640,18009d64*4bc4d7ee
#SATXYZ2A,COM1_1,0,71.5,FINESTEERING,1979,286540.000,00000000,7513,12778;10,GPS,20,-21281710.7286,10142918.3347,-12351052.4249,148522.607,9.691,18.966,0.0,0.0,GPS,31,7426941.1774,24984666.0415,-3694226.8095,46719.670,9.724,14.920,0.0,0.0,GPS,18,-13604872.9996,21716318.2611,7222192.2808,189909.765,3.425,2.729,0.0,0.0,GPS,32,5622573.4209,16486465.6745,20089972.5463,-158739.348,4.678,3.968,0.0,0.0,GPS,24,-15708768.4293,1026751.7751,21312940.7181,-13014.952,4.075,3.591,0.0,0.0,GPS,15,-26183691.1808,-2204155.2620,4900611.7669,-107146.186,6.353,7.361,0.0,0.0,GPS,14,12672653.7442,17193725.6240,16170738.7067,-27123.934,6.741,6.980,0.0,0.0,GPS,10,-5461652.4688,20396037.5927,16050343.7405,38532.228,3.261,2.619,0.0,0.0,GPS,25,-19584089.4659,17752833.2436,220654.0933,-151375.839,4.444,3.599,0.0,0.0,GPS,12,-22219734.7139,8227896.9351,11629325.9687,108112.473,3.674,3.070,0.0,0.0*f7caea77
#BESTPOSA,COM1_1,0,71.5,FINESTEERING,1979,286540.000,00000000,7145,12778;SOL_COMPUTED,SINGLE,36.76914635727,126.93478694742,94.4261,23.3000,WGS84,0.6754,0.5455,1.1103,"",0.000,0.000,10,10,10,10,00,12,00,01*16eeadb7
#RANGEA,COM1_1,0,70.0,FINESTEERING,1979,286541.000,00000000,5103,12778;10,20,0,24930781.659,0.086,-131012135.852111,0.036,-3787.360,42.5,1155.930,18009c04,31,0,24509152.487,0.076,-128796473.966319,0.050,3164.119,43.5,471.210,18009c24,18,0,20627630.093,0.037,-108398927.975966,0.036,-1307.226,49.8,1160.050,08009c44,32,0,22402201.216,0.042,-117724360.958579,0.036,2284.127,48.7,1129.460,18009c84,24,0,21826932.230,0.051,-114701312.412446,0.037,-2570.756,47.0,1150.500,18009ca4,15,0,24084384.438,0.054,-126564297.445090,0.037,-2724.931,46.6,1160.350,18009ce4,14,0,23959928.114,0.074,-125910281.960517,0.037,2482.834,43.8,1100.920,18009d04,10,0,20498389.867,0.031,-107719766.625132,0.036,562.766,51.3,1166.750,18009d24,25,0,21878205.164,0.046,-114970749.439717,0.036,2964.386,47.9,1139.920,18009d44,12,0,20987714.349,0.032,-110291190.392983,0.036,749.396,50.9,1169.640,18009d64*26169fec
#SATXYZ2A,COM1_1,0,70.0,FINESTEERING,1979,286541.000,00000000,7513,12778;10,GPS,20,-21280919.0562,10141544.4200,-12353579.1055,148522.607,9.692,18.982,0.0,0.0,GPS,31,7426737.6891,24985195.5982,-3691060.4756,46719.669,9.722,14.912,0.0,0.0,GPS,18,-13605733.3103,21716665.7964,7219268.6303,189909.765,3.425,2.730,0.0,0.0,GPS,32,5620106.1329,16485829.9329,20091179.5416,-158739.348,4.678,3.968,0.0,0.0,GPS,24,-15709444.3189,1024102.7629,21312599.0221,-13014.953,4.075,3.591,0.0,0.0,GPS,15,-26184241.9659,-2204632.5345,4897616.7440,-107146.185,6.353,7.362,0.0,0.0,GPS,14,12670736.6087,17193146.0356,16172878.0473,-27123.934,6.740,6.978,0.0,0.0,GPS,10,-5463283.2455,20397278.2972,16048194.8426,38532.230,3.261,2.619,0.0,0.0,GPS,25,-19584226.7546,17752613.3944,223876.8756,-151375.841,4.443,3.598,0.0,0.0,GPS,12,-22218684.9920,8226801.1693,11632085.9790,108112.472,3.674,3.070,0.0,0.0*66ca1e5e
#BESTPOSA,COM1_1,0,70.0,FINESTEERING,1979,286541.000,00000000,7145,12778;SOL_COMPUTED,SINGLE,36.76914635727,126.93478694742,94.4261,23.3000,WGS84,0.6754,0.5455,1.1103,"",0.000,0.000,10,9,9,9,00,12,00,01*f45b3800
#RANGEA,COM1_1,0,70.0,FINESTEERING,1979,286542.000,00000000,5103,12778;10,20,0,24931502.762,0.084,-131015925.194852,0.033,-3785.490,42.7,1156.930,18009c04,31,0,24508550.842,0.076,-128793312.244912,0.039,3165.332,43.5,472.210,18009c24,18,0,20627879.295,0.037,-108400237.547301,0.033,-1306.044,49.8,1161.050,08009c44,32,0,22401766.981,0.042,-117722079.080550,0.032,2285.546,48.7,1130.460,18009c84,24,0,21827421.835,0.051,-114703885.327784,0.033,-2569.382,47.0,1151.500,18009ca4,15,0,24084903.365,0.053,-126567024.420895,0.033,-2723.324,46.7,1161.350,18009ce4,14,0,23959456.071,0.073,-125907801.364077,0.033,2484.258,43.9,1101.920,18009d04,10,0,20498283.265,0.031,-107719206.419988,0.032,563.602,51.4,1167.750,18009d24,25,0,21877641.514,0.045,-114967787.393021,0.033,2965.564,48.0,1140.920,18009d44,12,0,20987572.201,0.032,-110290443.362473,0.032,750.262,51.0,1170.640,18009d64*e18ba46c
#SATXYZ2A,COM1_1,0,70.0,FINESTEERING,1979,286542.000,00000000,7513,12778;10,GPS,20,-21280127.2473,10140170.2292,-12356105.5249,148522.608,9.693,18.998,0.0,0.0,GPS,31,7426534.1551,24985724.7715,-3687894.0611,46719.667,9.720,14.903,0.0,0.0,GPS,18,-13606593.3553,21717013.1139,7216344.8273,189909.766,3.425,2.730,0.0,0.0,GPS,32,5617638.6630,16485194.2893,20092386.1109,-158739.349,4.677,3.967,0.0,0.0,GPS,24,-15710120.3418,1021453.8328,21312256.8695,-13014.953,4.075,3.592,0.0,0.0,GPS,15,-26184792.4133,-2205109.6924,4894621.6190,-107146.184,6.354,7.364,0.0,0.0,GPS,14,12668819.1934,17192566.4618,16175017.0525,-27123.933,6.739,6.977,0.0,0.0,GPS,10,-5464913.7536,20398518.9123,16046045.6018,38532.232,3.261,2.619,0.0,0.0,GPS,25,-19584363.7569,17752393.2764,227099.6531,-151375.844,4.443,3.598,0.0,0.0,GPS,12,-22217635.0665,8225705.1158,11634845.7371,108112.471,3.674,3.069,0.0,0.0*6fb8ecd9
#BESTPOSA,COM1_1,0,70.0,FINESTEERING,1979,286542.000,00000000,7145,12778;SOL_COMPUTED,SINGLE,36.76914635727,126.93478694742,94.4261,23.3000,WGS84,0.6754,0.5456,1.1103,"",0.000,0.000,10,9,9,9,00,12,00,01*6e3016d7
#RANGEA,COM1_1,0,70.5,FINESTEERING,1979,286543.000,00000000,5103,12778;10,20,0,24932223.466,0.084,-131019712.462209,0.086,-3785.039,42.6,1157.930,18009c04,31,0,24507948.821,0.077,-128790148.592225,0.080,3165.771,43.4,473.210,18009c24,18,0,20628128.198,0.037,-108401545.553754,0.079,-1306.099,49.7,1162.050,08009c44,32,0,22401332.367,0.042,-117719795.203023,0.084,2286.031,48.7,1131.460,18009c84,24,0,21827911.080,0.050,-114706456.347531,0.034,-2568.840,47.1,1152.500,18009ca4,15,0,24085421.906,0.053,-126569749.411036,0.078,-2722.579,46.6,1162.350,18009ce4,14,0,23958983.629,0.073,-125905318.646645,0.088,2485.010,43.9,1102.920,18009d04,10,0,20498176.380,0.031,-107718644.751521,0.078,563.528,51.3,1168.750,18009d24,25,0,21877077.537,0.046,-114964823.677400,0.080,2965.597,47.9,1141.920,18009d44,12,0,20987429.781,0.032,-110289694.924514,0.034,750.347,50.9,1171.640,18009d64*3aebf57d
