#RANGEA,COM1_1,0,72.5,FINESTEERING,1979,286740.000,00000000,5103,12778;10,20,0,25074180.875,0.077,-131765700.734427,0.085,-3782.103,43.4,1354.930,18009c04,31,0,24390063.029,0.063,-128170655.126511,0.116,3129.028,45.1,670.210,18009c24,18,0,20679200.099,0.037,-108669930.939763,0.092,-1412.515,49.7,1359.050,08009c44,32,0,22316113.848,0.039,-117271972.636842,0.084,2265.903,49.3,1328.460,18009c84,24,0,21924975.187,0.045,-115216526.743581,0.086,-2603.309,48.0,1349.500,18009ca4,15,0,24188052.642,0.051,-127109076.411412,0.090,-2746.876,47.0,1359.350,18009ce4,14,0,23865913.135,0.058,-125416223.090934,0.093,2486.258,45.9,1299.920,18009d04,10,0,20479502.745,0.031,-107620516.393901,0.085,438.219,51.2,1365.750,18009d24,25,0,21767568.811,0.042,-114389351.504638,0.085,2881.687,48.6,1338.920,18009d44,12,0,20961997.963,0.032,-110156049.373084,0.089,612.101,51.1,1368.650,18009d64*d3175f2b
#SATXYZ2A,COM1_1,0,72.5,FINESTEERING,1979,286740.000,00000000,7513,12778;10,GPS,20,-21120732.6218,9862647.3607,-12851120.6109,148522.709,9.973,22.734,0.0,0.0,GPS,31,7385267.7080,25082946.5352,-3059445.8788,46719.336,9.379,13.351,0.0,0.0,GPS,18,-13771669.2894,21781429.1640,6634506.9871,189909.822,3.456,2.770,0.0,0.0,GPS,32,5125565.4449,16361315.4544,20322861.1173,-158739.441,4.554,3.867,0.0,0.0,GPS,24,-15846569.9443,498664.2039,21235525.6717,-13015.026,4.127,3.686,0.0,0.0,GPS,15,-26287097.3440,-2297384.7642,4299655.1108,-107146.057,6.438,7.751,0.0,0.0,GPS,14,12283701.4738,17078165.0763,16591876.9413,-27123.803,6.550,6.660,0.0,0.0,GPS,10,-5782446.0492,20642319.7223,15613800.6459,38532.601,3.235,2.609,0.0,0.0,GPS,25,-19605894.8404,17703464.7669,865022.9778,-151376.312,4.295,3.493,0.0,0.0,GPS,12,-22005814.7053,8003003.6972,12176230.5690,108112.237,3.625,3.051,0.0,0.0*ef8ab5c6
#BESTPOSA,COM1_1,0,72.5,FINESTEERING,1979,286740.000,00000000,7145,12778;SOL_COMPUTED,SINGLE,36.76914633555,126.93478709248,95.0604,23.3000,WGS84,0.6752,0.5529,1.0417,"",0.000,0.000,10,9,9,9,0,12,00,01*b618dd56
#RANGEA,COM1_1,0,65.0,FINESTEERING,1979,286741.000,00000000,5103,12778;10,20,0,25074900.209,0.073,-131769480.826829,0.101,-3781.191,43.8,1355.930,18009c04,31,0,24389467.228,0.062,-128167524.122779,0.089,3129.870,45.3,671.210,18009c24,18,0,20679468.578,0.037,-108671341.818644,0.064,-1412.261,49.9,1360.050,08009c44,32,0,22315682.279,0.038,-117269704.718953,0.060,2266.339,49.6,1329.460,18009c84,24,0,21925470.203,0.044,-115219128.053046,0.088,-2602.426,48.2,1350.500,18009ca4,15,0,24188574.960,0.049,-127111821.120767,0.096,-2746.157,47.2,1360.350,18009ce4,14,0,23865439.642,0.058,-125413734.826442,0.086,2487.232,45.9,1300.920,18009d04,10,0,20479419.033,0.031,-107620076.483273,0.094,438.384,51.4,1366.750,18009d24,25,0,21767020.094,0.042,-114386467.992728,0.086,2881.984,48.8,1339.920,18009d44,12,0,20961881.173,0.031,-110155435.621026,0.091,612.214,51.2,1369.650,18009d64*1f329ad8
#SATXYZ2A,COM1_1,0,65.0,FINESTEERING,1979,286741.000,00000000,7513,12778;10,GPS,20,-21119914.7406,9861218.3131,-12853593.9966,148522.710,9.974,22.756,0.0,0.0,GPS,31,7385054.0611,25083399.3958,-3056264.7920,46719.334,9.377,13.344,0.0,0.0,GPS,18,-13772476.7907,21781732.2000,6631554.0447,189909.822,3.456,2.771,0.0,0.0,GPS,32,5123062.8381,16360700.0325,20323982.4135,-158739.442,4.553,3.867,0.0,0.0,GPS,24,-15847272.0471,496032.8397,21235092.8249,-13015.026,4.127,3.686,0.0,0.0,GPS,15,-26287580.1317,-2297839.9596,4296640.8913,-107146.056,6.439,7.753,0.0,0.0,GPS,14,12281729.0313,17077589.4104,16593948.3557,-27123.802,6.550,6.659,0.0,0.0,GPS,10,-5784022.8588,20643541.3460,15611584.0827,38532.603,3.235,2.609,0.0,0.0,GPS,25,-19605975.5699,17703190.4052,868243.4087,-151376.314,4.294,3.492,0.0,0.0,GPS,12,-22004725.4237,8001850.1711,12178938.9497,108112.236,3.624,3.051,0.0,0.0*0bec26b7
#BESTPOSA,COM1_1,0,65.0,FINESTEERING,1979,286741.000,00000000,7145,12778;SOL_COMPUTED,SINGLE,36.76914633555,126.93478709248,95.0604,23.3000,WGS84,0.6752,0.5529,1.0417,"",0.000,0.000,10,9,9,9,0,12,00,01*cd8f1681
#RANGEA,COM1_1,0,65.0,FINESTEERING,1979,286742.000,00000000,5103,12778;10,20,0,25075620.390,0.078,-131773265.357398,0.068,-3786.079,43.3,1356.930,18009c04,31,0,24388872.303,0.064,-128164397.782967,0.061,3124.647,45.0,672.210,18009c24,18,0,20679738.010,0.038,-108672757.720492,0.049,-1417.780,49.7,1361.050,08009c44,32,0,22315251.579,0.039,-117267441.359292,0.047,2261.500,49.3,1330.460,18009c84,24,0,21925966.113,0.044,-115221734.002307,0.061,-2607.829,48.2,1351.500,18009ca4,15,0,24189098.144,0.051,-127114570.399943,0.065,-2751.244,47.0,1361.350,18009ce4,14,0,23864967.000,0.060,-125411251.029647,0.076,2482.134,45.6,1301.920,18009d04,10,0,20479336.290,0.031,-107619641.661656,0.064,432.909,51.2,1367.750,18009d24,25,0,21766472.316,0.043,-114383589.381686,0.060,2876.652,48.6,1340.920,18009d44,12,0,20961765.363,0.032,-110154827.037568,0.062,606.789,51.1,1370.650,18009d64*ec54cd6f
#SATXYZ2A,COM1_1,0,65.0,FINESTEERING,1979,286742.000,00000000,7513,12778;10,GPS,20,-21119096.7337,9859788.9902,-12856067.1105,148522.710,9.976,22.778,0.0,0.0,GPS,31,7384840.3582,25083851.8729,-3053083.6386,46719.332,9.376,13.337,0.0,0.0,GPS,18,-13773284.0297,21782035.0087,6628600.9619,189909.822,3.456,2.771,0.0,0.0,GPS,32,5120560.0603,16360084.7156,20325103.2787,-158739.442,4.552,3.866,0.0,0.0,GPS,24,-15847974.2787,493401.5700,21234659.5232,-13015.027,4.127,3.687,0.0,0.0,GPS,15,-26288062.5773,-2298295.0489,4293626.5822,-107146.056,6.439,7.755,0.0,0.0,GPS,14,12279756.3157,17077013.7691,16596019.4262,-27123.802,6.549,6.657,0.0,0.0,GPS,10,-5785599.3973,20644762.8683,15609367.1859,38532.605,3.235,2.609,0.0,0.0,GPS,25,-19606056.0203,17702915.7672,871463.8208,-151376.316,4.293,3.492,0.0,0.0,GPS,12,-22003635.9504,8000696.3552,12181647.0662,108112.235,3.624,3.050,0.0,0.0*44c7d075
#BESTPOSA,COM1_1,0,65.0,FINESTEERING,1979,286742.000,00000000,7145,12778;SOL_COMPUTED,SINGLE,36.76914633063,126.93478710406,95.0690,23.3000,WGS84,0.6739,0.5516,1.0400,"",0.000,0.000,10,10,10,10,0,12,00,01*0221c66f
#RANGEA,COM1_1,0,69.5,FINESTEERING,1979,286743.000,00000000,5103,12778;10,20,0,25076340.872,0.078,-131777051.540439,0.052,-3787.848,43.3,1357.930,18009c04,31,0,24388277.729,0.064,-128161273.317260,0.049,3122.573,44.9,673.210,18009c24,18,0,20680007.860,0.038,-108674175.801587,0.043,-1420.191,49.6,1362.050,08009c44,32,0,22314821.225,0.039,-117265179.769841,0.098,2259.636,49.3,1331.460,18009c84,24,0,21926462.361,0.044,-115224341.770711,0.049,-2609.501,48.1,1352.500,18009ca4,15,0,24189621.667,0.051,-127117321.466773,0.095,-2752.873,47.0,1362.350,18009ce4,14,0,23864494.666,0.059,-125408768.884133,0.056,2480.202,45.8,1302.920,18009d04,10,0,20479253.981,0.031,-107619209.151299,0.050,430.221,51.2,1368.750,18009d24,25,0,21765924.926,0.043,-114380712.869157,0.048,2874.533,48.5,1341.920,18009d44,12,0,20961650.004,0.032,-110154220.827634,0.049,603.948,51.1,1371.650,18009d64*91e7e729
#SATXYZ2A,COM1_1,0,69.5,FINESTEERING,1979,286743.000,00000000,7513,12778;10,GPS,20,-21118278.6013,9858359.3920,-12858539.9527,148522.711,9.977,22.800,0.0,0.0,GPS,31,7384626.5992,25084303.9665,-3049902.4184,46719.331,9.374,13.330,0.0,0.0,GPS,18,-13774091.0064,21782337.5902,6625647.7389,189909.822,3.456,2.771,0.0,0.0,GPS,32,5118057.1113,16359469.5040,20326223.7130,-158739.443,4.552,3.866,0.0,0.0,GPS,24,-15848676.6389,490770.3947,21234225.7668,-13015.027,4.128,3.687,0.0,0.0,GPS,15,-26288544.6806,-2298750.0321,4290612.1834,-107146.055,6.440,7.757,0.0,0.0,GPS,14,12277783.3270,17076438.1524,16598090.1527,-27123.801,6.548,6.656,0.0,0.0,GPS,10,-5787175.6647,20645984.2892,15607149.9555,38532.607,3.235,2.609,0.0,0.0,GPS,25,-19606136.1917,17702640.8528,874684.2141,-151376.319,4.292,3.491,0.0,0.0,GPS,12,-22002546.2853,7999542.2494,12184354.9186,108112.234,3.624,3.050,0.0,0.0*8174d945
#BESTPOSA,COM1_1,0,69.5,FINESTEERING,1979,286743.000,00000000,7145,12778;SOL_COMPUTED,SINGLE,36.76914633063,126.93478710406,95.0690,23.3000,WGS84,0.6739,0.5516,1.0400,"",0.000,0.000,10,9,9,9,0,12,00,01*78cc69a1
#RANGEA,COM1_1,0,69.5,FINESTEERING,1979,286744.000,00000000,5103,12778;10,20,0,25077061.466,0.080,-131780838.219750,0.088,-3785.634,43.1,1358.930,18009c04,31,0,24387683.303,0.064,-128158149.555814,0.091,3124.745,45.0,674.210,18009c24,18,0,20680277.915,0.038,-108675594.972398,0.041,-1418.295,49.5,1363.050,08009c44,32,0,22314390.985,0.039,-117262918.835090,0.068,2261.883,49.2,1332.460,18009c84,24,0,21926958.750,0.046,-115226950.249839,0.044,-2607.481,47.9,1353.500,18009ca4,15,0,24190145.314,0.051,-127120073.200555,0.087,-2750.832,47.0,1363.350,18009ce4,14,0,23864022.435,0.059,-125406287.302497,0.084,2482.714,45.8,1303.920,18009d04,10,0,20479171.896,0.032,-107618777.821526,0.044,432.214,51.1,1369.750,18009d24,25,0,21765377.737,0.043,-114377837.342616,0.044,2876.387,48.4,1342.920,18009d44,12,0,20961534.887,0.032,-110153615.865994,0.044,605.810,51.0,1372.650,18009d64*3442f39f
#SATXYZ2A,COM1_1,0,69.5,FINESTEERING,1979,286744.000,00000000,7513,12778;10,GPS,20,-21117460.3433,9856929.5186,-12861012.5230,148522.712,9.979,22.823,0.0,0.0,GPS,31,7384412.7841,25084755.6767,-3046721.1315,46719.329,9.372,13.323,0.0,0.0,GPS,18,-13774897.7208,21782639.9444,6622694.3756,189909.823,3.456,2.771,0.0,0.0,GPS,32,5115553.9914,16358854.3975,20327343.7163,-158739.443,4.551,3.865,0.0,0.0,GPS,24,-15849379.1278,488139.3140,21233791.5556,-13015.027,4.128,3.688,0.0,0.0,GPS,15,-26289026.4416,-2299204.9094,4287597.6952,-107146.054,6.440,7.759,0.0,0.0,GPS,14,12275810.0651,17075862.5605,16600160.5351,-27123.800,6.547,6.654,0.0,0.0,GPS,10,-5788751.6612,20647205.6085,15604932.3916,38532.609,3.235,2.609,0.0,0.0,GPS,25,-19606216.0842,17702365.6620,877904.5885,-151376.321,4.292,3.491,0.0,0.0,GPS,12,-22001456.4284,7998387.8538,12187062.5067,108112.233,3.624,3.050,0.0,0.0*ee2b9166
#BESTPOSA,COM1_1,0,69.5,FINESTEERING,1979,286744.000,00000000,7145,12778;SOL_COMPUTED,SINGLE,36.76914633063,126.93478710406,95.0690,23.3000,WGS84,0.6739,0.5517,1.0400,"",0.000,0.000,10,9,9,9,0,12,00,01*0fea43c6
#RANGEA,COM1_1,0,70.0,FINESTEERING,1979,286745.000,00000000,5103,12778;10,20,0,25077781.394,0.079,-131784621.453170,0.064,-3782.473,43.2,1359.930,18009c04,31,0,24387088.253,0.066,-128155022.526780,0.112,3128.158,44.8,675.210,18009c24,18,0,20680547.414,0.038,-108677011.211167,0.110,-1415.597,49.5,1364.050,08009c44,32,0,22313960.106,0.039,-117260654.530801,0.055,2265.286,49.2,1333.460,18009c84,24,0,21927454.507,0.045,-115229555.414857,0.098,-2603.959,48.0,1354.500,18009ca4,15,0,24190668.330,0.051,-127122821.575267,0.100,-2747.328,46.9,1364.350,18009ce4,14,0,23863549.554,0.061,-125403802.237714,0.098,2485.859,45.5,1304.920,18009d04,10,0,20479089.279,0.032,-107618343.675395,0.108,434.632,51.1,1370.750,18009d24,25,0,21764829.958,0.043,-114374958.780862,0.101,2879.440,48.4,1343.920,18009d44,12,0,20961419.238,0.032,-110153008.143403,0.044,608.207,51.0,1373.650,18009d64*8274f998
#SATXYZ2A,COM1_1,0,70.0,FINESTEERING,1979,286745.000,00000000,7513,12778;10,GPS,20,-21116641.9599,9855499.3699,-12863484.8215,148522.712,9.980,22.845,0.0,0.0,GPS,31,7384198.9127,25085207.0033,-3043539.7781,46719.327,9.371,13.316,0.0,0.0,GPS,18,-13775704.1730,21782942.0712,6619740.8722,189909.823,3.457,2.771,0.0,0.0,GPS,32,5113050.7005,16358239.3963,20328463.2885,-158739.444,4.550,3.865,0.0,0.0,GPS,24,-15850081.7453,485508.3279,21233356.8898,-13015.028,4.128,3.688,0.0,0.0,GPS,15,-26289507.8604,-2299659.6806,4284583.1175,-107146.054,6.441,7.761,0.0,0.0,GPS,14,12273836.5303,17075286.9932,16602230.5735,-27123.800,6.546,6.653,0.0,0.0,GPS,10,-5790327.3867,20648426.8263,15602714.4941,38532.611,3.235,2.609,0.0,0.0,GPS,25,-19606295.6978,17702090.1947,881124.9440,-151376.323,4.291,3.490,0.0,0.0,GPS,12,-22000366.3800,7997233.1683,12189769.8305,108112.231,3.623,3.050,0.0,0.0*495f87bf
#BESTPOSA,COM1_1,0,70.0,FINESTEERING,1979,286745.000,00000000,7145,12778;SOL_COMPUTED,SINGLE,36.76914632509,126.93478711524,95.0777,23.3000,WGS84,0.6726,0.5504,1.0384,"",0.000,0.000,10,9,9,9,0,12,00,01*11f2e22d
#RANGEA,COM1_1,0,70.0,FINESTEERING,1979,286746.000,00000000,5103,12778;10,20,0,25078501.517,0.078,-131788405.751431,0.101,-3783.564,43.2,1360.930,18009c04,31,0,24386493.450,0.065,-128151896.826535,0.099,3126.890,44.8,676.210,18009c24,18,0,20680817.239,0.038,-108678429.137420,0.074,-1417.560,49.5,1365.050,08009c44,32,0,22313529.463,0.039,-117258391.485995,0.046,2263.600,49.2,1334.460,18009c84,24,0,21927950.513,0.046,-115232161.882869,0.068,-2605.541,47.9,1355.500,18009ca4,15,0,24191191.587,0.052,-127125571.225488,0.068,-2749.110,46.8,1365.350,18009ce4,14,0,23863076.896,0.061,-125401318.303752,0.068,2484.754,45.4,1305.920,18009d04,10,0,20479007.006,0.032,-107617911.312289,0.072,432.463,51.1,1371.750,18009d24,25,0,21764282.487,0.043,-114372081.807767,0.069,2877.464,48.4,1344.920,18009d44,12,0,20961303.950,0.032,-110152402.281039,0.042,605.927,51.0,1374.650,18009d64*627a06f3
#SATXYZ2A,COM1_1,0,70.0,FINESTEERING,1979,286746.000,00000000,7513,12778;10,GPS,20,-21115823.4510,9854068.9459,-12865956.8480,148522.713,9.981,22.868,0.0,0.0,GPS,31,7383984.9850,25085657.9464,-3040358.3582,46719.326,9.369,13.309,0.0,0.0,GPS,18,-13776510.3629,21783243.9705,6616787.2288,189909.823,3.457,2.772,0.0,0.0,GPS,32,5110547.2387,16357624.5004,20329582.4297,-158739.444,4.550,3.864,0.0,0.0,GPS,24,-15850784.4915,482877.4365,21232921.7691,-13015.028,4.128,3.689,0.0,0.0,GPS,15,-26289988.9370,-2300114.3460,4281568.4504,-107146.053,6.441,7.763,0.0,0.0,GPS,14,12271862.7223,17074711.4508,16604300.2677,-27123.799,6.545,6.651,0.0,0.0,GPS,10,-5791902.8411,20649647.9424,15600496.2632,38532.612,3.234,2.609,0.0,0.0,GPS,25,-19606375.0324,17701814.4510,884345.2804,-151376.326,4.290,3.490,0.0,0.0,GPS,12,-21999276.1399,7996078.1930,12192476.8900,108112.230,3.623,3.050,0.0,0.0*64d77c8a
#BESTPOSA,COM1_1,0,70.0,FINESTEERING,1979,286746.000,00000000,7145,12778;SOL_COMPUTED,SINGLE,36.76914632509,126.93478711524,95.0777,23.3000,WGS84,0.6726,0.5504,1.0384,"",0.000,0.000,10,9,9,9,0,12,00,01*0c5b98a1
#RANGEA,COM1_1,0,70.0,FINESTEERING,1979,286747.000,00000000,5103,12778;10,20,0,25079221.744,0.078,-131792190.529870,0.066,-3783.902,43.2,1361.930,18009c04,31,0,24385898.778,0.066,-128148771.812650,0.099,3125.699,44.7,677.210,18009c24,18,0,20681087.251,0.038,-108679848.072013,0.051,-1418.491,49.5,1366.050,08009c44,32,0,22313098.935,0.039,-117256129.031945,0.037,2262.992,49.2,1335.460,18009c84,24,0,21928446.640,0.046,-115234769.025958,0.048,-2606.476,47.9,1356.500,18009ca4,15,0,24191714.948,0.052,-127128321.455432,0.048,-2749.672,46.8,1366.350,18009ce4,14,0,23862604.319,0.061,-125398834.870808,0.048,2483.863,45.4,1306.920,18009d04,10,0,20478924.935,0.032,-107617480.050546,0.051,431.552,51.0,1372.750,18009d24,25,0,21763735.188,0.044,-114369205.751492,0.049,2876.239,48.4,1345.920,18009d44,12,0,20961188.881,0.032,-110151797.594090,0.035,605.111,51.0,1375.650,18009d64*722e25f9
#SATXYZ2A,COM1_1,0,70.0,FINESTEERING,1979,286747.000,00000000,7513,12778;10,GPS,20,-21115004.8168,9852638.2467,-12868428.6026,148522.713,9.983,22.890,0.0,0.0,GPS,31,7383771.0010,25086108.5061,-3037176.8718,46719.324,9.367,13.302,0.0,0.0,GPS,18,-13777316.2907,21783545.6424,6613833.4453,189909.823,3.457,2.772,0.0,0.0,GPS,32,5108043.6061,16357009.7098,20330701.1397,-158739.444,4.549,3.864,0.0,0.0,GPS,24,-15851487.3662,480246.6398,21232486.1938,-13015.028,4.129,3.689,0.0,0.0,GPS,15,-26290469.6712,-2300568.9054,4278553.6940,-107146.052,6.441,7.765,0.0,0.0,GPS,14,12269888.6414,17074135.9332,16606369.6178,-27123.798,6.544,6.650,0.0,0.0,GPS,10,-5793478.0245,20650868.9569,15598277.6988,38532.614,3.234,2.609,0.0,0.0,GPS,25,-19606454.0883,17701538.4307,887565.5977,-151376.328,4.290,3.489,0.0,0.0,GPS,12,-21998185.7082,7994922.9278,12195183.6851,108112.229,3.623,3.050,0.0,0.0*53bfa2a8
#BESTPOSA,COM1_1,0,70.0,FINESTEERING,1979,286747.000,00000000,7145,12778;SOL_COMPUTED,SINGLE,36.76914631883,126.93478712610,95.0864,23.3000,WGS84,0.6713,0.5491,1.0367,"",0.000,0.000,10,10,10,10,0,12,00,01*1e395616
#RANGEA,COM1_1,0,69.0,FINESTEERING,1979,286748.000,00000000,5103,12778;10,20,0,25079941.502,0.078,-131795972.917123,0.074,-3787.392,43.3,1362.930,18009c04,31,0,24385303.693,0.067,-128145644.603698,0.068,3122.117,44.6,678.210,18009c24,18,0,20681356.916,0.038,-108681265.171468,0.044,-1422.574,49.5,1367.050,08009c44,32,0,22312667.975,0.039,-117253864.297122,0.038,2259.484,49.2,1336.460,18009c84,24,0,21928942.352,0.045,-115237373.972804,0.043,-2610.110,48.1,1357.500,18009ca4,15,0,24192237.879,0.052,-127131069.428826,0.043,-2753.103,46.8,1367.350,18009ce4,14,0,23862131.278,0.061,-125396349.031896,0.043,2480.966,45.4,1307.920,18009d04,10,0,20478842.542,0.032,-107617047.075642,0.044,427.476,51.1,1373.750,18009d24,25,0,21763187.526,0.044,-114366327.753405,0.044,2872.716,48.3,1346.920,18009d44,12,0,20961073.488,0.032,-110151191.241242,0.039,600.857,51.0,1376.650,18009d64*adddb8b5
#SATXYZ2A,COM1_1,0,69.0,FINESTEERING,1979,286748.000,00000000,7513,12778;10,GPS,20,-21114186.0572,9851207.2722,-12870900.0851,148522.714,9.984,22.913,0.0,0.0,GPS,31,7383556.9606,25086558.6822,-3033995.3190,46719.322,9.366,13.295,0.0,0.0,GPS,18,-13778121.9562,21783847.0868,6610879.5219,189909.824,3.457,2.772,0.0,0.0,GPS,32,5105539.8026,16356395.0245,20331819.4187,-158739.445,4.549,3.863,0.0,0.0,GPS,24,-15852190.3695,477615.9379,21232050.1638,-13015.029,4.129,3.690,0.0,0.0,GPS,15,-26290950.0631,-2301023.3591,4275538.8483,-107146.052,6.442,7.767,0.0,0.0,GPS,14,12267914.2876,17073560.4405,16608438.6237,-27123.798,6.543,6.648,0.0,0.0,GPS,10,-5795052.9368,20652089.8695,15596058.8011,38532.616,3.234,2.609,0.0,0.0,GPS,25,-19606532.8653,17701262.1338,890785.8959,-151376.330,4.289,3.489,0.0,0.0,GPS,12,-21997095.0852,7993767.3727,12197890.2158,108112.228,3.623,3.050,0.0,0.0*83148f4f
#BESTPOSA,COM1_1,0,69.0,FINESTEERING,1979,286748.000,00000000,7145,12778;SOL_COMPUTED,SINGLE,36.76914631883,126.93478712610,95.0864,23.3000,WGS84,0.6713,0.5492,1.0367,"",0.000,0.000,10,9,9,9,0,12,00,01*777fb332
#RANGEA,COM1_1,0,69.0,FINESTEERING,1979,286749.000,00000000,5103,12778;10,20,0,25080661.615,0.078,-131799757.088612,0.055,-3784.651,43.2,1363.930,18009c04,31,0,24384708.988,0.067,-128142519.407214,0.053,3124.538,44.7,679.210,18009c24,18,0,20681627.029,0.038,-108682684.624461,0.042,-1420.199,49.4,1368.050,08009c44,32,0,22312237.377,0.040,-117251601.482259,0.040,2262.421,49.2,1337.460,18009c84,24,0,21929438.432,0.045,-115239980.892335,0.042,-2607.231,48.0,1358.500,18009ca4,15,0,24192761.184,0.052,-127133819.362641,0.042,-2750.406,46.7,1368.350,18009ce4,14,0,23861658.590,0.060,-125393865.012458,0.041,2483.416,45.6,1308.920,18009d04,10,0,20478760.614,0.032,-107616616.533015,0.042,429.780,51.1,1374.750,18009d24,25,0,21762640.291,0.044,-114363452.022662,0.042,2875.244,48.3,1347.920,18009d44,12,0,20960958.586,0.032,-110150587.404250,0.040,603.105,51.0,1377.650,18009d64*871c46a3
#SATXYZ2A,COM1_1,0,69.0,FINESTEERING,1979,286749.000,00000000,7513,12778;10,GPS,20,-21113367.1724,9849776.0225,-12873371.2955,148522.714,9.986,22.935,0.0,0.0,GPS,31,7383342.8639,25087008.4749,-3030813.7000,46719.321,9.364,13.288,0.0,0.0,GPS,18,-13778927.3596,21784148.3037,6607925.4586,189909.824,3.457,2.772,0.0,0.0,GPS,32,5103035.8285,16355780.4447,20332937.2666,-158739.445,4.548,3.863,0.0,0.0,GPS,24,-15852893.5014,474985.3308,21231613.6791,-13015.029,4.129,3.690,0.0,0.0,GPS,15,-26291430.1127,-2301477.7069,4272523.9134,-107146.051,6.442,7.770,0.0,0.0,GPS,14,12265939.6608,17072984.9727,16610507.2854,-27123.797,6.542,6.647,0.0,0.0,GPS,10,-5796627.5780,20653310.6804,15593839.5700,38532.618,3.234,2.609,0.0,0.0,GPS,25,-19606611.3636,17700985.5603,894006.1748,-151376.333,4.288,3.488,0.0,0.0,GPS,12,-21996004.2706,7992611.5277,12200596.4818,108112.227,3.622,3.050,0.0,0.0*38e987ff
#BESTPOSA,COM1_1,0,69.0,FINESTEERING,1979,286749.000,00000000,7145,12778;SOL_COMPUTED,SINGLE,36.76914631883,126.93478712610,95.0864,23.3000,WGS84,0.6713,0.5492,1.0367,"",0.000,0.000,10,9,9,9,0,12,00,01*7c189ab6
#RANGEA,COM1_1,0,69.5,FINESTEERING,1979,286750.000,00000000,5103,12778;10,20,0,25081381.037,0.077,-131803537.681996,0.091,-3785.366,43.4,1364.930,18009c04,31,0,24384113.635,0.067,-128139390.831618,0.045,3124.018,44.7,680.210,18009c24,18,0,20681896.558,0.038,-108684101.037650,0.040,-1421.165,49.5,1369.050,08009c44,32,0,22311806.116,0.039,-117249335.198893,0.040,2261.815,49.3,1338.460,18009c84,24,0,21929933.868,0.045,-115242584.398528,0.041,-2608.022,48.0,1359.500,18009ca4,15,0,24193283.826,0.051,-127136565.809529,0.074,-2750.907,47.0,1369.350,18009ce4,14,0,23861185.213,0.059,-125391377.425370,0.040,2483.157,45.7,1309.920,18009d04,10,0,20478678.125,0.032,-107616183.066455,0.041,428.635,51.1,1375.750,18009d24,25,0,21762092.454,0.044,-114360573.144978,0.040,2874.175,48.3,1348.920,18009d44,12,0,20960843.132,0.032,-110149980.700538,0.039,601.849,51.0,1378.650,18009d64*c9ce9236
#SATXYZ2A,COM1_1,0,69.5,FINESTEERING,1979,286750.000,00000000,7513,12778;10,GPS,20,-21112548.1624,9848344.4975,-12875842.2339,148522.715,9.987,22.958,0.0,0.0,GPS,31,7383128.7106,25087457.8841,-3027632.0147,46719.319,9.362,13.281,0.0,0.0,GPS,18,-13779732.5008,21784449.2929,6604971.2555,189909.824,3.457,2.772,0.0,0.0,GPS,32,5100531.6837,16355165.9702,20334054.6833,-158739.446,4.547,3.862,0.0,0.0,GPS,24,-15853596.7618,472354.8186,21231176.7397,-13015.029,4.129,3.691,0.0,0.0,GPS,15,-26291909.8199,-2301931.9490,4269508.8894,-107146.050,6.443,7.772,0.0,0.0,GPS,14,12263964.7611,17072409.5299,16612575.6027,-27123.797,6.541,6.645,0.0,0.0,GPS,10,-5798201.9482,20654531.3894,15591620.0057,38532.620,3.234,2.609,0.0,0.0,GPS,25,-19606689.5831,17700708.7101,897226.4344,-151376.335,4.287,3.488,0.0,0.0,GPS,12,-21994913.2648,7991455.3928,12203302.4834,108112.225,3.622,3.050,0.0,0.0*32efd3a6
#BESTPOSA,COM1_1,0,69.5,FINESTEERING,1979,286750.000,00000000,7145,12778;SOL_COMPUTED,SINGLE,36.76914631214,126.93478713682,95.0950,23.3000,WGS84,0.6700,0.5479,1.0350,"",0.000,0.000,10,9,9,9,0,12,00,01*bcab41a9
#RANGEA,COM1_1,0,67.5,FINESTEERING,1979,286751.000,00000000,5103,12778;10,20,0,25082100.975,0.076,-131807320.984136,0.071,-3781.588,43.6,1365.930,18009c04,31,0,24383518.848,0.064,-128136265.194802,0.102,3127.356,45.0,681.210,18009c24,18,0,20682166.720,0.037,-108685520.757647,0.041,-1418.440,49.7,1370.050,08009c44,32,0,22311375.407,0.038,-117247071.798434,0.096,2265.053,49.5,1339.460,18009c84,24,0,21930429.865,0.044,-115245190.827384,0.096,-2604.715,48.3,1360.500,18009ca4,15,0,24193807.016,0.049,-127139315.143056,0.055,-2747.387,47.3,1370.350,18009ce4,14,0,23860712.361,0.059,-125388892.576573,0.098,2486.303,45.7,1310.920,18009d04,10,0,20478596.288,0.031,-107615753.015267,0.041,431.376,51.3,1376.750,18009d24,25,0,21761545.228,0.043,-114357697.461850,0.040,2877.241,48.6,1349.920,18009d44,12,0,20960728.341,0.031,-110149377.463324,0.094,604.387,51.2,1379.650,18009d64*64b7f066
#SATXYZ2A,COM1_1,0,67.5,FINESTEERING,1979,286751.000,00000000,7513,12778;10,GPS,20,-21111729.0272,9846912.6974,-12878312.9000,148522.715,9.989,22.980,0.0,0.0,GPS,31,7382914.5008,25087906.9098,-3024450.2633,46719.317,9.361,13.274,0.0,0.0,GPS,18,-13780537.3798,21784750.0545,6602016.9126,189909.824,3.458,2.773,0.0,0.0,GPS,32,5098027.3682,16354551.6012,20335171.6688,-158739.446,4.547,3.862,0.0,0.0,GPS,24,-15854300.1506,469724.4014,21230739.3456,-13015.030,4.130,3.691,0.0,0.0,GPS,15,-26292389.1848,-2302386.0853,4266493.7763,-107146.050,6.443,7.774,0.0,0.0,GPS,14,12261989.5886,17071834.1122,16614643.5758,-27123.796,6.540,6.644,0.0,0.0,GPS,10,-5799776.0473,20655751.9964,15589400.1081,38532.622,3.234,2.609,0.0,0.0,GPS,25,-19606767.5240,17700431.5833,900446.6746,-151376.338,4.287,3.487,0.0,0.0,GPS,12,-21993822.0676,7990298.9681,12206008.2202,108112.224,3.622,3.050,0.0,0.0*c6e507c2
#BESTPOSA,COM1_1,0,67.5,FINESTEERING,1979,286751.000,00000000,7145,12778;SOL_COMPUTED,SINGLE,36.76914631214,126.93478713682,95.0950,23.3000,WGS84,0.6700,0.5479,1.0350,"",0.000,0.000,10,9,9,9,0,12,00,01*984a1fb3
#RANGEA,COM1_1,0,67.5,FINESTEERING,1979,286752.000,00000000,5103,12778;10,20,0,25082821.029,0.078,-131811104.906960,0.114,-3785.687,43.3,1366.930,18009c04,31,0,24382924.202,0.066,-128133140.372880,0.069,3123.260,44.7,682.210,18009c24,18,0,20682437.103,0.038,-108686941.631293,0.088,-1422.901,49.6,1371.050,08009c44,32,0,22310944.841,0.039,-117244809.116263,0.087,2261.115,49.3,1340.460,18009c84,24,0,21930926.015,0.045,-115247798.053916,0.065,-2608.714,48.1,1361.500,18009ca4,15,0,24194330.354,0.050,-127142065.236201,0.045,-2751.536,47.1,1371.350,18009ce4,14,0,23860239.622,0.061,-125386408.354464,0.097,2482.345,45.4,1311.920,18009d04,10,0,20478514.688,0.032,-107615324.211888,0.038,426.682,51.1,1377.750,18009d24,25,0,21760998.205,0.044,-114354822.851018,0.037,2872.884,48.4,1350.920,18009d44,12,0,20960613.799,0.032,-110148775.546929,0.063,599.655,51.0,1380.650,18009d64*372d995c
#SATXYZ2A,COM1_1,0,67.5,FINESTEERING,1979,286752.000,00000000,7513,12778;10,GPS,20,-21110909.7670,9845480.6219,-12880783.2939,148522.716,9.990,23.003,0.0,0.0,GPS,31,7382700.2344,25088355.5520,-3021268.4457,46719.316,9.359,13.267,0.0,0.0,GPS,18,-13781341.9968,21785050.5883,6599062.4300,189909.825,3.458,2.773,0.0,0.0,GPS,32,5095522.8822,16353937.3376,20336288.2231,-158739.447,4.546,3.861,0.0,0.0,GPS,24,-15855003.6679,467094.0793,21230301.4968,-13015.030,4.130,3.692,0.0,0.0,GPS,15,-26292868.2072,-2302840.1160,4263478.5742,-107146.049,6.444,7.776,0.0,0.0,GPS,14,12260014.1433,17071258.7195,16616711.2044,-27123.795,6.539,6.642,0.0,0.0,GPS,10,-5801349.8752,20656972.5015,15587179.8774,38532.624,3.234,2.609,0.0,0.0,GPS,25,-19606845.1861,17700154.1798,903666.8954,-151376.340,4.286,3.487,0.0,0.0,GPS,12,-21992730.6792,7989142.2534,12208713.6924,108112.223,3.622,3.050,0.0,0.0*14740fbb
#BESTPOSA,COM1_1,0,67.5,FINESTEERING,1979,286752.000,00000000,7145,12778;SOL_COMPUTED,SINGLE,36.76914630494,126.93478714687,95.1036,23.3000,WGS84,0.6687,0.5467,1.0334,"",0.000,0.000,10,10,10,10,0,12,00,01*1ef47e61
#RANGEA,COM1_1,0,69.5,FINESTEERING,1979,286753.000,00000000,5103,12778;10,20,0,25083541.563,0.081,-131814891.312940,0.093,-3778.078,43.0,1367.930,18009c04,31,0,24382330.081,0.065,-128130018.274352,0.052,3130.300,44.8,683.210,18009c24,18,0,20682708.061,0.038,-108688365.564389,0.061,-1415.642,49.6,1372.050,08009c44,32,0,22310514.770,0.039,-117242549.072480,0.060,2268.357,49.3,1341.460,18009c84,24,0,21931422.678,0.044,-115250407.993956,0.051,-2601.752,48.2,1362.500,18009ca4,15,0,24194854.187,0.050,-127144817.961881,0.042,-2744.397,47.1,1372.350,18009ce4,14,0,23859767.369,0.061,-125383926.646811,0.066,2490.139,45.4,1312.920,18009d04,10,0,20478433.693,0.032,-107614898.582158,0.038,433.799,51.1,1378.750,18009d24,25,0,21760451.752,0.043,-114351951.200112,0.038,2879.612,48.4,1351.920,18009d44,12,0,20960499.886,0.032,-110148176.904422,0.049,606.788,51.0,1381.650,18009d64*84a8f08b
#SATXYZ2A,COM1_1,0,69.5,FINESTEERING,1979,286753.000,00000000,7513,12778;10,GPS,20,-21110090.3817,9844048.2713,-12883253.4155,148522.716,9.991,23.026,0.0,0.0,GPS,31,7382485.9114,25088803.8107,-3018086.5622,46719.314,9.357,13.260,0.0,0.0,GPS,18,-13782146.3516,21785350.8945,6596107.8078,189909.825,3.458,2.773,0.0,0.0,GPS,32,5093018.2257,16353323.1796,20337404.3462,-158739.447,4.546,3.861,0.0,0.0,GPS,24,-15855707.3137,464463.8522,21229863.1934,-13015.030,4.130,3.692,0.0,0.0,GPS,15,-26293346.8872,-2303294.0411,4260463.2832,-107146.048,6.444,7.778,0.0,0.0,GPS,14,12258038.4252,17070683.3519,16618778.4887,-27123.795,6.538,6.641,0.0,0.0,GPS,10,-5802923.4321,20658192.9045,15584959.3135,38532.626,3.234,2.608,0.0,0.0,GPS,25,-19606922.5697,17699876.4995,906887.0967,-151376.342,4.285,3.486,0.0,0.0,GPS,12,-21991639.0996,7987985.2488,12211418.8998,108112.222,3.621,3.050,0.0,0.0*c4d0560e
#BESTPOSA,COM1_1,0,69.5,FINESTEERING,1979,286753.000,00000000,7145,12778;SOL_COMPUTED,SINGLE,36.76914630494,126.93478714687,95.1036,23.3000,WGS84,0.6687,0.5467,1.0334,"",0.000,0.000,10,9,9,9,0,12,00,01*f1fec7d4
#RANGEA,COM1_1,0,69.5,FINESTEERING,1979,286754.000,00000000,5103,12778;10,20,0,25084260.928,0.080,-131818671.595864,0.063,-3779.367,43.1,1368.930,18009c04,31,0,24381734.831,0.066,-128126890.246594,0.042,3128.885,44.7,684.210,18009c24,18,0,20682977.964,0.038,-108689783.928037,0.045,-1417.615,49.6,1373.050,08009c44,32,0,22310083.550,0.039,-117240282.999009,0.044,2267.062,49.3,1342.460,18009c84,24,0,21931918.216,0.044,-115253011.985740,0.041,-2603.030,48.3,1363.500,18009ca4,15,0,24195376.876,0.052,-127147564.693763,0.037,-2745.675,46.8,1373.350,18009ce4,14,0,23859293.955,0.062,-125381438.789163,0.047,2488.964,45.3,1313.920,18009d04,10,0,20478351.655,0.031,-107614467.468406,0.034,431.837,51.1,1379.750,18009d24,25,0,21759904.217,0.044,-114349073.867574,0.068,2878.110,48.3,1352.920,18009d44,12,0,20960384.934,0.032,-110147572.831483,0.039,604.592,51.1,1382.650,18009d64*214659fb
#SATXYZ2A,COM1_1,0,69.5,FINESTEERING,1979,286754.000,00000000,7513,12778;10,GPS,20,-21109270.8714,9842615.6455,-12885723.2648,148522.717,9.993,23.049,0.0,0.0,GPS,31,7382271.5317,25089251.6859,-3014904.6127,46719.312,9.356,13.253,0.0,0.0,GPS,18,-13782950.4443,21785650.9728,6593153.0459,189909.825,3.458,2.773,0.0,0.0,GPS,32,5090513.3987,16352709.1271,20338520.0380,-158739.448,4.545,3.860,0.0,0.0,GPS,24,-15856411.0879,461833.7203,21229424.4354,-13015.031,4.130,3.693,0.0,0.0,GPS,15,-26293825.2248,-2303747.8606,4257447.9032,-107146.048,6.444,7.780,0.0,0.0,GPS,14,12256062.4343,17070108.0096,16620845.4285,-27123.794,6.537,6.639,0.0,0.0,GPS,10,-5804496.7178,20659413.2053,15582738.4165,38532.627,3.233,2.608,0.0,0.0,GPS,25,-19606999.6747,17699598.5424,910107.2783,-151376.345,4.284,3.486,0.0,0.0,GPS,12,-21990547.3289,7986827.9542,12214123.8424,108112.221,3.621,3.049,0.0,0.0*42a56227
#BESTPOSA,COM1_1,0,69.5,FINESTEERING,1979,286754.000,00000000,7145,12778;SOL_COMPUTED,SINGLE,36.76914630494,126.93478714687,95.1036,23.3000,WGS84,0.6688,0.5467,1.0334,"",0.000,0.000,10,9,9,9,0,12,00,01*11108013
#RANGEA,COM1_1,0,69.0,FINESTEERING,1979,286755.000,00000000,5103,12778;10,20,0,25084980.242,0.078,-131822451.578465,0.050,-3779.409,43.3,1369.930,18009c04,31,0,24381139.555,0.065,-128123762.111653,0.042,3128.686,44.8,685.210,18009c24,18,0,20683247.914,0.038,-108691202.555077,0.043,-1418.228,49.5,1374.050,08009c44,32,0,22309652.307,0.038,-117238016.777278,0.096,2266.739,49.4,1343.460,18009c84,24,0,21932413.731,0.044,-115255615.880765,0.104,-2603.459,48.3,1364.500,18009ca4,15,0,24195899.539,0.051,-127150311.282039,0.096,-2746.189,47.0,1374.350,18009ce4,14,0,23858820.483,0.061,-125378950.675174,0.044,2488.836,45.4,1314.920,18009d04,10,0,20478269.681,0.031,-107614036.723929,0.039,431.142,51.1,1380.750,18009d24,25,0,21759356.704,0.044,-114346196.693633,0.053,2877.486,48.3,1353.920,18009d44,12,0,20960270.068,0.032,-110146969.191687,0.040,604.057,51.1,1383.650,18009d64*ad3dc79f
#SATXYZ2A,COM1_1,0,69.0,FINESTEERING,1979,286755.000,00000000,7513,12778;10,GPS,20,-21108451.2362,9841182.7444,-12888192.8417,148522.717,9.994,23.071,0.0,0.0,GPS,31,7382057.0952,25089699.1777,-3011722.5973,46719.311,9.354,13.246,0.0,0.0,GPS,18,-13783754.2750,21785950.8234,6590198.1446,189909.825,3.458,2.774,0.0,0.0,GPS,32,5088008.4013,16352095.1803,20339635.2986,-158739.448,4.544,3.860,0.0,0.0,GPS,24,-15857114.9905,459203.6836,21228985.2228,-13015.031,4.131,3.693,0.0,0.0,GPS,15,-26294303.2199,-2304201.5745,4254432.4344,-107146.047,6.445,7.782,0.0,0.0,GPS,14,12254086.1707,17069532.6925,16622912.0238,-27123.793,6.536,6.638,0.0,0.0,GPS,10,-5806069.7324,20660633.4041,15580517.1865,38532.629,3.233,2.608,0.0,0.0,GPS,25,-19607076.5012,17699320.3085,913327.4404,-151376.347,4.284,3.485,0.0,0.0,GPS,12,-21989455.3671,7985670.3698,12216828.5201,108112.220,3.621,3.049,0.0,0.0*fc712854
#BESTPOSA,COM1_1,0,69.0,FINESTEERING,1979,286755.000,00000000,7145,12778;SOL_COMPUTED,SINGLE,36.76914629684,126.93478715613,95.1121,23.3000,WGS84,0.6675,0.5455,1.0317,"",0.000,0.000,10,9,9,9,0,12,00,01*333b9973
#RANGEA,COM1_1,0,68.5,FINESTEERING,1979,286756.000,00000000,5103,12778;10,20,0,25085699.327,0.078,-131826230.314822,0.115,-3777.248,43.2,1370.930,18009c04,31,0,24380544.091,0.067,-128120632.945895,0.043,3130.914,44.6,686.210,18009c24,18,0,20683517.730,0.038,-108692620.465121,0.043,-1416.007,49.5,1375.050,08009c44,32,0,22309220.846,0.039,-117235749.410039,0.098,2269.309,49.4,1344.460,18009c84,24,0,21932909.044,0.044,-115258218.711234,0.072,-2600.925,48.3,1365.500,18009ca4,15,0,24196421.996,0.051,-127153056.747128,0.068,-2743.628,47.0,1375.350,18009ce4,14,0,23858346.778,0.062,-125376461.336297,0.099,2491.169,45.3,1315.920,18009d04,10,0,20478187.598,0.032,-107613605.388945,0.042,433.036,51.1,1381.750,18009d24,25,0,21758809.043,0.044,-114343318.732533,0.047,2879.683,48.2,1354.920,18009d44,12,0,20960155.099,0.032,-110146365.017293,0.043,606.121,51.0,1384.650,18009d64*ebe4eeae
#SATXYZ2A,COM1_1,0,68.5,FINESTEERING,1979,286756.000,00000000,7513,12778;10,GPS,20,-21107631.4761,9839749.5681,-12890662.1461,148522.718,9.996,23.094,0.0,0.0,GPS,31,7381842.6019,25090146.2860,-3008540.5161,46719.309,9.352,13.239,0.0,0.0,GPS,18,-13784557.8436,21786250.4460,6587243.1038,189909.826,3.458,2.774,0.0,0.0,GPS,32,5085503.2336,16351481.3390,20340750.1279,-158739.449,4.544,3.860,0.0,0.0,GPS,24,-15857819.0214,456573.7421,21228545.5555,-13015.032,4.131,3.694,0.0,0.0,GPS,15,-26294780.8725,-2304655.1830,4251416.8769,-107146.046,6.445,7.784,0.0,0.0,GPS,14,12252109.6344,17068957.4006,16624978.2746,-27123.793,6.535,6.636,0.0,0.0,GPS,10,-5807642.4759,20661853.5005,15578295.6234,38532.631,3.233,2.608,0.0,0.0,GPS,25,-19607153.0492,17699041.7977,916547.5827,-151376.349,4.283,3.485,0.0,0.0,GPS,12,-21988363.2144,7984512.4953,12219532.9329,108112.218,3.621,3.049,0.0,0.0*b8f39d72
#BESTPOSA,COM1_1,0,68.5,FINESTEERING,1979,286756.000,00000000,7145,12778;SOL_COMPUTED,SINGLE,36.76914629684,126.93478715613,95.1121,23.3000,WGS84,0.6675,0.5455,1.0318,"",0.000,0.000,10,9,9,9,0,12,00,01*ae837c4e
#RANGEA,COM1_1,0,68.5,FINESTEERING,1979,286757.000,00000000,5103,12778;10,20,0,25086418.710,0.078,-131830010.694316,0.076,-3783.321,43.3,1371.930,18009c04,31,0,24379948.987,0.067,-128117505.652013,0.040,3124.325,44.7,687.210,18009c24,18,0,20683787.964,0.038,-108694040.607459,0.040,-1422.984,49.4,1376.050,08009c44,32,0,22308789.732,0.039,-117233483.835172,0.067,2262.857,49.3,1345.460,18009c84,24,0,21933404.699,0.045,-115260823.381032,0.053,-2607.515,48.1,1366.500,18009ca4,15,0,24196944.787,0.050,-127155804.010348,0.052,-2750.118,47.1,1376.350,18009ce4,14,0,23857873.383,0.062,-125373973.653884,0.068,2485.257,45.3,1316.920,18009d04,10,0,20478105.958,0.032,-107613176.368871,0.040,426.209,51.1,1382.750,18009d24,25,0,21758261.789,0.044,-114340442.883813,0.042,2872.857,48.2,1355.920,18009d44,12,0,20960040.583,0.032,-110145763.230168,0.041,599.021,51.0,1385.650,18009d64*96addddc
#SATXYZ2A,COM1_1,0,68.5,FINESTEERING,1979,286757.000,00000000,7513,12778;10,GPS,20,-21106811.5912,9838316.1166,-12893131.1780,148522.718,9.997,23.117,0.0,0.0,GPS,31,7381628.0518,25090593.0108,-3005358.3692,46719.307,9.351,13.233,0.0,0.0,GPS,18,-13785361.1502,21786549.8407,6584287.9236,189909.826,3.459,2.774,0.0,0.0,GPS,32,5082997.8956,16350867.6034,20341864.5258,-158739.449,4.543,3.859,0.0,0.0,GPS,24,-15858523.1807,453943.8960,21228105.4336,-13015.032,4.131,3.694,0.0,0.0,GPS,15,-26295258.1826,-2305108.6860,4248401.2307,-107146.046,6.446,7.786,0.0,0.0,GPS,14,12250132.8255,17068382.1341,16627044.1808,-27123.792,6.534,6.635,0.0,0.0,GPS,10,-5809214.9482,20663073.4947,15576073.7275,38532.633,3.233,2.608,0.0,0.0,GPS,25,-19607229.3187,17698763.0100,919767.7052,-151376.352,4.282,3.484,0.0,0.0,GPS,12,-21987270.8707,7983354.3309,12222237.0807,108112.217,3.620,3.049,0.0,0.0*35afdd95
#BESTPOSA,COM1_1,0,68.5,FINESTEERING,1979,286757.000,00000000,7145,12778;SOL_COMPUTED,SINGLE,36.76914628803,126.93478716450,95.1206,23.3000,WGS84,0.6662,0.5443,1.0301,"",0.000,0.000,10,10,10,10,0,12,00,01*4525c1fb
#RANGEA,COM1_1,0,69.0,FINESTEERING,1979,286758.000,00000000,5103,12778;10,20,0,25087138.140,0.078,-131833791.266377,0.093,-3783.679,43.3,1372.930,18009c04,31,0,24379353.956,0.067,-128114378.782285,0.086,3123.822,44.7,688.210,18009c24,18,0,20684058.347,0.038,-108695461.503701,0.081,-1423.972,49.5,1377.050,08009c44,32,0,22308358.675,0.039,-117231218.601401,0.080,2262.507,49.3,1346.460,18009c84,24,0,21933900.434,0.044,-115263428.431409,0.082,-2608.241,48.2,1367.500,18009ca4,15,0,24197467.648,0.051,-127158551.637582,0.092,-2750.455,47.0,1377.350,18009ce4,14,0,23857400.027,0.062,-125371486.208430,0.080,2484.729,45.3,1317.920,18009d04,10,0,20478024.485,0.032,-107612748.214106,0.086,425.089,51.1,1383.750,18009d24,25,0,21757714.661,0.044,-114337567.705241,0.083,2872.189,48.2,1356.920,18009d44,12,0,20959926.247,0.032,-110145162.379783,0.083,597.672,51.0,1386.650,18009d64*e4aa9067
#SATXYZ2A,COM1_1,0,69.0,FINESTEERING,1979,286758.000,00000000,7513,12778;10,GPS,20,-21105991.5814,9836882.3899,-12895599.9374,148522.719,9.999,23.140,0.0,0.0,GPS,31,7381413.4448,25091039.3521,-3002176.1565,46719.306,9.349,13.226,0.0,0.0,GPS,18,-13786164.1948,21786849.0074,6581332.6040,189909.826,3.459,2.774,0.0,0.0,GPS,32,5080492.3873,16350253.9735,20342978.4924,-158739.450,4.542,3.859,0.0,0.0,GPS,24,-15859227.4684,451314.1453,21227664.8571,-13015.032,4.131,3.695,0.0,0.0,GPS,15,-26295735.1501,-2305562.0835,4245385.4958,-107146.045,6.446,7.788,0.0,0.0,GPS,14,12248155.7440,17067806.8930,16629109.7423,-27123.791,6.534,6.633,0.0,0.0,GPS,10,-5810787.1494,20664293.3865,15573851.4986,38532.635,3.233,2.608,0.0,0.0,GPS,25,-19607305.3097,17698483.9453,922987.8078,-151376.354,4.282,3.484,0.0,0.0,GPS,12,-21986178.3361,7982195.8766,12224940.9634,108112.216,3.620,3.049,0.0,0.0*20cdebb5
#BESTPOSA,COM1_1,0,69.0,FINESTEERING,1979,286758.000,00000000,7145,12778;SOL_COMPUTED,SINGLE,36.76914628803,126.93478716450,95.1206,23.3000,WGS84,0.6662,0.5443,1.0301,"",0.000,0.000,10,9,9,9,0,12,00,01*6d92115f
#RANGEA,COM1_1,0,69.0,FINESTEERING,1979,286759.000,00000000,5103,12778;10,20,0,25087858.463,0.078,-131837576.563006,0.096,-3779.265,43.3,1373.930,18009c04,31,0,24378759.865,0.066,-128111256.855286,0.063,3127.660,44.7,689.210,18009c24,18,0,20684329.733,0.038,-108696887.680076,0.102,-1420.875,49.5,1378.050,08009c44,32,0,22307928.542,0.039,-117228958.228843,0.100,2266.050,49.4,1347.460,18009c84,24,0,21934397.094,0.044,-115266038.373608,0.100,-2604.085,48.3,1368.500,18009ca4,15,0,24197991.429,0.052,-127161304.112277,0.066,-2746.499,46.9,1378.350,18009ce4,14,0,23856927.587,0.062,-125369003.499949,0.060,2488.188,45.3,1318.920,18009d04,10,0,20477944.038,0.032,-107612325.446515,0.063,428.117,51.1,1384.750,18009d24,25,0,21757168.515,0.044,-114334697.722161,0.098,2875.623,48.3,1357.920,18009d44,12,0,20959812.938,0.032,-110144566.971827,0.100,600.569,51.0,1387.650,18009d64*347d9143
#SATXYZ2A,COM1_1,0,69.0,FINESTEERING,1979,286759.000,00000000,7513,12778;10,GPS,20,-21105171.4470,9835448.3880,-12898068.4242,148522.719,10.000,23.163,0.0,0.0,GPS,31,7381198.7809,25091485.3099,-2998993.8783,46719.304,9.347,13.219,0.0,0.0,GPS,18,-13786966.9773,21787147.9461,6578377.1452,189909.826,3.459,2.774,0.0,0.0,GPS,32,5077986.7089,16349640.4493,20344092.0276,-158739.450,4.542,3.858,0.0,0.0,GPS,24,-15859931.8843,448684.4901,21227223.8260,-13015.033,4.132,3.695,0.0,0.0,GPS,15,-26296211.7751,-2306015.3758,4242369.6724,-107146.044,6.446,7.790,0.0,0.0,GPS,14,12246178.3899,17067231.6773,16631174.9592,-27123.791,6.533,6.632,0.0,0.0,GPS,10,-5812359.0793,20665513.1759,15571628.9369,38532.637,3.233,2.608,0.0,0.0,GPS,25,-19607381.0224,17698204.6037,926207.8905,-151376.357,4.281,3.483,0.0,0.0,GPS,12,-21985085.6107,7981037.1322,12227644.5810,108112.215,3.620,3.049,0.0,0.0*8e6ab9cd
#BESTPOSA,COM1_1,0,69.0,FINESTEERING,1979,286759.000,00000000,7145,12778;SOL_COMPUTED,SINGLE,36.76914628803,126.93478716450,95.1206,23.3000,WGS84,0.6662,0.5443,1.0301,"",0.000,0.000,10,9,9,9,0,12,00,01*66f538db
#RANGEA,COM1_1,0,68.5,FINESTEERING,1979,286760.000,00000000,5103,12778;10,20,0,25088578.438,0.078,-131841360.048920,0.121,-3782.800,43.3,1374.930,18009c04,31,0,24378165.448,0.067,-128108133.244660,0.110,3124.225,44.7,690.210,18009c24,18,0,20684600.869,0.038,-108698312.550666,0.114,-1425.118,49.5,1379.050,08009c44,32,0,22307498.074,0.039,-117226696.099164,0.114,2262.239,49.3,1348.460,18009c84,24,0,21934893.446,0.044,-115268646.663932,0.079,-2607.714,48.3,1369.500,18009ca4,15,0,24198514.890,0.051,-127164054.874646,0.100,-2749.729,47.0,1379.350,18009ce4,14,0,23856454.796,0.063,-125366518.948415,0.050,2484.445,45.2,1319.920,18009d04,10,0,20477863.365,0.032,-107611901.485576,0.122,423.626,51.1,1385.750,18009d24,25,0,21756622.109,0.044,-114331826.333857,0.128,2871.754,48.3,1358.920,18009d44,12,0,20959699.421,0.032,-110143970.430158,0.116,595.971,51.0,1388.650,18009d64*be4fb1e8
#SATXYZ2A,COM1_1,0,68.5,FINESTEERING,1979,286760.000,00000000,7513,12778;10,GPS,20,-21104351.1879,9834014.1110,-12900536.6384,148522.720,10.002,23.186,0.0,0.0,GPS,31,7380984.0599,25091930.8843,-2995811.5346,46719.302,9.345,13.212,0.0,0.0,GPS,18,-13787769.4979,21787446.6567,6575421.5472,189909.827,3.459,2.775,0.0,0.0,GPS,32,5075480.8604,16349027.0309,20345205.1315,-158739.451,4.541,3.858,0.0,0.0,GPS,24,-15860636.4285,446054.9304,21226782.3404,-13015.033,4.132,3.696,0.0,0.0,GPS,15,-26296688.0576,-2306468.5627,4239353.7605,-107146.044,6.447,7.792,0.0,0.0,GPS,14,12244200.7633,17066656.4870,16633239.8314,-27123.790,6.532,6.630,0.0,0.0,GPS,10,-5813930.7381,20666732.8629,15569406.0423,38532.639,3.233,2.608,0.0,0.0,GPS,25,-19607456.4568,17697924.9851,929427.9532,-151376.359,4.280,3.483,0.0,0.0,GPS,12,-21983992.6945,7979878.0979,12230347.9334,108112.214,3.620,3.049,0.0,0.0*1b59d7eb
#BESTPOSA,COM1_1,0,68.5,FINESTEERING,1979,286760.000,00000000,7145,12778;SOL_COMPUTED,SINGLE,36.76914627841,126.93478717226,95.1291,23.3000,WGS84,0.6650,0.5431,1.0285,"",0.000,0.000,10,9,9,9,0,12,00,01*ccfe703a
#RANGEA,COM1_1,0,67.5,FINESTEERING,1979,286761.000,00000000,5103,12778;10,20,0,25089298.487,0.079,-131845143.975619,0.080,-3783.808,43.1,1375.930,18009c04,31,0,24377571.187,0.066,-128105010.389632,0.073,3122.722,44.8,691.210,18009c24,18,0,20684872.215,0.038,-108699738.513461,0.076,-1426.260,49.5,1380.050,08009c44,32,0,22307067.729,0.039,-117224434.617268,0.069,2261.379,49.3,1349.460,18009c84,24,0,21935389.921,0.044,-115271255.628344,0.059,-2608.967,48.3,1370.500,18009ca4,15,0,24199038.483,0.051,-127166806.313687,0.079,-2751.585,47.0,1380.350,18009ce4,14,0,23855982.099,0.062,-125364034.923270,0.044,2483.728,45.3,1320.920,18009d04,10,0,20477782.915,0.032,-107611478.710790,0.080,422.411,51.1,1386.750,18009d24,25,0,21756075.890,0.044,-114328955.932029,0.070,2869.873,48.3,1359.920,18009d44,12,0,20959586.135,0.032,-110143375.128257,0.077,594.785,51.0,1389.650,18009d64*7e879973
#SATXYZ2A,COM1_1,0,67.5,FINESTEERING,1979,286761.000,00000000,7513,12778;10,GPS,20,-21103530.8042,9832579.5587,-12903004.5798,148522.720,10.003,23.209,0.0,0.0,GPS,31,7380769.2819,25092376.0751,-2992629.1254,46719.301,9.344,13.205,0.0,0.0,GPS,18,-13788571.7565,21787745.1393,6572465.8100,189909.827,3.459,2.775,0.0,0.0,GPS,32,5072974.8418,16348413.7183,20346317.8039,-158739.451,4.541,3.857,0.0,0.0,GPS,24,-15861341.1009,443425.4663,21226340.4002,-13015.033,4.132,3.696,0.0,0.0,GPS,15,-26297163.9974,-2306921.6443,4236337.7601,-107146.043,6.447,7.795,0.0,0.0,GPS,14,12242222.8642,17066081.3223,16635304.3589,-27123.789,6.531,6.628,0.0,0.0,GPS,10,-5815502.1257,20667952.4473,15567182.8151,38532.640,3.233,2.608,0.0,0.0,GPS,25,-19607531.6128,17697645.0894,932647.9959,-151376.361,4.279,3.482,0.0,0.0,GPS,12,-21982899.5877,7978718.7736,12233051.0206,108112.212,3.620,3.049,0.0,0.0*287e0244
#BESTPOSA,COM1_1,0,67.5,FINESTEERING,1979,286761.000,00000000,7145,12778;SOL_COMPUTED,SINGLE,36.76914627841,126.93478717226,95.1291,23.3000,WGS84,0.6650,0.5431,1.0285,"",0.000,0.000,10,9,9,9,0,12,00,01*65c9928f
#RANGEA,COM1_1,0,67.5,FINESTEERING,1979,286762.000,00000000,5103,12778;10,20,0,25090018.693,0.079,-131848928.610223,0.071,-3789.476,43.2,1376.930,18009c04,31,0,24376977.089,0.065,-128101888.406310,0.053,3116.946,44.9,692.210,18009c24,18,0,20685143.797,0.038,-108701165.695346,0.054,-1432.114,49.5,1381.050,08009c44,32,0,22306637.535,0.039,-117222173.929187,0.051,2255.864,49.4,1350.460,18009c84,24,0,21935886.564,0.044,-115273865.460959,0.045,-2614.679,48.3,1371.500,18009ca4,15,0,24199562.218,0.051,-127169558.543015,0.055,-2757.138,47.0,1381.350,18009ce4,14,0,23855509.516,0.063,-125361551.576701,0.038,2478.771,45.1,1321.920,18009d04,10,0,20477702.715,0.032,-107611057.254382,0.056,416.498,51.1,1387.750,18009d24,25,0,21755529.880,0.044,-114326086.640157,0.051,2864.048,48.3,1360.920,18009d44,12,0,20959473.117,0.032,-110142781.216378,0.054,589.031,51.0,1390.650,18009d64*8058e2b7
#SATXYZ2A,COM1_1,0,67.5,FINESTEERING,1979,286762.000,00000000,7513,12778;10,GPS,20,-21102710.2960,9831144.7313,-12905472.2485,148522.721,10.004,23.232,0.0,0.0,GPS,31,7380554.4468,25092820.8825,-2989446.6507,46719.299,9.342,13.198,0.0,0.0,GPS,18,-13789373.7532,21788043.3936,6569509.9337,189909.827,3.459,2.775,0.0,0.0,GPS,32,5070468.6532,16347800.5115,20347430.0449,-158739.451,4.540,3.857,0.0,0.0,GPS,24,-15862045.9016,440796.0978,21225898.0054,-13015.034,4.133,3.697,0.0,0.0,GPS,15,-26297639.5947,-2307374.6206,4233321.6714,-107146.042,6.448,7.797,0.0,0.0,GPS,14,12240244.6926,17065506.1832,16637368.5415,-27123.789,6.530,6.627,0.0,0.0,GPS,10,-5817073.2421,20669171.9291,15564959.2550,38532.642,3.232,2.608,0.0,0.0,GPS,25,-19607606.4906,17697364.9166,935868.0183,-151376.364,4.279,3.482,0.0,0.0,GPS,12,-21981806.2902,7977559.1593,12235753.8425,108112.211,3.619,3.049,0.0,0.0*734b445d
#BESTPOSA,COM1_1,0,67.5,FINESTEERING,1979,286762.000,00000000,7145,12778;SOL_COMPUTED,SINGLE,36.76914626863,126.93478717925,95.1375,23.3000,WGS84,0.6637,0.5419,1.0269,"",0.000,0.000,10,10,10,10,0,12,00,01*6d38f527
#RANGEA,COM1_1,0,69.5,FINESTEERING,1979,286763.000,00000000,5103,12778;10,20,0,25090739.772,0.080,-131852717.912993,0.102,-3787.886,43.0,1377.930,18009c04,31,0,24376383.931,0.065,-128098771.354846,0.095,3117.700,44.8,693.210,18009c24,18,0,20685416.380,0.038,-108702598.141742,0.045,-1431.964,49.4,1382.050,08009c44,32,0,22306208.267,0.039,-117219918.086787,0.093,2256.729,49.3,1351.460,18009c84,24,0,21936384.149,0.044,-115276480.209529,0.089,-2614.061,48.2,1372.500,18009ca4,15,0,24200086.881,0.051,-127172315.633885,0.088,-2756.247,46.9,1382.350,18009ce4,14,0,23855037.846,0.063,-125359072.963107,0.092,2479.387,45.1,1322.920,18009d04,10,0,20477623.535,0.032,-107610641.167560,0.090,416.604,51.0,1388.750,18009d24,25,0,21754984.854,0.044,-114323222.519746,0.089,2864.845,48.2,1361.920,18009d44,12,0,20959361.130,0.032,-110142192.741530,0.089,588.944,51.0,1391.650,18009d64*2da0d246
#SATXYZ2A,COM1_1,0,69.5,FINESTEERING,1979,286763.000,00000000,7513,12778;10,GPS,20,-21101889.6632,9829709.6287,-12907939.6444,148522.721,10.006,23.256,0.0,0.0,GPS,31,7380339.5546,25093265.3065,-2986264.1108,46719.297,9.340,13.191,0.0,0.0,GPS,18,-13790175.4880,21788341.4198,6566553.9185,189909.827,3.460,2.775,0.0,0.0,GPS,32,5067962.2946,16347187.4105,20348541.8544,-158739.452,4.539,3.856,0.0,0.0,GPS,24,-15862750.8305,438166.8250,21225455.1561,-13015.034,4.133,3.697,0.0,0.0,GPS,15,-26298114.8493,-2307827.4918,4230305.4943,-107146.042,6.448,7.799,0.0,0.0,GPS,14,12238266.2485,17064931.0697,16639432.3793,-27123.788,6.529,6.625,0.0,0.0,GPS,10,-5818644.0872,20670391.3082,15562735.3624,38532.644,3.232,2.608,0.0,0.0,GPS,25,-19607681.0901,17697084.4667,939088.0206,-151376.366,4.278,3.481,0.0,0.0,GPS,12,-21980712.8021,7976399.2549,12238456.3991,108112.210,3.619,3.049,0.0,0.0*237c12a6
#BESTPOSA,COM1_1,0,69.5,FINESTEERING,1979,286763.000,00000000,7145,12778;SOL_COMPUTED,SINGLE,36.76914626863,126.93478717925,95.1375,23.3000,WGS84,0.6637,0.5419,1.0269,"",0.000,0.000,10,9,9,9,0,12,00,01*fcec223a
#RANGEA,COM1_1,0,70.0,FINESTEERING,1979,286764.000,00000000,5103,12778;10,20,0,25091460.732,0.080,-131856506.599166,0.069,-3790.606,43.1,1378.930,18009c04,31,0,24375790.680,0.064,-128095653.847041,0.091,3115.473,44.9,694.210,18009c24,18,0,20685688.939,0.038,-108704030.485520,0.076,-1435.082,49.4,1383.050,08009c44,32,0,22305778.892,0.039,-117217661.712607,0.063,2254.165,49.3,1352.460,18009c84,24,0,21936881.633,0.044,-115279094.476289,0.081,-2616.403,48.3,1373.500,18009ca4,15,0,24200611.445,0.053,-127175072.204860,0.062,-2758.498,46.7,1383.350,18009ce4,14,0,23854566.053,0.063,-125356593.709275,0.092,2476.678,45.1,1323.920,18009d04,10,0,20477544.359,0.032,-107610225.084224,0.078,413.364,51.1,1389.750,18009d24,25,0,21754439.785,0.044,-114320358.205485,0.081,2862.085,48.3,1362.920,18009d44,12,0,20959249.159,0.032,-110141604.327224,0.081,585.538,51.0,1392.650,18009d64*b1fca9dd
#SATXYZ2A,COM1_1,0,70.0,FINESTEERING,1979,286764.000,00000000,7513,12778;10,GPS,20,-21101068.9060,9828274.2509,-12910406.7674,148522.722,10.007,23.279,0.0,0.0,GPS,31,7380124.6051,25093709.3469,-2983081.5056,46719.296,9.339,13.184,0.0,0.0,GPS,18,-13790976.9608,21788639.2177,6563597.7642,189909.828,3.460,2.775,0.0,0.0,GPS,32,5065455.7661,16346574.4155,20349653.2324,-158739.452,4.539,3.856,0.0,0.0,GPS,24,-15863455.8875,435537.6480,21225011.8523,-13015.034,4.133,3.698,0.0,0.0,GPS,15,-26298589.7612,-2308280.2578,4227289.2290,-107146.041,6.449,7.801,0.0,0.0,GPS,14,12236287.5321,17064355.9819,16641495.8722,-27123.787,6.528,6.624,0.0,0.0,GPS,10,-5820214.6612,20671610.5847,15560511.1371,38532.646,3.232,2.608,0.0,0.0,GPS,25,-19607755.4115,17696803.7397,942308.0026,-151376.368,4.277,3.481,0.0,0.0,GPS,12,-21979619.1235,7975239.0606,12241158.6902,108112.209,3.619,3.049,0.0,0.0*0c6ff3fe
#BESTPOSA,COM1_1,0,70.0,FINESTEERING,1979,286764.000,00000000,7145,12778;SOL_COMPUTED,SINGLE,36.76914626863,126.93478717925,95.1375,23.3000,WGS84,0.6637,0.5419,1.0269,"",0.000,0.000,10,9,9,9,0,12,00,01*93af6b6b
#RANGEA,COM1_1,0,69.5,FINESTEERING,1979,286765.000,00000000,5103,12778;10,20,0,25092181.365,0.078,-131860293.519620,0.052,-3785.076,43.2,1379.930,18009c04,31,0,24375197.144,0.064,-128092534.803449,0.063,3121.140,45.0,695.210,18009c24,18,0,20685961.267,0.039,-108705461.624871,0.055,-1429.571,49.4,1384.050,08009c44,32,0,22305349.205,0.039,-117215403.691094,0.049,2260.100,49.3,1353.460,18009c84,24,0,21937378.825,0.044,-115281707.175214,0.058,-2610.441,48.3,1374.500,18009ca4,15,0,24201135.704,0.054,-127177827.155600,0.094,-2752.946,46.6,1384.350,18009ce4,14,0,23854093.919,0.064,-125354112.697005,0.063,2482.987,45.0,1324.920,18009d04,10,0,20477464.975,0.032,-107609807.899922,0.056,418.784,51.1,1390.750,18009d24,25,0,21753894.468,0.044,-114317492.586564,0.058,2867.605,48.2,1363.920,18009d44,12,0,20959136.990,0.032,-110141014.881892,0.058,591.114,50.9,1393.650,18009d64*728f7260
#SATXYZ2A,COM1_1,0,69.5,FINESTEERING,1979,286765.000,00000000,7513,12778;10,GPS,20,-21100248.0244,9826838.5979,-12912873.6175,148522.722,10.009,23.302,0.0,0.0,GPS,31,7379909.5983,25094153.0039,-2979898.8353,46719.294,9.337,13.178,0.0,0.0,GPS,18,-13791778.1718,21788936.7872,6560641.4710,189909.828,3.460,2.776,0.0,0.0,GPS,32,5062949.0678,16345961.5264,20350764.1789,-158739.453,4.538,3.855,0.0,0.0,GPS,24,-15864161.0727,432908.5669,21224568.0939,-13015.035,4.133,3.698,0.0,0.0,GPS,15,-26299064.3305,-2308732.9188,4224272.8755,-107146.041,6.449,7.803,0.0,0.0,GPS,14,12234308.5433,17063780.9198,16643559.0202,-27123.787,6.527,6.622,0.0,0.0,GPS,10,-5821784.9639,20672829.7584,15558286.5792,38532.648,3.232,2.608,0.0,0.0,GPS,25,-19607829.4546,17696522.7354,945527.9642,-151376.371,4.276,3.480,0.0,0.0,GPS,12,-21978525.2545,7974078.5762,12243860.7159,108112.208,3.619,3.049,0.0,0.0*eb705062
#BESTPOSA,COM1_1,0,69.5,FINESTEERING,1979,286765.000,00000000,7145,12778;SOL_COMPUTED,SINGLE,36.76914625808,126.93478718548,95.1458,23.3000,WGS84,0.6625,0.5407,1.0253,"",0.000,0.000,10,9,9,9,0,12,00,01*ddc58879
#RANGEA,COM1_1,0,69.0,FINESTEERING,1979,286766.000,00000000,5103,12778;10,20,0,25092901.814,0.079,-131864079.508052,0.089,-3786.863,43.1,1380.930,18009c04,31,0,24374603.471,0.064,-128089415.039225,0.111,3119.337,45.0,696.210,18009c24,18,0,20686233.532,0.038,-108706892.405156,0.048,-1431.729,49.4,1385.050,08009c44,32,0,22304919.370,0.039,-117213144.887071,0.046,2258.086,49.4,1354.460,18009c84,24,0,21937875.874,0.044,-115284319.129687,0.103,-2612.627,48.3,1375.500,18009ca4,15,0,24201659.809,0.054,-127180581.320313,0.090,-2754.917,46.6,1385.350,18009ce4,14,0,23853621.621,0.064,-125351630.803302,0.105,2481.232,45.0,1325.920,18009d04,10,0,20477385.541,0.032,-107609390.464520,0.085,416.442,51.0,1391.750,18009d24,25,0,21753349.076,0.044,-114314626.522952,0.085,2865.178,48.3,1364.920,18009d44,12,0,20959024.784,0.032,-110140425.255429,0.086,588.448,51.0,1394.650,18009d64*0d795c19
#SATXYZ2A,COM1_1,0,69.0,FINESTEERING,1979,286766.000,00000000,7513,12778;10,GPS,20,-21099427.0185,9825402.6698,-12915340.1947,148522.723,10.010,23.325,0.0,0.0,GPS,31,7379694.5342,25094596.2774,-2976716.0998,46719.292,9.335,13.171,0.0,0.0,GPS,18,-13792579.1209,21789234.1285,6557685.0390,189909.828,3.460,2.776,0.0,0.0,GPS,32,5060442.1997,16345348.7433,20351874.6939,-158739.453,4.538,3.855,0.0,0.0,GPS,24,-15864866.3861,430279.5816,21224123.8810,-13015.035,4.134,3.699,0.0,0.0,GPS,15,-26299538.5571,-2309185.4746,4221256.4339,-107146.040,6.449,7.805,0.0,0.0,GPS,14,12232329.2821,17063205.8834,16645621.8232,-27123.786,6.526,6.621,0.0,0.0,GPS,10,-5823354.9953,20674048.8292,15556061.6889,38532.650,3.232,2.608,0.0,0.0,GPS,25,-19607903.2197,17696241.4540,948747.9054,-151376.373,4.276,3.480,0.0,0.0,GPS,12,-21977431.1950,7972917.8018,12246562.4761,108112.207,3.618,3.048,0.0,0.0*a08f1327
#BESTPOSA,COM1_1,0,69.0,FINESTEERING,1979,286766.000,00000000,7145,12778;SOL_COMPUTED,SINGLE,36.76914625808,126.93478718548,95.1458,23.3000,WGS84,0.6625,0.5407,1.0253,"",0.000,0.000,10,9,9,9,0,12,00,01*e1bb43ac
#RANGEA,COM1_1,0,69.0,FINESTEERING,1979,286767.000,00000000,5103,12778;10,20,0,25093622.337,0.079,-131867865.909678,0.062,-3789.859,43.2,1381.930,18009c04,31,0,24374009.930,0.063,-128086295.947945,0.100,3115.534,45.1,697.210,18009c24,18,0,20686505.981,0.038,-108708324.168244,0.041,-1435.435,49.5,1386.050,08009c44,32,0,22304489.642,0.039,-117210886.648396,0.095,2254.680,49.3,1355.460,18009c84,24,0,21938373.046,0.044,-115286931.718940,0.098,-2616.106,48.3,1376.500,18009ca4,15,0,24202184.020,0.052,-127183336.042239,0.062,-2758.249,46.8,1386.350,18009ce4,14,0,23853149.414,0.064,-125349149.342698,0.069,2478.052,45.0,1326.920,18009d04,10,0,20477306.312,0.032,-107608974.121184,0.102,412.632,51.1,1392.750,18009d24,25,0,21752803.847,0.044,-114311761.347766,0.095,2861.477,48.3,1365.920,18009d44,12,0,20958912.797,0.032,-110139836.777652,0.095,584.575,50.9,1395.650,18009d64*5b0d5357
#SATXYZ2A,COM1_1,0,69.0,FINESTEERING,1979,286767.000,00000000,7513,12778;10,GPS,20,-21098605.8882,9823966.4666,-12917806.4988,148522.723,10.012,23.349,0.0,0.0,GPS,31,7379479.4128,25095039.1674,-2973533.2992,46719.290,9.334,13.164,0.0,0.0,GPS,18,-13793379.8081,21789531.2413,6554728.4682,189909.828,3.460,2.776,0.0,0.0,GPS,32,5057935.1618,16344736.0661,20352984.7774,-158739.454,4.537,3.854,0.0,0.0,GPS,24,-15865571.8275,427650.6922,21223679.2137,-13015.035,4.134,3.699,0.0,0.0,GPS,15,-26300012.4409,-2309637.9254,4218239.9042,-107146.039,6.450,7.807,0.0,0.0,GPS,14,12230349.7487,17062630.8729,16647684.2813,-27123.785,6.525,6.619,0.0,0.0,GPS,10,-5824924.7555,20675267.7972,15553836.4660,38532.652,3.232,2.608,0.0,0.0,GPS,25,-19607976.7067,17695959.8952,951967.8262,-151376.376,4.275,3.479,0.0,0.0,GPS,12,-21976336.9452,7971756.7373,12249263.9706,108112.205,3.618,3.048,0.0,0.0*1e4ae227
#BESTPOSA,COM1_1,0,69.0,FINESTEERING,1979,286767.000,00000000,7145,12778;SOL_COMPUTED,SINGLE,36.76914624690,126.93478719109,95.1542,23.3000,WGS84,0.6612,0.5395,1.0237,"",0.000,0.000,10,10,10,10,0,12,00,01*b9829913
#RANGEA,COM1_1,0,69.5,FINESTEERING,1979,286768.000,00000000,5103,12778;10,20,0,25094343.656,0.079,-131871656.460631,0.051,-3789.102,43.1,1382.930,18009c04,31,0,24373417.210,0.062,-128083181.218579,0.070,3115.832,45.3,698.210,18009c24,18,0,20686779.338,0.038,-108709760.675752,0.043,-1435.893,49.4,1387.050,08009c44,32,0,22304060.736,0.039,-117208632.703957,0.068,2254.778,49.3,1356.460,18009c84,24,0,21938871.039,0.044,-115289548.651385,0.069,-2616.277,48.3,1377.500,18009ca4,15,0,24202709.047,0.053,-127186095.080899,0.076,-2757.693,46.7,1387.350,18009ce4,14,0,23852677.995,0.064,-125346672.079167,0.073,2477.907,44.9,1327.920,18009d04,10,0,20477228.005,0.032,-107608562.610637,0.070,411.915,51.0,1393.750,18009d24,25,0,21752259.504,0.044,-114308900.791171,0.067,2861.307,48.3,1366.920,18009d44,12,0,20958801.742,0.032,-110139253.188825,0.067,583.900,51.0,1396.650,18009d64*16cefc08
#SATXYZ2A,COM1_1,0,69.5,FINESTEERING,1979,286768.000,00000000,7513,12778;10,GPS,20,-21097784.6338,9822529.9882,-12920272.5299,148522.724,10.013,23.372,0.0,0.0,GPS,31,7379264.2340,25095481.6740,-2970350.4337,46719.289,9.332,13.157,0.0,0.0,GPS,18,-13794180.2335,21789828.1257,6551771.7587,189909.829,3.460,2.776,0.0,0.0,GPS,32,5055427.9543,16344123.4950,20354094.4292,-158739.454,4.536,3.854,0.0,0.0,GPS,24,-15866277.3970,425021.8989,21223234.0918,-13015.036,4.134,3.700,0.0,0.0,GPS,15,-26300485.9820,-2310090.2713,4215223.2865,-107146.039,6.450,7.809,0.0,0.0,GPS,14,12228369.9430,17062055.8883,16649746.3943,-27123.785,6.524,6.618,0.0,0.0,GPS,10,-5826494.2444,20676486.6622,15551610.9107,38532.653,3.232,2.608,0.0,0.0,GPS,25,-19608049.9157,17695678.0591,955187.7263,-151376.378,4.274,3.479,0.0,0.0,GPS,12,-21975242.5051,7970595.3828,12251965.1996,108112.204,3.618,3.048,0.0,0.0*3b291747
#BESTPOSA,COM1_1,0,69.5,FINESTEERING,1979,286768.000,00000000,7145,12778;SOL_COMPUTED,SINGLE,36.76914624690,126.93478719109,95.1542,23.3000,WGS84,0.6612,0.5396,1.0237,"",0.000,0.000,10,9,9,9,0,12,00,01*f424d559
#RANGEA,COM1_1,0,69.5,FINESTEERING,1979,286769.000,00000000,5103,12778;10,20,0,25095064.706,0.079,-131875445.601029,0.039,-3790.900,43.1,1383.930,18009c04,31,0,24372824.270,0.062,-128080065.269002,0.049,3114.063,45.3,699.210,18009c24,18,0,20687052.524,0.038,-108711196.294190,0.036,-1437.509,49.5,1388.050,08009c44,32,0,22303631.578,0.039,-117206377.447448,0.047,2253.412,49.3,1357.460,18009c84,24,0,21939368.795,0.044,-115292164.321833,0.048,-2617.590,48.2,1378.500,18009ca4,15,0,24203233.842,0.053,-127188852.841670,0.053,-2759.759,46.6,1388.350,18009ce4,14,0,23852206.295,0.065,-125344193.375811,0.050,2477.168,44.9,1328.920,18009d04,10,0,20477149.555,0.032,-107608150.331044,0.049,410.281,51.0,1394.750,18009d24,25,0,21751714.979,0.044,-114306039.268636,0.047,2859.588,48.2,1367.920,18009d44,12,0,20958690.556,0.032,-110138668.899323,0.047,582.342,51.0,1397.650,18009d64*e19194b0
#SATXYZ2A,COM1_1,0,69.5,FINESTEERING,1979,286769.000,00000000,7513,12778;10,GPS,20,-21096963.2551,9821093.2346,-12922738.2879,148522.725,10.014,23.396,0.0,0.0,GPS,31,7379048.9976,25095923.7971,-2967167.5033,46719.287,9.330,13.150,0.0,0.0,GPS,18,-13794980.3971,21790124.7816,6548814.9105,189909.829,3.461,2.777,0.0,0.0,GPS,32,5052920.5771,16343511.0300,20355203.6494,-158739.455,4.536,3.853,0.0,0.0,GPS,24,-15866983.0946,422393.2016,21222788.5154,-13015.036,4.134,3.700,0.0,0.0,GPS,15,-26300959.1804,-2310542.5122,4212206.5809,-107146.038,6.451,7.811,0.0,0.0,GPS,14,12226389.8650,17061480.9295,16651808.1622,-27123.784,6.523,6.616,0.0,0.0,GPS,10,-5828063.4621,20677705.4242,15549385.0231,38532.655,3.232,2.608,0.0,0.0,GPS,25,-19608122.8466,17695395.9457,958407.6058,-151376.380,4.274,3.478,0.0,0.0,GPS,12,-21974147.8748,7969433.7382,12254666.1628,108112.203,3.618,3.048,0.0,0.0*d38a8fb7
#BESTPOSA,COM1_1,0,69.5,FINESTEERING,1979,286769.000,00000000,7145,12778;SOL_COMPUTED,SINGLE,36.76914624690,126.93478719109,95.1542,23.3000,WGS84,0.6612,0.5396,1.0237,"",0.000,0.000,10,9,9,9,0,12,00,01*ff43fcdd
