#RANGEA,USB3_1,0,87.0,FINESTEERING,1996,45284.000,00000000,5103,14392;20,1,0,22939758.313,0.066,-120549247.126398,0.009,-2810.878,44.7,4539.040,18109c04,1,0,22939759.082,0.186,-93934480.704969,0.010,-2190.295,41.0,4500.280,11303c0b,23,0,24698649.749,0.105,-129792341.527642,0.016,2227.318,40.7,1157.030,18109c24,23,0,24698645.253,0.374,-101136834.848149,0.024,1735.575,34.9,1153.800,11303c2b,3,0,21143646.818,0.040,-111110618.941491,0.007,-1214.866,49.2,4539.880,18109c44,3,0,21143645.644,0.118,-86579706.969816,0.008,-946.648,44.9,4501.260,11303c4b,6,0,22367685.762,0.048,-117543009.490893,0.007,2137.094,47.5,4477.994,08109c84,6,0,22367685.961,0.160,-91591978.025781,0.008,1665.269,42.3,4469.780,01303c8b,17,0,21316165.153,0.035,-112017220.479643,0.005,1616.578,50.1,4533.996,08109ce4,17,0,21316162.011,0.135,-87286143.134466,0.006,1259.671,43.7,4500.240,01303ceb,22,0,22914188.367,0.059,-120414882.060215,0.008,-2494.424,45.7,4537.760,18109d04,22,0,22914182.569,0.199,-93829760.049526,0.010,-1943.709,40.4,4501.220,11303d0b,18,0,24945568.861,0.136,-131089854.845129,0.023,-3236.943,38.5,874.550,18109d24,18,0,24945567.220,0.760,-102147927.898542,0.040,-2522.293,28.8,874.320,11303d2b,11,0,23305147.471,0.077,-122469382.384961,0.010,-2827.657,43.3,4543.160,18109d44,11,0,23305143.342,0.400,-95430672.596560,0.017,-2203.371,34.3,4501.160,11303d4b,28,0,20915797.369,0.040,-109913258.275259,0.006,-1695.998,49.2,4537.990,08109da4,28,0,20915793.693,0.151,-85646685.656747,0.007,-1321.558,42.8,4501.140,01303dab,19,0,21873384.162,0.051,-114945444.443030,0.008,2341.675,47.0,4524.620,18109de4,19,0,21873380.107,0.162,-89567870.664463,0.009,1824.682,42.2,4501.120,11303deb*46fb4a5f
#BESTXYZA,USB3_1,0,87.0,FINESTEERING,1996,45284.000,00000000,fac1,14392;SOL_COMPUTED,SINGLE,-3073914.1311,4088897.9456,3796974.0020,2.7999,2.4120,2.3250,SOL_COMPUTED,DOPPLER_VELOCITY,-0.0195,0.0048,0.0114,0.3347,0.2883,0.2779,"",0.000,0.000,0.000,10,10,10,10,0,06,00,03*097503c4
#SATXYZ2A,USB3_1,0,87.0,FINESTEERING,1996,45284.000,00000000,7513,14392;10,GPS,1,-17238809.2660,-4483132.3006,19657839.6802,-11797.347,-2.160,5.113,0.0,0.0,GPS,23,-26663953.3699,457896.5498,-2295873.0246,-65387.198,-1.535,10.852,0.0,0.0,GPS,3,-18711613.1668,5548826.5235,17973400.7642,13866.397,-2.331,3.030,0.0,0.0,GPS,6,4985053.4478,24294463.2227,9507614.8815,122837.323,-1.675,4.381,0.0,0.0,GPS,17,-3435133.2205,14590243.2441,22305916.1090,-32605.716,-2.296,2.877,0.0,0.0,GPS,22,-16492514.2447,-2910031.6654,20861762.0316,-105171.896,-2.217,4.523,0.0,0.0,GPS,18,-18462225.6567,-12729323.1874,13923220.7594,-1735.716,-1.005,20.380,0.0,0.0,GPS,11,-22195018.3253,-4945029.4964,13051387.7355,-221103.185,-2.028,6.201,0.0,0.0,GPS,28,-13181476.7572,22562736.0944,5500995.6224,211188.663,-1.709,2.901,0.0,0.0,GPS,19,3937600.9197,15026053.8577,21228024.1382,-133453.765,-1.587,3.755,0.0,0.0*97f4bc8b
#RANGEA,USB3_1,0,85.5,FINESTEERING,1996,45285.000,00000000,5103,14392;20,1,0,22940293.245,0.066,-120552058.137797,0.009,-2811.098,44.7,4540.040,18109c04,1,0,22940293.983,0.164,-93936671.100950,0.011,-2190.467,42.0,4501.280,11303c0b,23,0,24698225.910,0.102,-129790114.253249,0.015,2227.305,40.9,1158.030,18109c24,23,0,24698221.437,0.423,-101135099.314253,0.023,1735.564,33.9,1154.800,11303c2b,3,0,21143878.056,0.039,-111111834.142241,0.006,-1215.572,49.3,4540.880,18109c44,3,0,21143876.884,0.108,-86580653.880601,0.008,-947.199,45.7,4502.260,11303c4b,6,0,22367279.094,0.047,-117540872.412716,0.007,2136.944,47.6,4478.994,08109c84,6,0,22367279.283,0.135,-91590312.771976,0.008,1665.151,43.7,4470.780,01303c8b,17,0,21315857.532,0.035,-112015603.964550,0.005,1616.476,50.2,4534.996,08109ce4,17,0,21315854.403,0.129,-87284883.513287,0.006,1259.592,44.2,4501.240,01303ceb,22,0,22914663.063,0.059,-120417376.583472,0.008,-2494.638,45.8,4538.760,18109d04,22,0,22914657.266,0.189,-93831703.827019,0.010,-1943.876,40.8,4502.220,11303d0b,18,0,24946184.813,0.134,-131093091.778593,0.023,-3237.049,38.6,875.550,18109d24,18,0,24946183.143,0.483,-102150450.177424,0.039,-2522.376,32.7,875.320,11303d2b,11,0,23305685.606,0.077,-122472210.271252,0.010,-2828.022,43.4,4544.160,18109d44,11,0,23305681.488,0.366,-95432876.134802,0.017,-2203.655,35.1,4502.160,11303d4b,28,0,20916120.175,0.039,-109914954.574929,0.005,-1696.562,49.3,4538.990,08109da4,28,0,20916116.491,0.140,-85648007.446484,0.006,-1321.997,43.4,4502.140,01303dab,19,0,21872938.565,0.051,-114943102.898411,0.008,2341.520,47.0,4525.620,18109de4,19,0,21872934.521,0.155,-89566046.087538,0.009,1824.562,42.6,4502.120,11303deb*7037d43b
#BESTXYZA,USB3_1,0,85.5,FINESTEERING,1996,45285.000,00000000,fac1,14392;SOL_COMPUTED,SINGLE,-3073914.1178,4088897.9365,3796974.0021,2.8002,2.4119,2.3252,SOL_COMPUTED,DOPPLER_VELOCITY,-0.0148,0.0293,0.0037,0.3347,0.2883,0.2779,"",0.000,0.000,0.000,10,10,10,10,0,06,00,03*cf8f92c6
#SATXYZ2A,USB3_1,0,85.5,FINESTEERING,1996,45285.000,00000000,7513,14392;10,GPS,1,-17239837.1997,-4485429.1320,19656453.3223,-11797.348,-2.160,5.114,0.0,0.0,GPS,23,-26664261.2328,457583.7341,-2292780.2638,-65387.197,-1.536,10.849,0.0,0.0,GPS,3,-18710488.6020,5546827.4984,17975191.9200,13866.399,-2.332,3.030,0.0,0.0,GPS,6,4984307.1115,24293493.7297,9510495.9065,122837.322,-1.677,4.381,0.0,0.0,GPS,17,-3437848.8835,14589929.2635,22305687.3177,-32605.714,-2.297,2.877,0.0,0.0,GPS,22,-16491276.6820,-2912328.4361,20862427.4289,-105171.899,-2.217,4.524,0.0,0.0,GPS,18,-18462903.7498,-12731051.0943,13920837.3017,-1735.715,-1.001,20.395,0.0,0.0,GPS,11,-22196144.3543,-4946445.6422,13049020.5687,-221103.187,-2.026,6.202,0.0,0.0,GPS,28,-13182001.7700,22563106.2849,5497867.1446,211188.664,-1.710,2.901,0.0,0.0,GPS,19,3934863.1588,15025690.8668,21228797.1735,-133453.765,-1.587,3.754,0.0,0.0*fd75b97c
#RANGEA,USB3_1,0,85.5,FINESTEERING,1996,45286.000,00000000,5103,14392;20,1,0,22940828.153,0.065,-120554869.079197,0.008,-2811.179,44.8,4541.040,18109c04,1,0,22940828.863,0.155,-93938861.440075,0.010,-2190.531,42.6,4502.280,11303c0b,23,0,24697802.085,0.103,-129787886.986618,0.015,2226.720,40.9,1159.030,18109c24,23,0,24697797.625,0.484,-101133363.780400,0.024,1735.110,32.7,1155.800,11303c2b,3,0,21144109.387,0.039,-111113049.842619,0.006,-1216.208,49.3,4541.880,18109c44,3,0,21144108.216,0.106,-86581601.177314,0.007,-947.695,45.9,4503.260,11303c4b,6,0,22366872.451,0.048,-117538735.463795,0.007,2136.573,47.5,4479.994,08109c84,6,0,22366872.625,0.136,-91588647.614818,0.008,1664.862,43.7,4471.780,01303c8b,17,0,21315549.931,0.035,-112013987.546172,0.005,1616.065,50.2,4535.996,08109ce4,17,0,21315546.811,0.120,-87283623.965703,0.006,1259.271,44.8,4502.240,01303ceb,22,0,22915137.815,0.057,-120419871.386658,0.008,-2495.124,46.0,4539.760,18109d04,22,0,22915131.992,0.179,-93833647.831391,0.010,-1944.253,41.3,4503.220,11303d0b,18,0,24946800.759,0.132,-131096328.527930,0.022,-3237.016,38.7,876.550,18109d24,18,0,24946799.155,0.387,-102152972.321755,0.038,-2522.351,34.6,876.320,11303d2b,11,0,23306223.735,0.074,-122475038.149182,0.010,-2828.123,43.8,4545.160,18109d44,11,0,23306219.626,0.387,-95435079.673786,0.017,-2203.734,34.6,4503.160,11303d4b,28,0,20916443.066,0.040,-109916651.311505,0.005,-1697.232,49.2,4539.990,08109da4,28,0,20916439.370,0.140,-85649329.576434,0.006,-1322.519,43.4,4503.140,01303dab,19,0,21872493.008,0.050,-114940761.442723,0.007,2341.018,47.1,4526.620,18109de4,19,0,21872488.944,0.148,-89564221.577790,0.008,1824.171,43.0,4503.120,11303deb*f348ea13
#BESTXYZA,USB3_1,0,85.5,FINESTEERING,1996,45286.000,00000000,fac1,14392;SOL_COMPUTED,SINGLE,-3073914.1339,4088897.9474,3796974.0194,2.8006,2.4118,2.3254,SOL_COMPUTED,DOPPLER_VELOCITY,-0.0253,0.0155,0.0436,0.3347,0.2883,0.2779,"",0.000,0.000,0.000,10,10,10,10,0,06,00,03*2537a614
#SATXYZ2A,USB3_1,0,85.5,FINESTEERING,1996,45286.000,00000000,7513,14392;10,GPS,1,-17240865.1921,-4487725.7416,19655066.5446,-11797.349,-2.159,5.115,0.0,0.0,GPS,23,-26664568.7289,457270.9562,-2289687.4554,-65387.196,-1.538,10.845,0.0,0.0,GPS,3,-18709364.0291,5544828.2205,17976982.6922,13866.402,-2.332,3.030,0.0,0.0,GPS,6,4983560.5542,24292523.9579,9513376.7293,122837.322,-1.677,4.380,0.0,0.0,GPS,17,-3440564.5400,14589615.4570,22305458.0683,-32605.712,-2.297,2.877,0.0,0.0,GPS,22,-16490039.1987,-2914625.3422,20863092.3919,-105171.902,-2.214,4.525,0.0,0.0,GPS,18,-18463581.7928,-12732778.6941,13918453.5423,-1735.714,-0.998,20.409,0.0,0.0,GPS,11,-22197270.2171,-4947861.5407,13046653.1131,-221103.188,-2.022,6.204,0.0,0.0,GPS,28,-13182526.5230,22563476.1996,5494738.5517,211188.666,-1.709,2.902,0.0,0.0,GPS,19,3932125.2798,15025328.0261,21229569.7439,-133453.765,-1.588,3.754,0.0,0.0*ebfb38f4
#RANGEA,USB3_1,0,86.0,FINESTEERING,1996,45287.000,00000000,5103,14392;20,1,0,22941363.100,0.065,-120557680.199553,0.009,-2811.270,44.8,4542.040,18109c04,1,0,22941363.795,0.197,-93941051.922223,0.010,-2190.602,40.5,4503.280,11303c0b,23,0,24697378.272,0.105,-129785659.923836,0.014,2226.919,40.8,1160.030,18109c24,23,0,24697373.842,0.389,-101131628.416518,0.023,1735.265,34.6,1156.800,11303c2b,3,0,21144340.858,0.040,-111114266.278517,0.007,-1216.826,49.1,4542.880,18109c44,3,0,21144339.691,0.128,-86582549.047332,0.007,-948.177,44.2,4504.260,11303c4b,6,0,22366465.869,0.048,-117536598.882285,0.007,2136.419,47.6,4480.994,08109c84,6,0,22366466.030,0.160,-91586982.744236,0.008,1664.742,42.3,4472.780,01303c8b,17,0,21315242.387,0.035,-112012371.427975,0.004,1615.935,50.2,4536.996,08109ce4,17,0,21315239.278,0.139,-87282364.650535,0.005,1259.170,43.5,4503.240,01303ceb,22,0,22915612.652,0.058,-120422366.683144,0.008,-2495.489,45.9,4540.760,18109d04,22,0,22915606.841,0.233,-93835592.219941,0.010,-1944.538,39.0,4504.220,11303d0b,18,0,24947416.703,0.130,-131099565.347559,0.026,-3236.872,38.8,877.550,18109d24,18,0,24947415.198,1.378,-102155494.513502,0.037,-2522.239,30.3,877.320,11303d2b,11,0,23306761.908,0.074,-122477866.256308,0.011,-2828.185,43.7,4546.160,18109d44,11,0,23306757.818,0.355,-95437283.397686,0.017,-2203.780,35.3,4504.160,11303d4b,28,0,20916766.082,0.040,-109918348.702067,0.005,-1697.685,49.1,4540.990,08109da4,28,0,20916762.385,0.158,-85650652.218975,0.006,-1322.872,42.4,4504.140,01303dab,19,0,21872047.497,0.050,-114938420.258877,0.007,2341.024,47.2,4527.620,18109de4,19,0,21872043.426,0.165,-89562397.282006,0.008,1824.176,42.0,4504.120,11303deb*493d8185
#BESTXYZA,USB3_1,0,86.0,FINESTEERING,1996,45287.000,00000000,fac1,14392;SOL_COMPUTED,SINGLE,-3073914.1407,4088897.9545,3796974.0099,2.8009,2.4116,2.3257,SOL_COMPUTED,DOPPLER_VELOCITY,-0.0052,0.0095,-0.0022,0.3348,0.2882,0.2780,"",0.000,0.000,0.000,10,10,10,10,0,06,00,03*3df569bd
#SATXYZ2A,USB3_1,0,86.0,FINESTEERING,1996,45287.000,00000000,7513,14392;10,GPS,1,-17241893.2430,-4490022.1294,19653679.3472,-11797.350,-2.158,5.116,0.0,0.0,GPS,23,-26664875.8580,456958.2160,-2286594.5994,-65387.195,-1.537,10.841,0.0,0.0,GPS,3,-18708239.4480,5542828.6897,17978773.0807,13866.404,-2.332,3.030,0.0,0.0,GPS,6,4982813.7760,24291553.9074,9516257.3496,122837.321,-1.677,4.380,0.0,0.0,GPS,17,-3443280.1900,14589301.8246,22305228.3609,-32605.709,-2.297,2.877,0.0,0.0,GPS,22,-16488801.7948,-2916922.3836,20863756.9205,-105171.905,-2.215,4.525,0.0,0.0,GPS,18,-18464259.7859,-12734505.9867,13916069.4812,-1735.713,-0.999,20.424,0.0,0.0,GPS,11,-22198395.9134,-4949277.1918,13044285.3690,-221103.189,-2.022,6.205,0.0,0.0,GPS,28,-13183051.0161,22563845.8384,5491609.8437,211188.667,-1.708,2.902,0.0,0.0,GPS,19,3929387.2826,15024965.3356,21230341.8493,-133453.766,-1.588,3.753,0.0,0.0*31d28cc8
#RANGEA,USB3_1,0,86.0,FINESTEERING,1996,45288.000,00000000,5103,14392;20,1,0,22941898.042,0.065,-120560491.322293,0.009,-2811.243,44.8,4543.040,18109c04,1,0,22941898.736,0.203,-93943242.407566,0.010,-2190.580,40.2,4504.280,11303c0b,23,0,24696954.485,0.110,-129783432.902239,0.015,2227.172,40.3,1161.030,18109c24,23,0,24696950.134,0.485,-101129893.060158,0.025,1735.458,32.6,1157.800,11303c2b,3,0,21144572.432,0.040,-111115483.267392,0.006,-1217.283,49.1,4543.880,18109c44,3,0,21144571.277,0.128,-86583497.351166,0.007,-948.533,44.2,4505.260,11303c4b,6,0,22366059.332,0.049,-117534462.491728,0.007,2136.365,47.4,4481.994,08109c84,6,0,22366059.473,0.161,-91585318.026063,0.008,1664.701,42.2,4473.780,01303c8b,17,0,21314934.872,0.035,-112010755.442458,0.004,1615.885,50.2,4537.996,08109ce4,17,0,21314931.774,0.144,-87281105.441911,0.005,1259.131,43.2,4504.240,01303ceb,22,0,22916087.562,0.058,-120424862.289170,0.007,-2495.713,45.8,4541.760,18109d04,22,0,22916081.748,0.262,-93837536.848634,0.010,-1944.712,38.0,4505.220,11303d0b,18,0,24948032.616,0.136,-131102802.072730,0.026,-3236.954,38.4,878.550,18109d24,18,0,24948031.159,0.684,-102158016.638190,0.039,-2522.303,29.7,878.320,11303d2b,11,0,23307300.105,0.076,-122480694.429053,0.011,-2828.286,43.5,4547.160,18109d44,11,0,23307296.002,0.439,-95439487.170938,0.017,-2203.862,33.5,4505.160,11303d4b,28,0,20917089.181,0.040,-109920046.572934,0.006,-1698.058,49.0,4541.990,08109da4,28,0,20917085.484,0.160,-85651975.235268,0.007,-1323.163,42.3,4505.140,01303dab,19,0,21871602.008,0.049,-114936079.199097,0.007,2341.021,47.2,4528.620,18109de4,19,0,21871597.935,0.177,-89560573.078218,0.008,1824.173,41.4,4505.120,11303deb*27aca110
#BESTXYZA,USB3_1,0,86.0,FINESTEERING,1996,45288.000,00000000,fac1,14392;SOL_COMPUTED,SINGLE,-3073914.1407,4088897.9534,3796974.0134,2.8014,2.4118,2.3261,SOL_COMPUTED,DOPPLER_VELOCITY,-0.0390,0.0589,-0.0147,0.3348,0.2883,0.2780,"",0.000,0.000,0.000,10,10,10,10,0,06,00,03*31af729c
#SATXYZ2A,USB3_1,0,86.0,FINESTEERING,1996,45288.000,00000000,7513,14392;10,GPS,1,-17242921.3524,-4492318.2952,19652291.7302,-11797.351,-2.157,5.117,0.0,0.0,GPS,23,-26665182.6203,456645.5136,-2283501.6958,-65387.194,-1.541,10.838,0.0,0.0,GPS,3,-18707114.8588,5540828.9060,17980563.0855,13866.406,-2.331,3.031,0.0,0.0,GPS,6,4982066.7767,24290583.5782,9519137.7674,122837.321,-1.679,4.379,0.0,0.0,GPS,17,-3445995.8332,14588988.3663,22304998.1954,-32605.707,-2.296,2.877,0.0,0.0,GPS,22,-16487564.4704,-2919219.5602,20864421.0148,-105171.909,-2.215,4.526,0.0,0.0,GPS,18,-18464937.7288,-12736232.9722,13913685.1184,-1735.712,-0.997,20.438,0.0,0.0,GPS,11,-22199521.4434,-4950692.5956,13041917.3364,-221103.191,-2.023,6.206,0.0,0.0,GPS,28,-13183575.2496,22564215.2013,5488481.0207,211188.669,-1.708,2.902,0.0,0.0,GPS,19,3926649.1674,15024602.7954,21231113.4899,-133453.766,-1.590,3.753,0.0,0.0*97e4837a
#RANGEA,USB3_1,0,86.0,FINESTEERING,1996,45289.000,00000000,5103,14392;20,1,0,22942432.986,0.064,-120563302.481524,0.009,-2811.307,44.9,4544.040,18109c04,1,0,22942433.677,0.192,-93945432.919488,0.010,-2190.629,40.7,4505.280,11303c0b,23,0,24696530.700,0.110,-129781206.018790,0.014,2226.801,40.3,1162.030,18109c24,23,0,24696526.371,0.472,-101128157.804079,0.025,1735.164,32.9,1158.800,11303c2b,3,0,21144804.127,0.040,-111116700.870324,0.006,-1217.991,49.1,4544.880,18109c44,3,0,21144802.969,0.133,-86584446.131426,0.007,-949.084,43.9,4506.260,11303c4b,6,0,22365652.840,0.049,-117532326.341990,0.006,2136.014,47.4,4482.994,08109c84,6,0,22365652.957,0.165,-91583653.494924,0.008,1664.427,42.0,4474.780,01303c8b,17,0,21314627.391,0.035,-112009139.636292,0.005,1615.819,50.3,4538.996,08109ce4,17,0,21314624.295,0.146,-87279846.372874,0.005,1259.080,43.1,4505.240,01303ceb,22,0,22916562.533,0.058,-120427358.274052,0.008,-2496.320,45.9,4542.760,18109d04,22,0,22916556.728,0.217,-93839481.773162,0.010,-1945.184,39.7,4506.220,11303d0b,18,0,24948648.543,0.131,-131106038.699198,0.026,-3236.605,38.8,879.550,18109d24,18,0,24948647.037,0.666,-102160538.673169,0.036,-2522.032,29.9,879.320,11303d2b,11,0,23307838.304,0.075,-122483522.693922,0.012,-2828.363,43.7,4548.160,18109d44,11,0,23307834.214,0.530,-95441691.011963,0.018,-2203.919,31.9,4506.160,11303d4b,28,0,20917412.394,0.040,-109921744.988854,0.006,-1698.759,49.0,4542.990,08109da4,28,0,20917408.697,0.167,-85653298.672313,0.007,-1323.709,41.9,4506.140,01303dab,19,0,21871156.556,0.049,-114933738.306813,0.007,2340.758,47.3,4529.620,18109de4,19,0,21871152.478,0.174,-89558749.006197,0.008,1823.968,41.6,4506.120,11303deb*be19e95b
#BESTXYZA,USB3_1,0,86.0,FINESTEERING,1996,45289.000,00000000,fac1,14392;SOL_COMPUTED,SINGLE,-3073914.1668,4088897.9696,3796973.9844,2.8016,2.4115,2.3259,SOL_COMPUTED,DOPPLER_VELOCITY,0.0083,0.0076,-0.0054,0.3349,0.2882,0.2780,"",0.000,0.000,0.000,10,10,10,10,0,06,00,03*fc1ecb74
#SATXYZ2A,USB3_1,0,86.0,FINESTEERING,1996,45289.000,00000000,7513,14392;10,GPS,1,-17243949.5202,-4494614.2390,19650903.6935,-11797.352,-2.157,5.118,0.0,0.0,GPS,23,-26665489.0156,456332.8487,-2280408.7447,-65387.194,-1.498,10.834,0.0,0.0,GPS,3,-18705990.2615,5538828.8696,17982352.7066,13866.409,-2.331,3.031,0.0,0.0,GPS,6,4981319.5564,24289612.9705,9522017.9827,122837.320,-1.679,4.378,0.0,0.0,GPS,17,-3448711.4697,14588675.0820,22304767.5718,-32605.705,-2.296,2.876,0.0,0.0,GPS,22,-16486327.2255,-2921516.8721,20865084.6747,-105171.912,-2.216,4.527,0.0,0.0,GPS,18,-18465615.6217,-12737959.6505,13911300.4540,-1735.712,-0.998,20.453,0.0,0.0,GPS,11,-22200646.8068,-4952107.7522,13039549.0152,-221103.192,-2.024,6.208,0.0,0.0,GPS,28,-13184099.2232,22564584.2883,5485352.0828,211188.671,-1.708,2.902,0.0,0.0,GPS,19,3923910.9343,15024240.4054,21231884.6654,-133453.766,-1.589,3.752,0.0,0.0*78696b17
#RANGEA,USB3_1,0,85.5,FINESTEERING,1996,45290.000,00000000,5103,14392;20,1,0,22942968.000,0.065,-120566113.919533,0.010,-2811.591,44.8,4545.040,18109c04,1,0,22942968.657,0.183,-93947623.653980,0.011,-2190.851,41.1,4506.280,11303c0b,23,0,24696106.972,0.113,-129778979.430516,0.015,2226.543,40.0,1163.030,18109c24,23,0,24696102.689,0.514,-101126422.807105,0.027,1734.969,32.1,1159.800,11303c2b,3,0,21145035.978,0.040,-111117919.313935,0.006,-1218.801,49.1,4545.880,18109c44,3,0,21145034.825,0.114,-86585395.569461,0.007,-949.715,45.2,4507.260,11303c4b,6,0,22365246.442,0.049,-117530190.677069,0.007,2135.562,47.4,4483.994,08109c84,6,0,22365246.550,0.147,-91581989.343670,0.008,1664.075,43.0,4475.780,01303c8b,17,0,21314319.989,0.035,-112007524.262045,0.004,1615.317,50.2,4539.996,08109ce4,17,0,21314316.895,0.137,-87278587.639492,0.005,1258.688,43.6,4506.240,01303ceb,22,0,22917037.622,0.058,-120429854.842183,0.008,-2496.687,45.8,4543.760,18109d04,22,0,22917031.825,0.200,-93841427.153666,0.010,-1945.469,40.3,4507.220,11303d0b,18,0,24949264.487,0.132,-131109275.568182,0.024,-3236.621,38.7,880.550,18109d24,18,0,24949262.976,0.654,-102163060.913720,0.037,-2522.045,30.0,880.320,11303d2b,11,0,23308376.573,0.075,-122486351.302376,0.011,-2828.604,43.6,4549.160,18109d44,11,0,23308372.502,0.428,-95443895.126237,0.018,-2204.105,33.8,4507.160,11303d4b,28,0,20917735.741,0.040,-109923444.163578,0.006,-1699.429,49.0,4543.990,08109da4,28,0,20917732.041,0.145,-85654622.702804,0.007,-1324.231,43.1,4507.140,01303dab,19,0,21870711.174,0.049,-114931397.823950,0.007,2340.491,47.2,4530.620,18109de4,19,0,21870707.097,0.167,-89556925.253778,0.008,1823.760,41.9,4507.120,11303deb*67bad9cc
#BESTXYZA,USB3_1,0,85.5,FINESTEERING,1996,45290.000,00000000,fac1,14392;SOL_COMPUTED,SINGLE,-3073914.1778,4088897.9756,3796973.9673,2.8021,2.4115,2.3262,SOL_COMPUTED,DOPPLER_VELOCITY,0.0284,-0.0210,-0.0167,0.3349,0.2882,0.2780,"",0.000,0.000,0.000,10,10,10,10,0,06,00,03*1103debe
#SATXYZ2A,USB3_1,0,85.5,FINESTEERING,1996,45290.000,00000000,7513,14392;10,GPS,1,-17244977.7464,-4496909.9608,19649515.2372,-11797.353,-2.156,5.119,0.0,0.0,GPS,23,-26665795.0441,456020.2215,-2277315.7462,-65387.193,-1.489,10.830,0.0,0.0,GPS,3,-18704865.6563,5536828.5805,17984141.9439,13866.411,-2.331,3.031,0.0,0.0,GPS,6,4980572.1151,24288642.0841,9524897.9954,122837.320,-1.680,4.378,0.0,0.0,GPS,17,-3451427.0995,14588361.9719,22304536.4902,-32605.703,-2.296,2.876,0.0,0.0,GPS,22,-16485090.0602,-2923814.3191,20865747.9002,-105171.915,-2.216,4.527,0.0,0.0,GPS,18,-18466293.4643,-12739686.0217,13908915.4881,-1735.711,-0.993,20.467,0.0,0.0,GPS,11,-22201772.0036,-4953522.6614,13037180.4057,-221103.193,-2.023,6.209,0.0,0.0,GPS,28,-13184622.9372,22564953.0993,5482223.0301,211188.672,-1.707,2.903,0.0,0.0,GPS,19,3921172.5833,15023878.1657,21232655.3760,-133453.766,-1.589,3.752,0.0,0.0*60b2b74d
#RANGEA,USB3_1,0,85.5,FINESTEERING,1996,45291.000,00000000,5103,14392;20,1,0,22943502.989,0.064,-120568925.337016,0.009,-2811.196,45.0,4546.040,18109c04,1,0,22943503.648,0.184,-93949814.367607,0.011,-2190.542,41.0,4507.280,11303c0b,23,0,24695683.288,0.111,-129776752.909340,0.015,2226.259,40.2,1164.030,18109c24,23,0,24695679.099,0.642,-101124687.863840,0.026,1734.747,30.2,1160.800,11303c2b,3,0,21145267.934,0.040,-111119138.299801,0.006,-1219.376,49.1,4546.880,18109c44,3,0,21145266.781,0.110,-86586345.428743,0.007,-950.163,45.6,4508.260,11303c4b,6,0,22364840.069,0.049,-117528055.169091,0.007,2135.486,47.4,4484.994,08109c84,6,0,22364840.165,0.143,-91580325.309460,0.008,1664.016,43.3,4476.780,01303c8b,17,0,21314012.609,0.035,-112005908.998911,0.005,1615.183,50.2,4540.996,08109ce4,17,0,21314009.518,0.121,-87277328.990959,0.005,1258.583,44.7,4507.240,01303ceb,22,0,22917512.766,0.058,-120432351.721575,0.009,-2496.958,45.9,4544.760,18109d04,22,0,22917506.973,0.201,-93843372.776552,0.010,-1945.681,40.3,4508.220,11303d0b,18,0,24949880.423,0.135,-131112512.342482,0.026,-3237.148,38.5,881.550,18109d24,18,0,24949878.805,0.394,-102165583.072088,0.037,-2522.453,34.5,881.320,11303d2b,11,0,23308914.853,0.074,-122489179.969542,0.011,-2828.683,43.7,4550.160,18109d44,11,0,23308910.865,0.402,-95446099.282762,0.018,-2204.169,34.3,4508.160,11303d4b,28,0,20918059.182,0.040,-109925143.814188,0.005,-1699.876,49.1,4544.990,08109da4,28,0,20918055.485,0.151,-85655947.106544,0.006,-1324.579,42.8,4508.140,01303dab,19,0,21870265.813,0.050,-114929057.442837,0.006,2340.394,47.2,4531.620,18109de4,19,0,21870261.733,0.154,-89555101.580504,0.007,1823.683,42.7,4508.120,11303deb*7b68b47a
#BESTXYZA,USB3_1,0,85.5,FINESTEERING,1996,45291.000,00000000,fac1,14392;SOL_COMPUTED,SINGLE,-3073914.1869,4088897.9883,3796973.9878,2.8025,2.4116,2.3265,SOL_COMPUTED,DOPPLER_VELOCITY,-0.0267,0.0514,0.0579,0.3350,0.2882,0.2781,"",0.000,0.000,0.000,10,10,10,10,0,06,00,03*ddd02745
#SATXYZ2A,USB3_1,0,85.5,FINESTEERING,1996,45291.000,00000000,7513,14392;10,GPS,1,-17246006.0309,-4499205.4606,19648126.3614,-11797.353,-2.158,5.120,0.0,0.0,GPS,23,-26666100.7056,455707.6319,-2274222.7004,-65387.192,-1.492,10.827,0.0,0.0,GPS,3,-18703741.0432,5534828.0386,17985930.7973,13866.413,-2.331,3.031,0.0,0.0,GPS,6,4979824.4527,24287670.9192,9527777.8054,122837.319,-1.681,4.377,0.0,0.0,GPS,17,-3454142.7223,14588049.0358,22304304.9506,-32605.701,-2.296,2.876,0.0,0.0,GPS,22,-16483852.9745,-2926111.9012,20866410.6914,-105171.918,-2.217,4.528,0.0,0.0,GPS,18,-18466971.2567,-12741412.0856,13906530.2207,-1735.710,-0.995,20.482,0.0,0.0,GPS,11,-22202897.0339,-4954937.3234,13034811.5077,-221103.194,-2.025,6.211,0.0,0.0,GPS,28,-13185146.3915,22565321.6342,5479093.8626,211188.674,-1.706,2.903,0.0,0.0,GPS,19,3918434.1144,15023516.0763,21233425.6216,-133453.766,-1.589,3.751,0.0,0.0*515a1432
#RANGEA,USB3_1,0,85.5,FINESTEERING,1996,45292.000,00000000,5103,14392;20,1,0,22944037.926,0.064,-120571736.375683,0.009,-2810.955,45.0,4547.040,18109c04,1,0,22944038.560,0.210,-93952004.790564,0.011,-2190.354,39.9,4508.280,11303c0b,23,0,24695259.529,0.118,-129774526.005259,0.015,2227.028,39.7,1165.030,18109c24,23,0,24695255.283,0.577,-101122952.613706,0.025,1735.347,31.1,1161.800,11303c2b,3,0,21145499.921,0.040,-111120357.440344,0.007,-1219.422,49.1,4547.880,18109c44,3,0,21145498.763,0.136,-86587295.408819,0.007,-950.199,43.7,4509.260,11303c4b,6,0,22364433.662,0.049,-117525919.465727,0.006,2135.751,47.3,4485.994,08109c84,6,0,22364433.744,0.168,-91578661.127231,0.008,1664.223,41.8,4477.780,01303c8b,17,0,21313705.180,0.035,-112004293.474884,0.005,1615.555,50.1,4541.996,08109ce4,17,0,21313702.098,0.137,-87276070.140225,0.006,1258.874,43.6,4508.240,01303ceb,22,0,22917987.888,0.058,-120434848.518210,0.008,-2496.781,45.8,4545.760,18109d04,22,0,22917982.091,0.209,-93845318.331532,0.010,-1945.543,39.9,4509.220,11303d0b,18,0,24950496.220,0.131,-131115748.509821,0.025,-3236.097,38.8,882.550,18109d24,18,0,24950494.671,1.392,-102168104.757103,0.038,-2521.637,29.8,882.320,11303d2b,11,0,23309453.064,0.075,-122492008.274306,0.011,-2828.211,43.6,4551.160,18109d44,11,0,23309449.110,0.473,-95448303.148297,0.018,-2203.802,32.8,4509.160,11303d4b,28,0,20918382.647,0.040,-109926843.544152,0.006,-1699.901,49.1,4545.990,08109da4,28,0,20918378.937,0.171,-85657271.574579,0.007,-1324.599,41.7,4509.140,01303dab,19,0,21869820.408,0.050,-114926716.793789,0.007,2340.712,47.2,4532.620,18109de4,19,0,21869816.315,0.196,-89553277.698654,0.008,1823.932,40.6,4509.120,11303deb*096c115e
#BESTXYZA,USB3_1,0,85.5,FINESTEERING,1996,45292.000,00000000,fac1,14392;SOL_COMPUTED,SINGLE,-3073914.1747,4088897.9705,3796973.9866,2.8028,2.4114,2.3268,SOL_COMPUTED,DOPPLER_VELOCITY,0.0051,0.0038,-0.0139,0.3350,0.2882,0.2781,"",0.000,0.000,0.000,10,10,10,10,0,06,00,03*415666dd
#SATXYZ2A,USB3_1,0,85.5,FINESTEERING,1996,45292.000,00000000,7513,14392;10,GPS,1,-17247034.3737,-4501500.7383,19646737.0660,-11797.354,-2.157,5.121,0.0,0.0,GPS,23,-26666406.0002,455395.0797,-2271129.6073,-65387.191,-1.495,10.823,0.0,0.0,GPS,3,-18702616.4221,5532827.2441,17987719.2668,13866.415,-2.331,3.031,0.0,0.0,GPS,6,4979076.5691,24286699.4759,9530657.4127,122837.319,-1.680,4.377,0.0,0.0,GPS,17,-3456858.3383,14587736.2739,22304072.9529,-32605.699,-2.296,2.876,0.0,0.0,GPS,22,-16482615.9684,-2928409.6184,20867073.0481,-105171.921,-2.218,4.529,0.0,0.0,GPS,18,-18467648.9987,-12743137.8423,13904144.6518,-1735.709,-0.994,20.497,0.0,0.0,GPS,11,-22204021.8975,-4956351.7380,13032442.3214,-221103.196,-2.025,6.212,0.0,0.0,GPS,28,-13185669.5861,22565689.8931,5475964.5803,211188.675,-1.706,2.903,0.0,0.0,GPS,19,3915695.5278,15023154.1372,21234195.4021,-133453.766,-1.589,3.751,0.0,0.0*6bd4752c
#RANGEA,USB3_1,0,85.5,FINESTEERING,1996,45293.000,00000000,5103,14392;20,1,0,22944572.885,0.064,-120574547.582892,0.010,-2811.408,45.0,4548.040,18109c04,1,0,22944573.505,0.166,-93954195.340182,0.012,-2190.707,41.9,4509.280,11303c0b,23,0,24694835.824,0.112,-129772299.343560,0.015,2226.606,40.2,1166.030,18109c24,23,0,24694831.559,0.579,-101121217.553146,0.025,1735.017,31.1,1162.800,11303c2b,3,0,21145732.045,0.040,-111121577.331139,0.006,-1220.354,49.0,4548.880,18109c44,3,0,21145730.895,0.116,-86588245.976320,0.007,-950.924,45.0,4510.260,11303c4b,6,0,22364027.325,0.049,-117523784.131035,0.006,2135.189,47.3,4486.994,08109c84,6,0,22364027.391,0.145,-91576997.232630,0.008,1663.785,43.1,4478.780,01303c8b,17,0,21313397.815,0.035,-112002678.279858,0.004,1614.867,50.2,4542.996,08109ce4,17,0,21313394.731,0.131,-87274811.547089,0.005,1258.338,44.0,4509.240,01303ceb,22,0,22918463.113,0.059,-120437345.820692,0.008,-2497.616,45.8,4546.760,18109d04,22,0,22918457.323,0.214,-93847264.282436,0.009,-1946.194,39.8,4510.220,11303d0b,18,0,24951112.044,0.135,-131118984.794194,0.025,-3236.163,38.5,883.550,18109d24,18,0,24951110.471,0.492,-102170626.549433,0.038,-2521.685,32.5,883.320,11303d2b,11,0,23309991.346,0.076,-122494836.833262,0.011,-2828.751,43.5,4552.160,18109d44,11,0,23309987.368,0.375,-95450507.217859,0.017,-2204.225,34.9,4510.160,11303d4b,28,0,20918706.234,0.040,-109928543.949749,0.006,-1700.833,49.1,4546.990,08109da4,28,0,20918702.512,0.151,-85658596.568216,0.007,-1325.324,42.8,4510.140,01303dab,19,0,21869375.059,0.050,-114924376.451826,0.007,2340.086,47.2,4533.620,18109de4,19,0,21869370.952,0.171,-89551454.056294,0.008,1823.445,41.7,4510.120,11303deb*2112381f
#BESTXYZA,USB3_1,0,85.5,FINESTEERING,1996,45293.000,00000000,fac1,14392;SOL_COMPUTED,SINGLE,-3073914.1678,4088897.9628,3796973.9948,2.8032,2.4114,2.3270,SOL_COMPUTED,DOPPLER_VELOCITY,0.0312,-0.0271,-0.0534,0.3351,0.2882,0.2781,"",0.000,0.000,0.000,10,10,10,10,0,06,00,03*2da6fece
#SATXYZ2A,USB3_1,0,85.5,FINESTEERING,1996,45293.000,00000000,7513,14392;10,GPS,1,-17248062.7748,-4503795.7938,19645347.3511,-11797.355,-2.159,5.122,0.0,0.0,GPS,23,-26666710.9279,455082.5650,-2268036.4670,-65387.190,-1.495,10.820,0.0,0.0,GPS,3,-18701491.7933,5530826.1969,17989507.3525,13866.418,-2.331,3.031,0.0,0.0,GPS,6,4978328.4644,24285727.7541,9533536.8172,122837.318,-1.681,4.376,0.0,0.0,GPS,17,-3459573.9473,14587423.6861,22303840.4972,-32605.696,-2.295,2.876,0.0,0.0,GPS,22,-16481379.0420,-2930707.4706,20867734.9704,-105171.925,-2.218,4.530,0.0,0.0,GPS,18,-18468326.6905,-12744863.2918,13901758.7816,-1735.708,-0.992,20.511,0.0,0.0,GPS,11,-22205146.5944,-4957765.9054,13030072.8469,-221103.197,-2.022,6.213,0.0,0.0,GPS,28,-13186192.5211,22566057.8758,5472835.1834,211188.677,-1.708,2.903,0.0,0.0,GPS,19,3912956.8235,15022792.3485,21234964.7177,-133453.767,-1.590,3.750,0.0,0.0*de7579e8
#RANGEA,USB3_1,0,86.0,FINESTEERING,1996,45294.000,00000000,5103,14392;20,1,0,22945107.842,0.065,-120577358.807784,0.010,-2811.245,44.8,4549.040,18109c04,1,0,22945108.450,0.176,-93956385.911223,0.011,-2190.579,41.4,4510.280,11303c0b,23,0,24694412.090,0.111,-129770072.777125,0.016,2226.405,40.2,1167.030,18109c24,23,0,24694407.858,0.426,-101119482.580842,0.027,1734.866,33.8,1163.800,11303c2b,3,0,21145964.281,0.040,-111122797.799645,0.006,-1220.650,49.0,4549.880,18109c44,3,0,21145963.133,0.110,-86589196.990259,0.007,-951.155,45.6,4511.260,11303c4b,6,0,22363621.032,0.048,-117521649.030651,0.006,2135.057,47.4,4487.994,08109c84,6,0,22363621.086,0.137,-91575333.521079,0.008,1663.682,43.7,4479.780,01303c8b,17,0,21313090.484,0.035,-112001063.237322,0.005,1615.002,50.2,4543.996,08109ce4,17,0,21313087.403,0.124,-87273553.072594,0.005,1258.443,44.4,4510.240,01303ceb,22,0,22918938.390,0.058,-120439843.460152,0.008,-2497.648,45.9,4547.760,18109d04,22,0,22918932.598,0.173,-93849210.494447,0.010,-1946.218,41.6,4511.220,11303d0b,18,0,24951727.862,0.133,-131122221.048628,0.026,-3236.354,38.7,884.550,18109d24,18,0,24951726.392,1.315,-102173148.315151,0.037,-2521.829,32.6,884.320,11303d2b,11,0,23310529.640,0.075,-122497665.507002,0.011,-2828.853,43.6,4553.160,18109d44,11,0,23310525.591,0.361,-95452711.373935,0.016,-2204.303,35.2,4511.160,11303d4b,28,0,20919029.918,0.040,-109930244.866715,0.005,-1701.132,49.0,4547.990,08109da4,28,0,20919026.200,0.142,-85659921.959945,0.006,-1325.556,43.3,4511.140,01303dab,19,0,21868929.739,0.049,-114922036.260851,0.008,2340.081,47.2,4534.620,18109de4,19,0,21868925.620,0.161,-89549630.532833,0.008,1823.441,42.2,4511.120,11303deb*60fbca52
#BESTXYZA,USB3_1,0,86.0,FINESTEERING,1996,45294.000,00000000,fac1,14392;SOL_COMPUTED,SINGLE,-3073914.1795,4088897.9660,3796973.9843,2.8036,2.4113,2.3272,SOL_COMPUTED,DOPPLER_VELOCITY,-0.0455,0.0550,0.0493,0.3351,0.2882,0.2782,"",0.000,0.000,0.000,10,10,10,10,0,06,00,03*426bbaa5
#SATXYZ2A,USB3_1,0,86.0,FINESTEERING,1996,45294.000,00000000,7513,14392;10,GPS,1,-17249091.2341,-4506090.6272,19643957.2167,-11797.356,-2.158,5.123,0.0,0.0,GPS,23,-26667015.4886,454770.0877,-2264943.2795,-65387.189,-1.495,10.816,0.0,0.0,GPS,3,-18700367.1567,5528824.8971,17991295.0542,13866.420,-2.333,3.032,0.0,0.0,GPS,6,4977580.1386,24284755.7540,9536416.0189,122837.318,-1.682,4.375,0.0,0.0,GPS,17,-3462289.5491,14587111.2723,22303607.5835,-32605.694,-2.295,2.875,0.0,0.0,GPS,22,-16480142.1953,-2933005.4577,20868396.4582,-105171.928,-2.218,4.530,0.0,0.0,GPS,18,-18469004.3318,-12746588.4340,13899372.6100,-1735.707,-0.997,20.526,0.0,0.0,GPS,11,-22206271.1246,-4959179.8255,13027703.0842,-221103.198,-2.021,6.215,0.0,0.0,GPS,28,-13186715.1965,22566425.5823,5469705.6719,211188.678,-1.708,2.904,0.0,0.0,GPS,19,3910218.0016,15022430.7102,21235733.5682,-133453.767,-1.590,3.750,0.0,0.0*5bd8c616
#RANGEA,USB3_1,0,86.0,FINESTEERING,1996,45295.000,00000000,5103,14392;20,1,0,22945642.811,0.065,-120580170.037566,0.009,-2811.355,44.9,4550.040,18109c04,1,0,22945643.412,0.159,-93958576.480504,0.011,-2190.666,42.4,4511.280,11303c0b,23,0,24693988.381,0.108,-129767846.231202,0.017,2226.385,40.4,1168.030,18109c24,23,0,24693984.172,0.395,-101117747.621902,0.026,1734.850,34.4,1164.800,11303c2b,3,0,21146196.629,0.041,-111124018.841639,0.006,-1221.530,49.0,4550.880,18109c44,3,0,21146195.483,0.110,-86590148.451830,0.007,-951.841,45.6,4512.260,11303c4b,6,0,22363214.767,0.049,-117519514.118885,0.006,2134.659,47.3,4488.994,08109c84,6,0,22363214.819,0.139,-91573669.955446,0.008,1663.373,43.5,4480.780,01303c8b,17,0,21312783.175,0.035,-111999448.336354,0.004,1614.654,50.2,4544.996,08109ce4,17,0,21312780.103,0.121,-87272294.709984,0.005,1258.173,44.7,4511.240,01303ceb,22,0,22919413.750,0.059,-120442341.416296,0.008,-2498.195,45.7,4548.760,18109d04,22,0,22919407.941,0.181,-93851156.955727,0.009,-1946.644,41.2,4512.220,11303d0b,18,0,24952343.648,0.135,-131125457.166645,0.035,-3235.572,38.5,885.550,18109d24,18,0,24952342.196,1.275,-102175669.980476,0.040,-2521.219,35.1,885.320,11303d2b,11,0,23311067.925,0.075,-122500494.191855,0.011,-2828.946,43.6,4554.160,18109d44,11,0,23311063.853,0.363,-95454915.551877,0.017,-2204.373,35.1,4512.160,11303d4b,28,0,20919353.685,0.041,-109931946.260174,0.005,-1701.886,48.9,4548.990,08109da4,28,0,20919349.973,0.135,-85661247.722511,0.006,-1326.144,43.8,4512.140,01303dab,19,0,21868484.438,0.050,-114919696.172854,0.008,2339.843,47.1,4535.620,18109de4,19,0,21868480.301,0.156,-89547807.087698,0.009,1823.255,42.6,4512.120,11303deb*4cc0543d
#BESTXYZA,USB3_1,0,86.0,FINESTEERING,1996,45295.000,00000000,fac1,14392;SOL_COMPUTED,SINGLE,-3073914.1741,4088897.9620,3796973.9694,2.8040,2.4113,2.3274,SOL_COMPUTED,DOPPLER_VELOCITY,0.0801,-0.0927,-0.0452,0.3351,0.2882,0.2782,"",0.000,0.000,0.000,10,10,10,10,0,06,00,03*ba49b81f
#SATXYZ2A,USB3_1,0,86.0,FINESTEERING,1996,45295.000,00000000,7513,14392;10,GPS,1,-17250119.7515,-4508385.2383,19642566.6629,-11797.357,-2.160,5.124,0.0,0.0,GPS,23,-26667319.6824,454457.6477,-2261850.0450,-65387.189,-1.501,10.812,0.0,0.0,GPS,3,-18699242.5124,5526823.3446,17993082.3719,13866.422,-2.332,3.032,0.0,0.0,GPS,6,4976831.5915,24283783.4755,9539295.0177,122837.317,-1.683,4.375,0.0,0.0,GPS,17,-3465005.1439,14586799.0327,22303374.2117,-32605.692,-2.295,2.875,0.0,0.0,GPS,22,-16478905.4284,-2935303.5798,20869057.5116,-105171.931,-2.218,4.531,0.0,0.0,GPS,18,-18469681.9226,-12748313.2690,13896986.1372,-1735.706,-1.000,20.541,0.0,0.0,GPS,11,-22207395.4879,-4960593.4982,13025333.0333,-221103.199,-2.019,6.216,0.0,0.0,GPS,28,-13187237.6124,22566793.0126,5466576.0458,211188.680,-1.709,2.904,0.0,0.0,GPS,19,3907479.0621,15022069.2222,21236501.9536,-133453.767,-1.591,3.749,0.0,0.0*e2b9c666
#RANGEA,USB3_1,0,86.0,FINESTEERING,1996,45296.000,00000000,5103,14392;20,1,0,22946177.786,0.065,-120582981.352696,0.009,-2811.070,44.8,4551.040,18109c04,1,0,22946178.379,0.151,-93960767.114693,0.011,-2190.443,42.8,4512.280,11303c0b,23,0,24693564.713,0.108,-129765619.840731,0.017,2226.620,40.5,1169.030,18109c24,23,0,24693560.595,0.424,-101116012.756894,0.026,1735.028,33.8,1165.800,11303c2b,3,0,21146429.093,0.041,-111125240.517670,0.006,-1221.692,49.0,4551.880,18109c44,3,0,21146427.950,0.103,-86591100.406350,0.007,-951.968,46.1,4513.260,11303c4b,6,0,22362808.555,0.049,-117517379.473069,0.006,2134.917,47.3,4489.994,08109c84,6,0,22362808.605,0.128,-91572006.596665,0.008,1663.573,44.2,4481.780,01303c8b,17,0,21312475.904,0.035,-111997833.650172,0.004,1614.908,50.2,4545.996,08109ce4,17,0,21312472.848,0.114,-87271036.514705,0.005,1258.370,45.3,4512.240,01303ceb,22,0,22919889.183,0.058,-120444839.769009,0.008,-2498.119,45.9,4549.760,18109d04,22,0,22919883.362,0.171,-93853103.724530,0.009,-1946.586,41.7,4513.220,11303d0b,18,0,24952959.415,0.136,-131128693.211960,0.032,-3235.787,38.5,886.550,18109d24,18,0,24952957.917,3.885,-102178191.577790,0.040,-2521.389,24.2,886.320,11303d2b,11,0,23311606.244,0.074,-122503323.028872,0.012,-2828.504,43.7,4555.160,18109d44,11,0,23311602.168,0.314,-95457119.840459,0.017,-2204.029,36.4,4513.160,11303d4b,28,0,20919677.562,0.041,-109933648.235712,0.005,-1701.914,48.9,4549.990,08109da4,28,0,20919673.851,0.127,-85662573.938071,0.006,-1326.165,44.3,4513.140,01303dab,19,0,21868039.172,0.050,-114917356.307284,0.007,2339.985,47.2,4536.620,18109de4,19,0,21868035.031,0.136,-89545983.814544,0.008,1823.365,43.7,4513.120,11303deb*d78e3d96
#BESTXYZA,USB3_1,0,86.0,FINESTEERING,1996,45296.000,00000000,fac1,14392;SOL_COMPUTED,SINGLE,-3073914.1598,4088897.9496,3796973.9672,2.8044,2.4113,2.3276,SOL_COMPUTED,DOPPLER_VELOCITY,-0.0172,0.0185,0.0025,0.3352,0.2882,0.2782,"",0.000,0.000,0.000,10,10,10,10,0,06,00,03*1dd74768
#SATXYZ2A,USB3_1,0,86.0,FINESTEERING,1996,45296.000,00000000,7513,14392;10,GPS,1,-17251148.3270,-4510679.6271,19641175.6897,-11797.358,-2.161,5.125,0.0,0.0,GPS,23,-26667623.5093,454145.2451,-2258756.7634,-65387.188,-1.505,10.809,0.0,0.0,GPS,3,-18698117.8605,5524821.5397,17994869.3057,13866.425,-2.333,3.032,0.0,0.0,GPS,6,4976082.8233,24282810.9188,9542173.8134,122837.317,-1.684,4.374,0.0,0.0,GPS,17,-3467720.7315,14586486.9672,22303140.3819,-32605.690,-2.296,2.875,0.0,0.0,GPS,22,-16477668.7413,-2937601.8368,20869718.1305,-105171.934,-2.219,4.532,0.0,0.0,GPS,18,-18470359.4630,-12750037.7966,13894599.3631,-1735.706,-1.006,20.555,0.0,0.0,GPS,11,-22208519.6844,-4962006.9237,13022962.6943,-221103.201,-2.022,6.217,0.0,0.0,GPS,28,-13187759.7687,22567160.1666,5463446.3053,211188.681,-1.710,2.904,0.0,0.0,GPS,19,3904740.0051,15021707.8847,21237269.8739,-133453.767,-1.591,3.749,0.0,0.0*08eb3339
#RANGEA,USB3_1,0,85.5,FINESTEERING,1996,45297.000,00000000,5103,14392;20,1,0,22946712.741,0.066,-120585792.553055,0.009,-2811.619,44.8,4552.040,18109c04,1,0,22946713.320,0.198,-93962957.660566,0.010,-2190.872,40.4,4513.280,11303c0b,23,0,24693141.030,0.110,-129763393.394080,0.017,2226.022,40.3,1170.030,18109c24,23,0,24693136.896,0.532,-101114277.863879,0.026,1734.563,31.8,1166.800,11303c2b,3,0,21146661.639,0.040,-111126462.645296,0.006,-1222.740,49.0,4552.880,18109c44,3,0,21146660.508,0.124,-86592052.712702,0.007,-952.785,44.5,4514.260,11303c4b,6,0,22362402.366,0.050,-117515244.926020,0.007,2134.152,47.2,4490.994,08109c84,6,0,22362402.419,0.158,-91570343.309412,0.008,1662.976,42.4,4482.780,01303c8b,17,0,21312168.641,0.035,-111996218.997073,0.004,1614.252,50.2,4546.996,08109ce4,17,0,21312165.593,0.138,-87269778.344871,0.005,1257.860,43.6,4513.240,01303ceb,22,0,22920364.651,0.059,-120447338.344122,0.008,-2499.007,45.8,4550.760,18109d04,22,0,22920358.825,0.211,-93855050.661170,0.009,-1947.278,39.9,4514.220,11303d0b,18,0,24953575.157,0.136,-131131929.073407,0.025,-3236.332,38.5,887.550,18109d24,18,0,24953573.766,1.422,-102180713.016138,0.037,-2521.816,29.1,887.320,11303d2b,11,0,23312144.555,0.075,-122506151.825009,0.011,-2829.124,43.6,4556.160,18109d44,11,0,23312140.452,0.360,-95459324.098155,0.016,-2204.513,35.2,4514.160,11303d4b,28,0,20920001.509,0.041,-109935350.578354,0.006,-1702.943,48.9,4550.990,08109da4,28,0,20919997.804,0.167,-85663900.438795,0.007,-1326.969,41.9,4514.140,01303dab,19,0,21867593.924,0.050,-114915016.453978,0.007,2339.415,47.1,4537.620,18109de4,19,0,21867589.760,0.168,-89544160.551361,0.008,1822.921,41.8,4514.120,11303deb*9c3e8883
#BESTXYZA,USB3_1,0,85.5,FINESTEERING,1996,45297.000,00000000,fac1,14392;SOL_COMPUTED,SINGLE,-3073914.1705,4088897.9511,3796973.9651,2.8048,2.4112,2.3279,SOL_COMPUTED,DOPPLER_VELOCITY,-0.0323,0.0394,0.0195,0.3352,0.2882,0.2782,"",0.000,0.000,0.000,10,10,10,10,0,06,00,03*7d270442
#SATXYZ2A,USB3_1,0,85.5,FINESTEERING,1996,45297.000,00000000,7513,14392;10,GPS,1,-17252176.9606,-4512973.7936,19639784.2971,-11797.359,-2.160,5.126,0.0,0.0,GPS,23,-26667926.9691,453832.8797,-2255663.4348,-65387.187,-1.499,10.805,0.0,0.0,GPS,3,-18696993.2009,5522819.4821,17996655.8553,13866.427,-2.332,3.032,0.0,0.0,GPS,6,4975333.8337,24281838.0838,9545052.4062,122837.316,-1.685,4.374,0.0,0.0,GPS,17,-3470436.3118,14586175.0759,22302906.0941,-32605.688,-2.297,2.875,0.0,0.0,GPS,22,-16476432.1340,-2939900.2286,20870378.3150,-105171.937,-2.219,4.532,0.0,0.0,GPS,18,-18471036.9527,-12751762.0169,13892212.2879,-1735.705,-1.007,20.570,0.0,0.0,GPS,11,-22209643.7139,-4963420.1019,13020592.0672,-221103.202,-2.022,6.219,0.0,0.0,GPS,28,-13188281.6656,22567527.0443,5460316.4504,211188.683,-1.710,2.905,0.0,0.0,GPS,19,3902000.8307,15021346.6976,21238037.3292,-133453.767,-1.590,3.748,0.0,0.0*6543b753
#RANGEA,USB3_1,0,85.5,FINESTEERING,1996,45298.000,00000000,5103,14392;20,1,0,22947247.763,0.064,-120588604.084221,0.009,-2811.527,44.9,4553.040,18109c04,1,0,22947248.355,0.220,-93965148.455795,0.011,-2190.801,39.6,4514.280,11303c0b,23,0,24692717.412,0.107,-129761167.355402,0.016,2225.700,40.6,1171.030,18109c24,23,0,24692713.350,1.457,-101112543.282829,0.026,1734.313,28.4,1167.800,11303c2b,3,0,21146894.355,0.041,-111127685.678318,0.006,-1223.326,48.9,4553.880,18109c44,3,0,21146893.238,0.132,-86593005.722651,0.007,-953.242,44.0,4515.260,11303c4b,6,0,22361996.280,0.050,-117513110.899489,0.007,2133.940,47.2,4491.994,08109c84,6,0,22361996.317,0.168,-91568680.430980,0.008,1662.811,41.8,4483.780,01303c8b,17,0,21311861.471,0.035,-111994604.829312,0.004,1614.137,50.2,4547.996,08109ce4,17,0,21311858.440,0.152,-87268520.549248,0.005,1257.769,42.7,4514.240,01303ceb,22,0,22920840.230,0.059,-120449837.577111,0.009,-2499.449,45.8,4551.760,18109d04,22,0,22920834.407,0.232,-93856998.116044,0.009,-1947.623,39.0,4515.220,11303d0b,18,0,24954190.945,0.135,-131135165.162547,0.024,-3235.833,38.5,888.550,18109d24,18,0,24954189.589,1.350,-102183234.641146,0.035,-2521.429,31.2,888.320,11303d2b,11,0,23312682.931,0.074,-122508981.019322,0.011,-2829.270,43.8,4557.160,18109d44,11,0,23312678.798,0.426,-95461528.660130,0.015,-2204.627,33.8,4515.160,11303d4b,28,0,20920325.618,0.041,-109937053.751765,0.006,-1703.391,48.9,4551.990,08109da4,28,0,20920321.914,0.165,-85665227.583141,0.007,-1327.318,42.0,4515.140,01303dab,19,0,21867148.755,0.050,-114912677.071938,0.007,2339.223,47.2,4538.620,18109de4,19,0,21867144.572,0.203,-89542337.653869,0.008,1822.771,40.2,4515.120,11303deb*f6f099f9
#BESTXYZA,USB3_1,0,85.5,FINESTEERING,1996,45298.000,00000000,fac1,14392;SOL_COMPUTED,SINGLE,-3073914.1748,4088897.9443,3796973.9624,2.8051,2.4112,2.3281,SOL_COMPUTED,DOPPLER_VELOCITY,0.0223,-0.0180,0.0236,0.3353,0.2882,0.2783,"",0.000,0.000,0.000,10,10,10,10,0,06,00,03*47545a41
#SATXYZ2A,USB3_1,0,85.5,FINESTEERING,1996,45298.000,00000000,7513,14392;10,GPS,1,-17253205.6522,-4515267.7377,19638392.4851,-11797.360,-2.160,5.127,0.0,0.0,GPS,23,-26668230.0620,453520.5515,-2252570.0594,-65387.186,-1.500,10.802,0.0,0.0,GPS,3,-18695868.5338,5520817.1721,17998442.0209,13866.429,-2.332,3.032,0.0,0.0,GPS,6,4974584.6229,24280864.9706,9547930.7959,122837.316,-1.683,4.373,0.0,0.0,GPS,17,-3473151.8848,14585863.3586,22302671.3483,-32605.686,-2.297,2.875,0.0,0.0,GPS,22,-16475195.6066,-2942198.7552,20871038.0650,-105171.940,-2.217,4.533,0.0,0.0,GPS,18,-18471714.3919,-12753485.9299,13889824.9116,-1735.704,-1.003,20.585,0.0,0.0,GPS,11,-22210767.5765,-4964833.0328,13018221.1521,-221103.203,-2.022,6.220,0.0,0.0,GPS,28,-13188803.3029,22567893.6455,5457186.4811,211188.685,-1.710,2.905,0.0,0.0,GPS,19,3899261.5390,15020985.6610,21238804.3193,-133453.767,-1.590,3.748,0.0,0.0*2719479a
#RANGEA,USB3_1,0,85.5,FINESTEERING,1996,45299.000,00000000,5103,14392;20,1,0,22947782.826,0.065,-120591415.798058,0.009,-2811.650,44.8,4554.040,18109c04,1,0,22947783.402,0.217,-93967339.398439,0.010,-2190.898,39.7,4515.280,11303c0b,23,0,24692293.837,0.110,-129758941.487296,0.015,2225.780,40.3,1172.030,18109c24,23,0,24692289.773,0.655,-101110808.853864,0.026,1734.377,30.0,1168.800,11303c2b,3,0,21147127.213,0.041,-111128909.434649,0.006,-1224.054,48.9,4554.880,18109c44,3,0,21147126.104,0.134,-86593959.297612,0.007,-953.809,43.8,4516.260,11303c4b,6,0,22361590.259,0.051,-117510977.239767,0.007,2133.553,47.0,4492.994,08109c84,6,0,22361590.282,0.169,-91567017.839711,0.008,1662.509,41.8,4484.780,01303c8b,17,0,21311554.366,0.035,-111992990.970034,0.005,1613.732,50.1,4548.996,08109ce4,17,0,21311551.334,0.146,-87267262.994836,0.006,1257.453,43.1,4515.240,01303ceb,22,0,22921315.923,0.060,-120452337.286049,0.008,-2499.915,45.6,4552.760,18109d04,22,0,22921310.077,0.229,-93858945.940742,0.009,-1947.985,39.2,4516.220,11303d0b,18,0,24954806.758,0.132,-131138401.297223,0.021,-3236.135,38.7,889.550,18109d24,18,0,24954805.439,1.410,-102185756.286957,0.033,-2521.669,29.4,889.320,11303d2b,11,0,23313221.351,0.073,-122511810.432633,0.010,-2829.398,43.8,4558.160,18109d44,11,0,23313217.231,0.455,-95463733.397207,0.015,-2204.727,33.2,4516.160,11303d4b,28,0,20920649.854,0.041,-109938757.583823,0.006,-1704.142,48.8,4552.990,08109da4,28,0,20920646.136,0.177,-85666555.241373,0.007,-1327.904,41.4,4516.140,01303dab,19,0,21866703.640,0.050,-114910337.962756,0.007,2338.927,47.2,4539.620,18109de4,19,0,21866699.447,0.215,-89540514.968894,0.008,1822.539,39.7,4516.120,11303deb*5d545564
#BESTXYZA,USB3_1,0,85.5,FINESTEERING,1996,45299.000,00000000,fac1,14392;SOL_COMPUTED,SINGLE,-3073914.1857,4088897.9515,3796973.9536,2.8054,2.4110,2.3284,SOL_COMPUTED,DOPPLER_VELOCITY,-0.0153,0.0068,0.0001,0.3353,0.2882,0.2783,"",0.000,0.000,0.000,10,10,10,10,0,06,00,03*51ce4963
#SATXYZ2A,USB3_1,0,85.5,FINESTEERING,1996,45299.000,00000000,7513,14392;10,GPS,1,-17254234.4018,-4517561.4594,19637000.2538,-11797.360,-2.157,5.128,0.0,0.0,GPS,23,-26668532.7880,453208.2605,-2249476.6371,-65387.185,-1.498,10.798,0.0,0.0,GPS,3,-18694743.8593,5518814.6096,18000227.8023,13866.432,-2.331,3.032,0.0,0.0,GPS,6,4973835.1908,24279891.5793,9550808.9824,122837.316,-1.683,4.372,0.0,0.0,GPS,17,-3475867.4504,14585551.8155,22302436.1445,-32605.684,-2.296,2.874,0.0,0.0,GPS,22,-16473959.1591,-2944497.4165,20871697.3804,-105171.944,-2.217,4.534,0.0,0.0,GPS,18,-18472391.7804,-12755209.5355,13887437.2342,-1735.703,-1.002,20.600,0.0,0.0,GPS,11,-22211891.2721,-4966245.7164,13015849.9491,-221103.205,-2.020,6.221,0.0,0.0,GPS,28,-13189324.6808,22568259.9704,5454056.3976,211188.686,-1.709,2.905,0.0,0.0,GPS,19,3896522.1300,15020624.7749,21239570.8443,-133453.767,-1.589,3.747,0.0,0.0*cc2920c6
#RANGEA,USB3_1,0,86.0,FINESTEERING,1996,45300.000,00000000,5103,14392;20,1,0,22948317.894,0.066,-120594227.569237,0.009,-2811.797,44.7,4555.040,18109c04,1,0,22948318.464,0.202,-93969530.390570,0.011,-2191.011,40.3,4516.280,11303c0b,23,0,24691870.291,0.110,-129756715.768855,0.016,2225.888,40.3,1173.030,18109c24,23,0,24691866.143,0.479,-101109074.533832,0.026,1734.461,32.7,1169.800,11303c2b,3,0,21147360.191,0.041,-111130133.820988,0.007,-1224.757,48.8,4555.880,18109c44,3,0,21147359.086,0.141,-86594913.365364,0.007,-954.356,43.4,4517.260,11303c4b,6,0,22361184.286,0.050,-117508843.844822,0.007,2133.342,47.2,4493.994,08109c84,6,0,22361184.315,0.178,-91565355.456490,0.008,1662.345,41.3,4485.780,01303c8b,17,0,21311247.297,0.035,-111991377.317795,0.006,1613.541,50.1,4549.996,08109ce4,17,0,21311244.270,0.152,-87266005.604801,0.006,1257.305,42.7,4516.240,01303ceb,22,0,22921791.679,0.059,-120454837.399880,0.008,-2500.353,45.7,4553.760,18109d04,22,0,22921785.835,0.232,-93860894.085328,0.009,-1948.326,39.0,4517.220,11303d0b,18,0,24955422.578,0.131,-131141637.418467,0.025,-3236.012,38.8,890.550,18109d24,18,0,24955421.327,0.536,-102188277.929602,0.034,-2521.573,31.8,890.320,11303d2b,11,0,23313759.790,0.072,-122514639.979962,0.010,-2829.651,44.0,4559.160,18109d44,11,0,23313755.706,0.510,-95465938.235168,0.015,-2204.924,32.2,4517.160,11303d4b,28,0,20920974.192,0.041,-109940461.971707,0.006,-1704.672,48.8,4553.990,08109da4,28,0,20920970.472,0.179,-85667883.336363,0.007,-1328.315,41.3,4517.140,01303dab,19,0,21866258.569,0.050,-114907999.046023,0.007,2338.836,47.1,4540.620,18109de4,19,0,21866254.368,0.188,-89538692.438838,0.008,1822.470,40.9,4517.120,11303deb*4e20fc0c
#BESTXYZA,USB3_1,0,86.0,FINESTEERING,1996,45300.000,00000000,fac1,14392;SOL_COMPUTED,SINGLE,-3073914.2032,4088897.9635,3796973.9592,2.8058,2.4109,2.3286,SOL_COMPUTED,DOPPLER_VELOCITY,0.0157,-0.0054,-0.0479,0.3354,0.2882,0.2783,"",0.000,0.000,0.000,10,10,10,10,0,06,00,03*878f1a3f
#SATXYZ2A,USB3_1,0,86.0,FINESTEERING,1996,45300.000,00000000,7513,14392;10,GPS,1,-17255263.2092,-4519854.9587,19635607.6032,-11797.361,-2.156,5.129,0.0,0.0,GPS,23,-26668835.1469,452896.0066,-2246383.1681,-65387.184,-1.503,10.794,0.0,0.0,GPS,3,-18693619.1773,5516811.7947,18002013.1995,13866.434,-2.330,3.033,0.0,0.0,GPS,6,4973085.5373,24278917.9099,9553686.9657,122837.315,-1.683,4.372,0.0,0.0,GPS,17,-3478583.0085,14585240.4465,22302200.4827,-32605.681,-2.296,2.874,0.0,0.0,GPS,22,-16472722.7915,-2946796.2125,20872356.2614,-105171.947,-2.217,4.535,0.0,0.0,GPS,18,-18473069.1181,-12756932.8338,13885049.2557,-1735.702,-0.995,20.614,0.0,0.0,GPS,11,-22213014.8006,-4967658.1527,13013478.4582,-221103.206,-2.020,6.223,0.0,0.0,GPS,28,-13189845.7994,22568626.0188,5450926.1999,211188.688,-1.707,2.905,0.0,0.0,GPS,19,3893782.6037,15020264.0393,21240336.9042,-133453.768,-1.588,3.747,0.0,0.0*2c8d4d1d
#RANGEA,USB3_1,0,86.0,FINESTEERING,1996,45301.000,00000000,5103,14392;20,1,0,22948852.986,0.066,-120597039.468676,0.009,-2811.958,44.8,4556.040,18109c04,1,0,22948853.539,0.199,-93971721.484586,0.011,-2191.136,40.4,4517.280,11303c0b,23,0,24691446.785,0.110,-129754490.212359,0.016,2225.621,40.3,1174.030,18109c24,23,0,24691442.623,0.545,-101107340.325042,0.026,1734.250,31.6,1170.800,11303c2b,3,0,21147593.301,0.041,-111131358.882945,0.006,-1225.375,48.8,4556.880,18109c44,3,0,21147592.198,0.135,-86595867.961861,0.007,-954.837,43.8,4518.260,11303c4b,6,0,22360778.378,0.050,-117506710.763398,0.007,2132.931,47.2,4494.994,08109c84,6,0,22360778.400,0.170,-91563693.319266,0.008,1662.026,41.8,4486.780,01303c8b,17,0,21310940.275,0.035,-111989763.923874,0.006,1613.312,50.1,4550.996,08109ce4,17,0,21310937.262,0.145,-87264748.418023,0.007,1257.127,43.1,4517.240,01303ceb,22,0,22922267.521,0.060,-120457337.933476,0.008,-2500.729,45.7,4554.760,18109d04,22,0,22922261.684,0.213,-93862842.553420,0.009,-1948.620,39.8,4518.220,11303d0b,18,0,24956038.363,0.129,-131144873.550206,0.024,-3236.365,38.9,891.550,18109d24,18,0,24956037.188,0.422,-102190799.597969,0.034,-2521.844,33.9,891.320,11303d2b,11,0,23314298.272,0.072,-122517469.695717,0.010,-2829.697,44.0,4560.160,18109d44,11,0,23314294.220,0.480,-95468143.213063,0.015,-2204.958,32.7,4518.160,11303d4b,28,0,20921298.638,0.041,-109942166.943655,0.006,-1705.058,48.8,4554.990,08109da4,28,0,20921294.926,0.169,-85669211.892024,0.007,-1328.616,41.8,4518.140,01303dab,19,0,21865813.528,0.050,-114905660.356587,0.007,2338.693,47.1,4541.620,18109de4,19,0,21865809.325,0.188,-89536870.087604,0.008,1822.359,40.9,4518.120,11303deb*18ec1bd9
#BESTXYZA,USB3_1,0,86.0,FINESTEERING,1996,45301.000,00000000,fac1,14392;SOL_COMPUTED,SINGLE,-3073914.1898,4088897.9462,3796973.9556,2.8061,2.4108,2.3289,SOL_COMPUTED,DOPPLER_VELOCITY,-0.0472,0.0560,0.0049,0.3354,0.2881,0.2784,"",0.000,0.000,0.000,10,10,10,10,0,06,00,03*4cf06cf4
#SATXYZ2A,USB3_1,0,86.0,FINESTEERING,1996,45301.000,00000000,7513,14392;10,GPS,1,-17256292.0745,-4522148.2354,19634214.5334,-11797.362,-2.157,5.130,0.0,0.0,GPS,23,-26669137.1388,452583.7897,-2243289.6523,-65387.184,-1.505,10.791,0.0,0.0,GPS,3,-18692494.4879,5514808.7274,18003798.2126,13866.436,-2.331,3.033,0.0,0.0,GPS,6,4972335.6624,24277943.9625,9556564.7457,122837.315,-1.684,4.371,0.0,0.0,GPS,17,-3481298.5591,14584929.2516,22301964.3629,-32605.679,-2.296,2.874,0.0,0.0,GPS,22,-16471486.5040,-2949095.1431,20873014.7078,-105171.950,-2.219,4.535,0.0,0.0,GPS,18,-18473746.4051,-12758655.8246,13882660.9764,-1735.701,-0.991,20.629,0.0,0.0,GPS,11,-22214138.1619,-4969070.3417,13011106.6795,-221103.207,-2.019,6.224,0.0,0.0,GPS,28,-13190366.6585,22568991.7907,5447795.8880,211188.689,-1.708,2.906,0.0,0.0,GPS,19,3891042.9603,15019903.4543,21241102.4989,-133453.768,-1.589,3.746,0.0,0.0*117fc0d9
#RANGEA,USB3_1,0,85.5,FINESTEERING,1996,45302.000,00000000,5103,14392;20,1,0,22949388.070,0.065,-120599851.307690,0.009,-2811.755,44.8,4557.040,18109c04,1,0,22949388.607,0.208,-93973912.530187,0.011,-2190.977,40.0,4518.280,11303c0b,23,0,24691023.246,0.109,-129752264.682509,0.018,2225.386,40.4,1175.030,18109c24,23,0,24691019.107,1.442,-101105606.150613,0.027,1734.067,28.7,1171.800,11303c2b,3,0,21147826.503,0.041,-111132584.454773,0.007,-1225.891,48.8,4557.880,18109c44,3,0,21147825.408,0.137,-86596822.950240,0.008,-955.240,43.6,4519.260,11303c4b,6,0,22360372.491,0.050,-117504577.814175,0.007,2132.895,47.1,4495.994,08109c84,6,0,22360372.511,0.163,-91562031.284560,0.008,1661.998,42.1,4487.780,01303c8b,17,0,21310633.273,0.035,-111988150.622900,0.005,1613.279,50.2,4551.996,08109ce4,17,0,21310630.264,0.142,-87263491.300440,0.006,1257.100,43.3,4518.240,01303ceb,22,0,22922743.412,0.059,-120459838.737681,0.008,-2500.949,45.8,4555.760,18109d04,22,0,22922737.561,0.211,-93864791.227517,0.010,-1948.791,39.9,4519.220,11303d0b,18,0,24956654.142,0.126,-131148109.510287,0.029,-3235.952,39.1,892.550,18109d24,18,0,24956653.006,0.684,-102193321.133274,0.038,-2521.520,29.7,892.320,11303d2b,11,0,23314836.760,0.072,-122520299.421658,0.010,-2829.792,43.9,4561.160,18109d44,11,0,23314832.732,0.441,-95470348.201553,0.015,-2205.030,33.5,4519.160,11303d4b,28,0,20921623.179,0.041,-109943872.378773,0.007,-1705.710,48.8,4555.990,08109da4,28,0,20921619.461,0.178,-85670540.801731,0.008,-1329.125,41.3,4519.140,01303dab,19,0,21865368.506,0.050,-114903321.756750,0.007,2338.621,47.2,4542.620,18109de4,19,0,21865364.297,0.185,-89535047.802595,0.009,1822.303,41.0,4519.120,11303deb*88437a24
#BESTXYZA,USB3_1,0,85.5,FINESTEERING,1996,45302.000,00000000,fac1,14392;SOL_COMPUTED,SINGLE,-3073914.2037,4088897.9567,3796973.9370,2.8064,2.4107,2.3291,SOL_COMPUTED,DOPPLER_VELOCITY,0.0135,0.0024,0.0193,0.3354,0.2881,0.2784,"",0.000,0.000,0.000,10,10,10,10,0,06,00,03*dc9b1ae2
#SATXYZ2A,USB3_1,0,85.5,FINESTEERING,1996,45302.000,00000000,7513,14392;10,GPS,1,-17257320.9977,-4524441.2896,19632821.0443,-11797.363,-2.158,5.131,0.0,0.0,GPS,23,-26669438.7638,452271.6099,-2240196.0899,-65387.183,-1.502,10.787,0.0,0.0,GPS,3,-18691369.7912,5512805.4076,18005582.8414,13866.439,-2.332,3.033,0.0,0.0,GPS,6,4971585.5662,24276969.7371,9559442.3224,122837.314,-1.686,4.371,0.0,0.0,GPS,17,-3484014.1021,14584618.2309,22301727.7850,-32605.677,-2.297,2.874,0.0,0.0,GPS,22,-16470250.2965,-2951394.2084,20873672.7196,-105171.953,-2.219,4.536,0.0,0.0,GPS,18,-18474423.6412,-12760378.5080,13880272.3961,-1735.701,-0.994,20.644,0.0,0.0,GPS,11,-22215261.3561,-4970482.2835,13008734.6130,-221103.208,-2.020,6.225,0.0,0.0,GPS,28,-13190887.2583,22569357.2860,5444665.4620,211188.691,-1.710,2.906,0.0,0.0,GPS,19,3888303.1998,15019543.0198,21241867.6284,-133453.768,-1.590,3.746,0.0,0.0*1cb69531
#RANGEA,USB3_1,0,85.5,FINESTEERING,1996,45303.000,00000000,5103,14392;20,1,0,22949923.151,0.065,-120602663.224993,0.009,-2812.083,44.9,4558.040,18109c04,1,0,22949923.691,0.175,-93976103.631546,0.011,-2191.234,41.5,4519.280,11303c0b,23,0,24690599.736,0.110,-129750039.252020,0.016,2225.303,40.3,1176.030,18109c24,23,0,24690595.721,0.507,-101103872.048646,0.028,1734.002,32.2,1172.800,11303c2b,3,0,21148059.821,0.041,-111133810.642090,0.006,-1226.374,48.8,4558.880,18109c44,3,0,21148058.739,0.111,-86597778.419781,0.007,-955.616,45.4,4520.260,11303c4b,6,0,22359966.656,0.051,-117502445.135273,0.007,2132.544,47.0,4496.994,08109c84,6,0,22359966.679,0.131,-91560369.456800,0.008,1661.724,44.0,4488.780,01303c8b,17,0,21310326.311,0.035,-111986537.529766,0.005,1613.014,50.2,4552.996,08109ce4,17,0,21310323.309,0.126,-87262234.343638,0.006,1256.895,44.3,4519.240,01303ceb,22,0,22923219.372,0.058,-120462339.927960,0.008,-2501.373,45.9,4556.760,18109d04,22,0,22923213.542,0.190,-93866740.208670,0.010,-1949.122,40.8,4520.220,11303d0b,18,0,24957269.895,0.136,-131151345.422461,0.096,-3236.291,38.5,893.550,18109d24,18,0,24957268.868,0.371,-102195842.622690,0.109,-2521.787,35.0,893.320,11303d2b,11,0,23315375.275,0.072,-122523129.285628,0.010,-2830.092,44.0,4562.160,18109d44,11,0,23315371.226,0.475,-95472553.298941,0.015,-2205.263,32.8,4520.160,11303d4b,28,0,20921947.816,0.041,-109945578.361100,0.006,-1706.286,48.8,4556.990,08109da4,28,0,20921944.103,0.151,-85671870.138728,0.007,-1329.573,42.8,4520.140,01303dab,19,0,21864923.522,0.049,-114900983.352580,0.007,2338.252,47.3,4543.620,18109de4,19,0,21864919.314,0.164,-89533225.670304,0.008,1822.016,42.0,4520.120,11303deb*4a9c4c76
#BESTXYZA,USB3_1,0,85.5,FINESTEERING,1996,45303.000,00000000,fac1,14392;SOL_COMPUTED,SINGLE,-3073914.2103,4088897.9538,3796973.9272,2.8070,2.4109,2.3294,SOL_COMPUTED,DOPPLER_VELOCITY,-0.0750,0.0875,0.0442,0.3355,0.2882,0.2784,"",0.000,0.000,0.000,10,10,10,10,0,06,00,03*1b8913b3
#SATXYZ2A,USB3_1,0,85.5,FINESTEERING,1996,45303.000,00000000,7513,14392;10,GPS,1,-17258349.9786,-4526734.1212,19631427.1360,-11797.364,-2.159,5.132,0.0,0.0,GPS,23,-26669740.0217,451959.4671,-2237102.4810,-65387.182,-1.503,10.784,0.0,0.0,GPS,3,-18690245.0872,5510801.8356,18007367.0859,13866.441,-2.331,3.033,0.0,0.0,GPS,6,4970835.2485,24275995.2337,9562319.6957,122837.314,-1.687,4.370,0.0,0.0,GPS,17,-3486729.6374,14584307.3843,22301490.7492,-32605.675,-2.297,2.874,0.0,0.0,GPS,22,-16469014.1690,-2953693.4082,20874330.2969,-105171.956,-2.217,4.537,0.0,0.0,GPS,18,-18475100.8265,-12762100.8841,13877883.5150,-1735.700,-0.997,20.659,0.0,0.0,GPS,11,-22216384.3831,-4971893.9779,13006362.2587,-221103.210,-2.023,6.227,0.0,0.0,GPS,28,-13191407.5988,22569722.5046,5441534.9220,211188.692,-1.710,2.906,0.0,0.0,GPS,19,3885563.3223,15019182.7359,21242632.2927,-133453.768,-1.591,3.745,0.0,0.0*790617a9
#RANGEA,USB3_1,0,86.0,FINESTEERING,1996,45304.000,00000000,5103,14392;20,1,0,22950458.265,0.065,-120605475.285033,0.009,-2812.270,44.9,4559.040,18109c04,1,0,22950458.802,0.180,-93978294.843551,0.011,-2191.380,41.2,4520.280,11303c0b,23,0,24690176.298,0.109,-129747814.029503,0.016,2225.257,40.4,1177.030,18109c24,23,0,24690172.249,0.437,-101102138.100107,0.026,1733.965,33.6,1173.800,11303c2b,3,0,21148293.285,0.042,-111135037.569651,0.006,-1227.378,48.7,4559.880,18109c44,3,0,21148292.202,0.112,-86598734.468912,0.007,-956.398,45.4,4521.260,11303c4b,6,0,22359560.868,0.051,-117500312.792611,0.008,2132.188,47.0,4497.994,08109c84,6,0,22359560.897,0.133,-91558707.891262,0.009,1661.447,43.9,4489.780,01303c8b,17,0,21310019.405,0.035,-111984924.729876,0.005,1612.652,50.2,4553.996,08109ce4,17,0,21310016.404,0.120,-87260977.614683,0.006,1256.612,44.8,4520.240,01303ceb,22,0,22923695.425,0.058,-120464841.593321,0.008,-2501.924,45.8,4557.760,18109d04,22,0,22923689.601,0.197,-93868689.556277,0.010,-1949.551,40.5,4521.220,11303d0b,18,0,24957885.693,0.137,-131154581.362242,0.061,-3235.840,38.3,894.550,18109d24,18,0,24957884.510,0.427,-102198364.143617,0.071,-2521.431,33.8,894.320,11303d2b,11,0,23315913.814,0.073,-122525959.351042,0.010,-2830.278,43.9,4563.160,18109d44,11,0,23315909.794,0.426,-95474758.547491,0.015,-2205.410,33.8,4521.160,11303d4b,28,0,20922272.577,0.041,-109947284.975951,0.005,-1706.955,48.8,4557.990,08109da4,28,0,20922268.862,0.147,-85673199.969427,0.006,-1330.094,43.0,4521.140,01303dab,19,0,21864478.592,0.050,-114898645.223792,0.007,2337.842,47.2,4544.620,18109de4,19,0,21864474.351,0.159,-89531403.752910,0.008,1821.696,42.3,4521.120,11303deb*76e055c4
#BESTXYZA,USB3_1,0,86.0,FINESTEERING,1996,45304.000,00000000,fac1,14392;SOL_COMPUTED,SINGLE,-3073914.2163,4088897.9675,3796973.9315,2.8074,2.4109,2.3297,SOL_COMPUTED,DOPPLER_VELOCITY,0.0167,-0.0133,-0.0482,0.3356,0.2882,0.2784,"",0.000,0.000,0.000,10,10,10,10,0,06,00,03*c8d5fdbb
#SATXYZ2A,USB3_1,0,86.0,FINESTEERING,1996,45304.000,00000000,7513,14392;10,GPS,1,-17259379.0172,-4529026.7302,19630032.8086,-11797.365,-2.158,5.133,0.0,0.0,GPS,23,-26670040.9126,451647.3611,-2234008.8255,-65387.181,-1.503,10.780,0.0,0.0,GPS,3,-18689120.3760,5508798.0112,18009150.9461,13866.443,-2.330,3.033,0.0,0.0,GPS,6,4970084.7094,24275020.4525,9565196.8655,122837.313,-1.687,4.370,0.0,0.0,GPS,17,-3489445.1650,14583996.7119,22301253.2554,-32605.673,-2.297,2.873,0.0,0.0,GPS,22,-16467778.1217,-2955992.7424,20874987.4397,-105171.960,-2.218,4.537,0.0,0.0,GPS,18,-18475777.9608,-12763822.9526,13875494.3331,-1735.699,-0.997,20.674,0.0,0.0,GPS,11,-22217507.2428,-4973305.4251,13003989.6168,-221103.211,-2.026,6.228,0.0,0.0,GPS,28,-13191927.6799,22570087.4467,5438404.2681,211188.694,-1.710,2.906,0.0,0.0,GPS,19,3882823.3279,15018822.6026,21243396.4919,-133453.768,-1.591,3.745,0.0,0.0*0b191fe7
