#BESTXYZA,USB3_1,0,73.5,FINESTEERING,1996,195835.000,00000000,bde7,12778;SOL_COMPUTED,SINGLE,-3073973.4294,4088871.8164,3796908.1016,4.2752,2.8963,2.9719,SOL_COMPUTED,SINGLE,7.5356e-10,5.6101e-10,7.1044e-10,0.0011,0.0011,0.0011,"",0.150,0.000,0.000,8,8,8,8,0,12,00,01*e502ee24
#RANGEA,USB3_1,0,70.5,FINESTEERING,1996,195836.000,00000000,5103,12778;8,27,0,19942493.103,0.030,-104798486.652418,0.027,-78.451,51.9,123.350,08009c04,9,0,22760990.712,0.259,-119609822.519670,0.073,-68.210,38.8,34.160,08009c24,21,0,24355183.759,0.127,-127987342.601892,0.031,-1670.840,42.0,67.130,18009c44,26,0,22483792.157,0.070,-118153095.987280,0.031,-2064.726,44.5,126.500,18009c64,31,0,24673809.236,0.117,-129661743.422313,0.032,-3301.231,42.9,64.650,08009c84,8,0,21653670.180,0.035,-113790780.956388,0.029,2399.127,50.3,143.200,08009ce4,16,0,20956679.910,0.061,-110128077.406725,0.028,-1213.851,45.4,137.830,18009d24,23,0,22447818.737,0.040,-117964057.491499,0.027,-1856.070,49.1,135.960,18009d64*e15c9e3b
#SATXYZ2A,USB3_1,0,70.5,FINESTEERING,1996,195836.000,00000000,7513,12778;8,GPS,27,-12093591.9372,17107483.0849,16097483.5560,110990.913,3.328,2.444,0.0,0.0,GPS,9,9148356.0905,20165618.5027,14623106.0833,153071.340,6.083,5.126,0.0,0.0,GPS,21,-16423095.0075,-7760027.1577,20186464.5246,-122689.321,6.561,6.757,0.0,0.0,GPS,26,-21408716.2509,-733869.3863,15778983.3136,-56303.433,5.149,4.223,0.0,0.0,GPS,31,-25141908.4904,5693412.3719,-7209698.9776,38836.234,8.973,11.606,0.0,0.0,GPS,8,-4814419.5727,25625556.2527,4668880.5713,-29176.648,4.662,3.488,0.0,0.0,GPS,16,-14335201.8633,6498001.9836,21315919.9418,8417.240,3.789,2.929,0.0,0.0,GPS,23,1100244.4942,26078488.6942,3716347.8409,-65361.336,5.801,4.544,0.0,0.0*38ee7a21
#BESTPOSA,USB3_1,0,70.5,FINESTEERING,1996,195836.000,00000000,7145,12778;SOL_COMPUTED,SINGLE,36.76857147482,126.93548326382,72.6020,23.3000,WGS84,3.6399,2.5067,3.7605,"",0.000,0.000,8,8,8,8,0,12,00,01*27d283ba
#RANGEA,USB3_1,0,68.0,FINESTEERING,1996,195837.000,00000000,5103,12778;8,27,0,19942508.229,0.030,-104798566.113411,0.029,-80.690,51.9,124.350,08009c04,9,0,22761003.881,0.310,-119609891.542021,0.096,-70.382,37.1,35.160,08009c24,21,0,24355501.879,0.120,-127989014.324510,0.032,-1672.750,42.5,68.130,18009c44,26,0,22484185.211,0.066,-118155161.500398,0.030,-2066.574,44.9,127.500,18009c64,31,0,24674437.622,0.106,-129665045.469164,0.032,-3303.122,43.7,65.650,08009c84,8,0,21653213.801,0.034,-113788382.629232,0.031,2397.272,50.4,144.200,08009ce4,16,0,20956911.080,0.055,-110129292.297632,0.029,-1215.988,46.2,138.830,18009d24,23,0,22448172.112,0.040,-117965914.512403,0.030,-1858.269,49.0,136.960,18009d64*bb4a7577
#SATXYZ2A,USB3_1,0,68.0,FINESTEERING,1996,195837.000,00000000,7513,12778;8,GPS,27,-12093620.0752,17105411.9883,16099678.7398,110990.912,3.328,2.444,0.0,0.0,GPS,9,9148012.8359,20167465.6828,14620777.3759,153071.340,6.083,5.126,0.0,0.0,GPS,21,-16421044.3205,-7761271.9299,20187704.5880,-122689.317,6.561,6.758,0.0,0.0,GPS,26,-21410281.5686,-735131.1956,15776815.0442,-56303.429,5.150,4.223,0.0,0.0,GPS,31,-25141168.2871,5692836.8656,-7212676.7371,38836.234,8.974,11.612,0.0,0.0,GPS,8,-4814643.8581,25624952.6394,4672010.5958,-29176.649,4.662,3.487,0.0,0.0,GPS,16,-14337299.9812,6496260.0784,21315086.9042,8417.240,3.789,2.929,0.0,0.0,GPS,23,1099853.5726,26078910.6583,3713229.8478,-65361.337,5.801,4.545,0.0,0.0*d6393819
#BESTPOSA,USB3_1,0,68.0,FINESTEERING,1996,195837.000,00000000,7145,12778;SOL_COMPUTED,SINGLE,36.76857147482,126.93548326382,72.6020,23.3000,WGS84,3.6399,2.5067,3.7605,"",0.000,0.000,8,8,8,8,0,12,00,01*3688b953
#RANGEA,USB3_1,0,68.0,FINESTEERING,1996,195838.000,00000000,5103,12778;8,27,0,19942523.246,0.030,-104798645.006794,0.029,-80.421,51.9,125.350,08009c04,9,0,22761016.759,0.315,-119609960.117006,0.066,-70.579,36.9,36.160,08009c24,21,0,24355819.876,0.125,-127990685.347938,0.031,-1672.711,42.1,69.130,18009c44,26,0,22484578.067,0.070,-118157226.021402,0.032,-2066.515,44.3,128.500,18009c64,31,0,24675065.858,0.097,-129668346.552067,0.032,-3302.416,44.4,66.650,08009c84,8,0,21652757.293,0.035,-113785983.593542,0.029,2397.588,50.2,145.200,08009ce4,16,0,20957142.063,0.058,-110130506.235742,0.030,-1215.553,45.8,139.830,18009d24,23,0,22448525.364,0.041,-117967770.846336,0.030,-1857.906,48.8,137.960,18009d64*5cb64e11
#SATXYZ2A,USB3_1,0,68.0,FINESTEERING,1996,195838.000,00000000,7513,12778;8,GPS,27,-12093648.3183,17103340.6171,16101873.5757,110990.912,3.328,2.444,0.0,0.0,GPS,9,9147669.7041,20169312.5899,14618448.3566,153071.340,6.083,5.126,0.0,0.0,GPS,21,-16418993.5756,-7762516.8879,20188944.2496,-122689.314,6.561,6.759,0.0,0.0,GPS,26,-21411846.7310,-736392.7650,15774646.4408,-56303.425,5.150,4.224,0.0,0.0,GPS,31,-25140427.7789,5692261.1633,-7215654.3467,38836.234,8.975,11.618,0.0,0.0,GPS,8,-4814868.1538,25624348.6455,4675140.5201,-29176.649,4.661,3.487,0.0,0.0,GPS,16,-14339398.1223,6494518.3745,21314253.4098,8417.239,3.789,2.929,0.0,0.0,GPS,23,1099462.6945,26079332.2508,3710111.7740,-65361.338,5.802,4.545,0.0,0.0*bbe5ceb8
#BESTPOSA,USB3_1,0,68.0,FINESTEERING,1996,195838.000,00000000,7145,12778;SOL_COMPUTED,SINGLE,36.76857197152,126.93548283569,72.5916,23.3000,WGS84,3.5261,2.4270,3.7066,"",0.000,0.000,8,8,8,8,0,12,00,01*daf5edcf
#RANGEA,USB3_1,0,68.5,FINESTEERING,1996,195839.000,00000000,5103,12778;8,27,0,19942538.335,0.030,-104798724.301344,0.034,-81.969,51.8,126.350,08009c04,9,0,22761029.704,0.253,-119610029.072088,0.086,-71.093,38.6,37.160,08009c24,21,0,24356137.944,0.126,-127992356.604612,0.093,-1673.542,41.9,70.130,18009c44,26,0,22484970.920,0.069,-118159290.502456,0.038,-2067.003,44.4,129.500,18009c64,31,0,24675694.078,0.116,-129671647.601970,0.035,-3303.458,42.8,67.650,08009c84,8,0,21652300.831,0.035,-113783584.809740,0.034,2396.167,50.1,146.200,08009ce4,16,0,20957373.059,0.063,-110131720.225252,0.034,-1216.499,45.1,140.830,18009d24,23,0,22448878.661,0.041,-117969627.457622,0.034,-1859.293,48.9,138.960,18009d64*25dc185f
#SATXYZ2A,USB3_1,0,68.5,FINESTEERING,1996,195839.000,00000000,7513,12778;8,GPS,27,-12093676.6665,17101268.9714,16104068.0635,110990.911,3.328,2.444,0.0,0.0,GPS,9,9147326.6952,20171159.2242,14616119.0255,153071.341,6.083,5.126,0.0,0.0,GPS,21,-16416942.7728,-7763762.0318,20190183.5094,-122689.310,6.561,6.760,0.0,0.0,GPS,26,-21413411.7381,-737654.0944,15772477.5035,-56303.421,5.150,4.224,0.0,0.0,GPS,31,-25139686.9658,5691685.2649,-7218631.8062,38836.234,8.976,11.623,0.0,0.0,GPS,8,-4815092.4600,25623744.2709,4678270.3440,-29176.650,4.661,3.486,0.0,0.0,GPS,16,-14341496.2864,6492776.8721,21313419.4588,8417.239,3.789,2.930,0.0,0.0,GPS,23,1099071.8598,26079753.4718,3706993.6194,-65361.338,5.802,4.546,0.0,0.0*e73d7466
#BESTPOSA,USB3_1,0,68.5,FINESTEERING,1996,195839.000,00000000,7145,12778;SOL_COMPUTED,SINGLE,36.76857195525,126.93548288314,72.5910,23.3000,WGS84,3.5767,2.4642,3.7596,"",0.000,0.000,8,8,8,8,0,12,00,01*efb825b7
#RANGEA,USB3_1,0,70.0,FINESTEERING,1996,195840.000,00000000,5103,12778;8,27,0,19942553.643,0.030,-104798804.722254,0.033,-79.504,51.9,127.350,08009c04,9,0,22761043.123,0.255,-119610099.249622,0.091,-69.770,38.4,38.160,08009c24,21,0,24356456.225,0.136,-127994028.876907,0.063,-1671.602,41.2,71.130,18009c44,26,0,22485363.889,0.070,-118161355.606039,0.037,-2064.115,44.3,130.500,18009c64,31,0,24676322.431,0.098,-129674949.331846,0.036,-3300.646,44.2,68.650,08009c84,8,0,21651844.540,0.036,-113781186.980427,0.033,2398.664,50.1,147.200,08009ce4,16,0,20957604.202,0.057,-110132934.953569,0.033,-1213.563,46.0,141.830,18009d24,23,0,22449232.156,0.041,-117971485.076935,0.033,-1856.594,48.9,139.960,18009d64*005037bb
#SATXYZ2A,USB3_1,0,70.0,FINESTEERING,1996,195840.000,00000000,7513,12778;8,GPS,27,-12093705.1198,17099197.0511,16106262.2032,110990.911,3.328,2.444,0.0,0.0,GPS,9,9146983.8092,20173005.5854,14613789.3825,153071.341,6.083,5.126,0.0,0.0,GPS,21,-16414891.9123,-7765007.3616,20191422.3672,-122689.306,6.562,6.761,0.0,0.0,GPS,26,-21414976.5899,-738915.1839,15770308.2323,-56303.417,5.151,4.225,0.0,0.0,GPS,31,-25138945.8480,5691109.1705,-7221609.1157,38836.234,8.977,11.629,0.0,0.0,GPS,8,-4815316.7767,25623139.5158,4681400.0677,-29176.651,4.660,3.486,0.0,0.0,GPS,16,-14343594.4735,6491035.5711,21312585.0511,8417.238,3.789,2.930,0.0,0.0,GPS,23,1098681.0685,26080174.3211,3703875.3841,-65361.339,5.803,4.547,0.0,0.0*d7522137
#BESTPOSA,USB3_1,0,70.0,FINESTEERING,1996,195840.000,00000000,7145,12778;SOL_COMPUTED,SINGLE,36.76857362075,126.93548141988,72.5632,23.3000,WGS84,3.2519,2.2380,3.6170,"",0.000,0.000,8,8,8,8,0,02,00,01*4e257a16
#RANGEA,USB3_1,0,68.0,FINESTEERING,1996,195841.000,00000000,5103,12778;8,27,0,19942568.888,0.029,-104798884.832054,0.027,-80.262,51.9,128.350,08009c04,9,0,22761056.336,0.311,-119610169.144995,0.064,-70.748,36.6,39.160,08009c24,21,0,24356774.368,0.130,-127995700.693107,0.043,-1671.522,41.6,72.130,18009c44,26,0,22485756.719,0.069,-118163420.046325,0.031,-2064.286,44.4,131.500,18009c64,31,0,24676950.609,0.097,-129678250.329435,0.030,-3301.042,44.2,69.650,08009c84,8,0,21651388.170,0.035,-113778788.706936,0.027,2398.363,50.2,148.200,08009ce4,16,0,20957835.221,0.055,-110134148.998926,0.028,-1214.172,46.3,142.830,18009d24,23,0,22449585.570,0.042,-117973342.281936,0.028,-1857.252,48.7,140.960,18009d64*f0b50ece
#SATXYZ2A,USB3_1,0,68.0,FINESTEERING,1996,195841.000,00000000,7513,12778;8,GPS,27,-12093733.6782,17097124.8564,16108455.9948,110990.910,3.328,2.444,0.0,0.0,GPS,9,9146641.0459,20174851.6737,14611459.4277,153071.341,6.084,5.126,0.0,0.0,GPS,21,-16412840.9940,-7766252.8773,20192660.8232,-122689.303,6.562,6.762,0.0,0.0,GPS,26,-21416541.2861,-740176.0335,15768138.6273,-56303.412,5.151,4.225,0.0,0.0,GPS,31,-25138204.4253,5690532.8799,-7224586.2751,38836.234,8.979,11.635,0.0,0.0,GPS,8,-4815541.1040,25622534.3800,4684529.6908,-29176.651,4.659,3.486,0.0,0.0,GPS,16,-14345692.6836,6489294.4716,21311750.1868,8417.238,3.789,2.930,0.0,0.0,GPS,23,1098290.3204,26080594.7988,3700757.0683,-65361.340,5.804,4.547,0.0,0.0*ce6d5120
#BESTPOSA,USB3_1,0,68.0,FINESTEERING,1996,195841.000,00000000,7145,12778;SOL_COMPUTED,SINGLE,36.76857361588,126.93548142307,72.5638,23.3000,WGS84,3.2079,2.2079,3.5680,"",0.000,0.000,8,8,8,8,0,12,00,01*d8da5a2f
#RANGEA,USB3_1,0,68.0,FINESTEERING,1996,195842.000,00000000,5103,12778;8,27,0,19942584.443,0.029,-104798966.554554,0.030,-82.924,51.9,129.350,08009c04,9,0,22761069.856,0.339,-119610240.656095,0.079,-72.767,37.8,40.160,08009c24,21,0,24357092.786,0.137,-127997374.025602,0.038,-1674.385,41.0,73.130,18009c44,26,0,22486149.759,0.072,-118165485.588642,0.033,-2066.283,44.0,132.500,18009c64,31,0,24677579.046,0.099,-129681552.472797,0.032,-3303.127,44.0,70.650,08009c84,8,0,21650932.085,0.035,-113776391.887304,0.029,2395.708,50.1,149.200,08009ce4,16,0,20958066.484,0.053,-110135364.316946,0.030,-1216.575,46.7,143.830,18009d24,23,0,22449939.261,0.042,-117975200.964449,0.030,-1859.779,48.8,141.960,18009d64*fdab4910
#SATXYZ2A,USB3_1,0,68.0,FINESTEERING,1996,195842.000,00000000,7513,12778;8,GPS,27,-12093762.3418,17095052.3873,16110649.4381,110990.910,3.328,2.444,0.0,0.0,GPS,9,9146298.4054,20176697.4889,14609129.1613,153071.342,6.084,5.126,0.0,0.0,GPS,21,-16410790.0179,-7767498.5788,20193898.8772,-122689.299,6.562,6.763,0.0,0.0,GPS,26,-21418105.8269,-741436.6432,15765968.6885,-56303.408,5.152,4.226,0.0,0.0,GPS,31,-25137462.6979,5689956.3931,-7227563.2842,38836.234,8.980,11.641,0.0,0.0,GPS,8,-4815765.4419,25621928.8636,4687659.2135,-29176.652,4.659,3.485,0.0,0.0,GPS,16,-14347790.9166,6487553.5736,21310914.8659,8417.237,3.789,2.930,0.0,0.0,GPS,23,1097899.6156,26081014.9048,3697638.6720,-65361.340,5.804,4.548,0.0,0.0*5f2e23e9
#BESTPOSA,USB3_1,0,68.0,FINESTEERING,1996,195842.000,00000000,7145,12778;SOL_COMPUTED,SINGLE,36.76857361588,126.93548142307,72.5638,23.3000,WGS84,3.1884,2.1945,3.5464,"",0.000,0.000,8,8,8,8,0,12,00,01*6852d244
#RANGEA,USB3_1,0,69.5,FINESTEERING,1996,195843.000,00000000,5103,12778;8,27,0,19942600.042,0.030,-104799048.497343,0.035,-84.088,51.8,130.350,08009c04,9,0,22761083.465,0.283,-119610312.393482,0.096,-73.691,38.8,41.160,08009c24,21,0,24357411.241,0.147,-127999047.342554,0.110,-1675.043,40.3,74.130,18009c44,26,0,22486542.775,0.077,-118167550.980057,0.072,-2067.786,43.4,133.500,18009c64,31,0,24678207.410,0.103,-129684854.413566,0.080,-3304.168,43.6,71.650,08009c84,8,0,21650476.006,0.036,-113773995.142654,0.034,2394.607,49.9,150.200,08009ce4,16,0,20958297.716,0.061,-110136579.476095,0.035,-1217.203,45.4,144.830,18009d24,23,0,22450292.975,0.041,-117977059.760032,0.036,-1860.920,48.8,142.960,18009d64*cb3b6c87
#SATXYZ2A,USB3_1,0,69.5,FINESTEERING,1996,195843.000,00000000,7513,12778;8,GPS,27,-12093791.1106,17092979.6439,16112842.5333,110990.909,3.328,2.444,0.0,0.0,GPS,9,9145955.8876,20178543.0309,14606798.5831,153071.342,6.084,5.126,0.0,0.0,GPS,21,-16408738.9843,-7768744.4662,20195136.5293,-122689.296,6.562,6.764,0.0,0.0,GPS,26,-21419670.2121,-742697.0129,15763798.4160,-56303.404,5.152,4.226,0.0,0.0,GPS,31,-25136720.6658,5689379.7101,-7230540.1432,38836.234,8.981,11.647,0.0,0.0,GPS,8,-4815989.7904,25621322.9666,4690788.6357,-29176.653,4.658,3.485,0.0,0.0,GPS,16,-14349889.1724,6485812.8771,21310079.0884,8417.237,3.789,2.930,0.0,0.0,GPS,23,1097508.9540,26081434.6392,3694520.1952,-65361.341,5.805,4.548,0.0,0.0*fdd79498
#BESTPOSA,USB3_1,0,69.5,FINESTEERING,1996,195843.000,00000000,7145,12778;SOL_COMPUTED,SINGLE,36.76857401136,126.93548105920,72.5583,23.3000,WGS84,3.1758,2.1880,3.5709,"",0.000,0.000,8,8,8,8,0,02,00,01*9ac2645e
#RANGEA,USB3_1,0,67.5,FINESTEERING,1996,195844.000,00000000,5103,12778;8,27,0,19942615.902,0.029,-104799131.853107,0.032,-83.704,51.8,131.350,08009c04,9,0,22761097.425,0.248,-119610385.699652,0.065,-73.654,39.2,42.160,08009c24,21,0,24357729.943,0.131,-128000722.052070,0.072,-1675.001,41.3,75.130,18009c44,26,0,22486935.982,0.068,-118169617.312256,0.051,-2066.568,44.5,134.500,18009c64,31,0,24678835.987,0.103,-129688157.341434,0.055,-3302.928,43.6,72.650,08009c84,8,0,21650020.161,0.036,-113771599.657305,0.031,2395.111,49.9,151.200,08009ce4,16,0,20958529.139,0.060,-110137795.665434,0.032,-1216.313,45.6,145.830,18009d24,23,0,22450646.937,0.039,-117978919.854622,0.032,-1860.316,49.3,143.960,18009d64*2e9ff303
#SATXYZ2A,USB3_1,0,67.5,FINESTEERING,1996,195844.000,00000000,7513,12778;8,GPS,27,-12093819.9848,17090906.6262,16115035.2802,110990.909,3.328,2.444,0.0,0.0,GPS,9,9145613.4925,20180388.2998,14604467.6934,153071.342,6.084,5.126,0.0,0.0,GPS,21,-16406687.8931,-7769990.5394,20196373.7794,-122689.292,6.562,6.764,0.0,0.0,GPS,26,-21421234.4417,-743957.1428,15761627.8098,-56303.400,5.152,4.227,0.0,0.0,GPS,31,-25135978.3291,5688802.8309,-7233516.8518,38836.234,8.982,11.652,0.0,0.0,GPS,8,-4816214.1496,25620716.6891,4693917.9571,-29176.653,4.658,3.484,0.0,0.0,GPS,16,-14351987.4510,6484072.3822,21309242.8543,8417.236,3.789,2.930,0.0,0.0,GPS,23,1097118.3355,26081854.0019,3691401.6380,-65361.342,5.805,4.549,0.0,0.0*d1d461dc
#BESTPOSA,USB3_1,0,67.5,FINESTEERING,1996,195844.000,00000000,7145,12778;SOL_COMPUTED,SINGLE,36.76857517196,126.93548000523,72.5513,23.3000,WGS84,2.9310,2.0181,3.4269,"",0.000,0.000,8,8,8,8,0,12,00,01*4a736d80
#RANGEA,USB3_1,0,67.5,FINESTEERING,1996,195845.000,00000000,5103,12778;8,27,0,19942631.980,0.030,-104799216.338476,0.031,-84.156,51.8,132.350,08009c04,9,0,22761111.575,0.213,-119610460.119943,0.047,-74.190,39.9,43.160,08009c24,21,0,24358048.836,0.132,-128002397.688757,0.051,-1675.651,41.1,76.130,18009c44,26,0,22487329.306,0.070,-118171684.329477,0.040,-2066.610,44.2,135.500,18009c64,31,0,24679464.662,0.101,-129691460.955452,0.042,-3303.040,43.6,73.650,08009c84,8,0,21649564.499,0.036,-113769205.112081,0.031,2394.827,50.1,152.200,08009ce4,16,0,20958760.711,0.057,-110139012.641613,0.031,-1216.369,46.0,146.830,18009d24,23,0,22451001.086,0.041,-117980780.921289,0.032,-1860.589,49.0,144.960,18009d64*6961bc01
#SATXYZ2A,USB3_1,0,67.5,FINESTEERING,1996,195845.000,00000000,7513,12778;8,GPS,27,-12093848.9642,17088833.3342,16117227.6787,110990.908,3.328,2.444,0.0,0.0,GPS,9,9145271.2200,20182233.2955,14602136.4920,153071.343,6.084,5.127,0.0,0.0,GPS,21,-16404636.7443,-7771236.7984,20197610.6274,-122689.288,6.563,6.765,0.0,0.0,GPS,26,-21422798.5156,-745217.0327,15759456.8700,-56303.396,5.153,4.227,0.0,0.0,GPS,31,-25135235.6877,5688225.7554,-7236493.4100,38836.234,8.983,11.658,0.0,0.0,GPS,8,-4816438.5196,25620110.0310,4697047.1779,-29176.654,4.657,3.484,0.0,0.0,GPS,16,-14354085.7523,6482332.0889,21308406.1636,8417.236,3.789,2.930,0.0,0.0,GPS,23,1096727.7602,26082272.9930,3688283.0005,-65361.342,5.806,4.550,0.0,0.0*26390855
#BESTPOSA,USB3_1,0,67.5,FINESTEERING,1996,195845.000,00000000,7145,12778;SOL_COMPUTED,SINGLE,36.76857517196,126.93548000523,72.5513,23.3000,WGS84,2.8958,1.9938,3.3857,"",0.000,0.000,8,8,8,8,0,12,00,01*23fb391e
#RANGEA,USB3_1,0,69.0,FINESTEERING,1996,195846.000,00000000,5103,12778;8,27,0,19942648.430,0.029,-104799302.808986,0.032,-86.709,51.8,133.350,08009c04,9,0,22761126.054,0.234,-119610536.516388,0.041,-76.477,38.6,44.160,08009c24,21,0,24358368.071,0.133,-128004075.210327,0.041,-1677.541,41.0,77.130,18009c44,26,0,22487722.936,0.069,-118173752.896107,0.036,-2068.571,44.3,136.500,18009c64,31,0,24680093.614,0.100,-129694766.122881,0.037,-3305.132,43.7,74.650,08009c84,8,0,21649109.182,0.036,-113766812.416986,0.032,2392.610,50.0,153.200,08009ce4,16,0,20958992.590,0.062,-110140231.200620,0.032,-1218.785,45.3,147.830,18009d24,23,0,22451355.597,0.040,-117982643.878422,0.032,-1863.083,49.0,145.960,18009d64*48c0a528
#SATXYZ2A,USB3_1,0,69.0,FINESTEERING,1996,195846.000,00000000,7513,12778;8,GPS,27,-12093878.0489,17086759.7681,16119419.7289,110990.908,3.328,2.444,0.0,0.0,GPS,9,9144929.0702,20184078.0179,14599804.9792,153071.343,6.084,5.127,0.0,0.0,GPS,21,-16402585.5381,-7772483.2432,20198847.0735,-122689.285,6.563,6.766,0.0,0.0,GPS,26,-21424362.4338,-746476.6827,15757285.5965,-56303.392,5.153,4.228,0.0,0.0,GPS,31,-25134492.7417,5687648.4836,-7239469.8178,38836.234,8.985,11.664,0.0,0.0,GPS,8,-4816662.9003,25619502.9924,4700176.2980,-29176.655,4.656,3.483,0.0,0.0,GPS,16,-14356184.0762,6480591.9972,21307569.0165,8417.235,3.790,2.931,0.0,0.0,GPS,23,1096337.2279,26082691.6123,3685164.2828,-65361.343,5.806,4.550,0.0,0.0*b0e3107a
#BESTPOSA,USB3_1,0,69.0,FINESTEERING,1996,195846.000,00000000,7145,12778;SOL_COMPUTED,SINGLE,36.76857543254,126.93547977343,72.5497,23.3000,WGS84,2.8260,1.9448,3.3322,"",0.000,0.000,8,8,8,8,0,12,00,01*5a7313b6
#RANGEA,USB3_1,0,73.0,FINESTEERING,1996,195847.000,00000000,5103,12778;8,27,0,19942664.737,0.029,-104799388.530779,0.029,-81.636,51.8,134.350,08009c04,9,0,22761140.480,0.238,-119610612.243576,0.090,-71.594,38.3,45.160,08009c24,21,0,24358687.118,0.138,-128005751.820402,0.034,-1672.610,40.7,78.130,18009c44,26,0,22488116.325,0.070,-118175820.270527,0.037,-2062.944,44.2,137.500,18009c64,31,0,24680722.373,0.095,-129698070.137459,0.033,-3300.045,44.0,75.650,08009c84,8,0,21648653.698,0.036,-113764418.800167,0.029,2397.792,50.0,154.200,08009ce4,16,0,20959224.260,0.061,-110141448.653473,0.029,-1212.948,45.4,148.830,18009d24,23,0,22451709.941,0.041,-117984505.965170,0.029,-1857.973,48.8,146.960,18009d64*8a943c63
#SATXYZ2A,USB3_1,0,73.0,FINESTEERING,1996,195847.000,00000000,7513,12778;8,GPS,27,-12093907.2391,17084685.9278,16121611.4307,110990.907,3.328,2.444,0.0,0.0,GPS,9,9144587.0430,20185922.4670,14597473.1549,153071.343,6.084,5.127,0.0,0.0,GPS,21,-16400534.2745,-7773729.8739,20200083.1175,-122689.281,6.563,6.767,0.0,0.0,GPS,26,-21425926.1962,-747736.0929,15755113.9896,-56303.388,5.154,4.228,0.0,0.0,GPS,31,-25133749.4912,5687071.0155,-7242446.0752,38836.234,8.986,11.670,0.0,0.0,GPS,8,-4816887.2920,25618895.5732,4703305.3172,-29176.655,4.656,3.483,0.0,0.0,GPS,16,-14358282.4227,6478852.1072,21306731.4128,8417.235,3.790,2.931,0.0,0.0,GPS,23,1095946.7386,26083109.8599,3682045.4849,-65361.344,5.807,4.551,0.0,0.0*6e8aee91
#BESTPOSA,USB3_1,0,73.0,FINESTEERING,1996,195847.000,00000000,7145,12778;SOL_COMPUTED,SINGLE,36.76857543254,126.93547977343,72.5497,23.3000,WGS84,2.8191,1.9401,3.3241,"",0.000,0.000,8,8,8,8,0,12,00,01*39b162a6
#RANGEA,USB3_1,0,69.0,FINESTEERING,1996,195848.000,00000000,5103,12778;8,27,0,19942680.787,0.029,-104799472.877521,0.026,-85.308,51.8,135.350,08009c04,9,0,22761154.474,0.243,-119610686.647688,0.062,-75.569,38.0,46.160,08009c24,21,0,24359005.879,0.132,-128007426.929926,0.030,-1675.771,41.0,79.130,18009c44,26,0,22488509.374,0.071,-118177885.854358,0.033,-2066.193,44.1,138.500,18009c64,31,0,24681350.764,0.094,-129701372.283388,0.028,-3303.054,44.1,76.650,08009c84,8,0,21648197.923,0.036,-113762023.680404,0.027,2394.235,50.1,155.200,08009ce4,16,0,20959455.606,0.058,-110142664.391378,0.027,-1216.548,45.9,149.830,18009d24,23,0,22452063.998,0.041,-117986366.555570,0.027,-1861.530,48.9,147.960,18009d64*ad96a632
#SATXYZ2A,USB3_1,0,69.0,FINESTEERING,1996,195848.000,00000000,7513,12778;8,GPS,27,-12093936.5346,17082611.8134,16123802.7840,110990.906,3.328,2.444,0.0,0.0,GPS,9,9144245.1383,20187766.6428,14595141.0191,153071.344,6.084,5.127,0.0,0.0,GPS,21,-16398482.9536,-7774976.6904,20201318.7595,-122689.278,6.563,6.768,0.0,0.0,GPS,26,-21427489.8027,-748995.2631,15752942.0491,-56303.384,5.154,4.229,0.0,0.0,GPS,31,-25133005.9362,5686493.3510,-7245422.1819,38836.234,8.987,11.676,0.0,0.0,GPS,8,-4817111.6945,25618287.7735,4706434.2355,-29176.656,4.655,3.482,0.0,0.0,GPS,16,-14360380.7917,6477112.4189,21305893.3526,8417.234,3.790,2.931,0.0,0.0,GPS,23,1095556.2922,26083527.7358,3678926.6069,-65361.344,5.807,4.551,0.0,0.0*2019d06c
#BESTPOSA,USB3_1,0,69.0,FINESTEERING,1996,195848.000,00000000,7145,12778;SOL_COMPUTED,SINGLE,36.76857543254,126.93547977343,72.5497,23.3000,WGS84,2.8160,1.9380,3.3205,"",0.000,0.000,8,8,8,8,0,12,00,01*3b2ec43d
#RANGEA,USB3_1,0,69.0,FINESTEERING,1996,195849.000,00000000,5103,12778;8,27,0,19942696.745,0.029,-104799556.761638,0.026,-84.442,51.8,136.350,08009c04,9,0,22761168.547,0.318,-119610760.655195,0.107,-74.357,35.6,47.160,08009c24,21,0,24359324.480,0.145,-128009101.439367,0.029,-1675.112,40.1,80.130,18009c44,26,0,22488902.251,0.070,-118179950.519861,0.029,-2064.808,44.2,139.500,18009c64,31,0,24681978.985,0.090,-129704673.551174,0.027,-3301.741,44.4,77.650,08009c84,8,0,21647742.034,0.035,-113759627.938522,0.026,2395.249,50.2,156.200,08009ce4,16,0,20959686.787,0.060,-110143879.245937,0.027,-1215.353,45.6,150.830,18009d24,23,0,22452417.943,0.041,-117988226.556728,0.026,-1860.478,48.9,148.960,18009d64*7e6e6f1d
#SATXYZ2A,USB3_1,0,69.0,FINESTEERING,1996,195849.000,00000000,7513,12778;8,GPS,27,-12093965.9357,17080537.4249,16125993.7888,110990.906,3.328,2.444,0.0,0.0,GPS,9,9143903.3561,20189610.5451,14592808.5720,153071.344,6.084,5.127,0.0,0.0,GPS,21,-16396431.5753,-7776223.6926,20202553.9993,-122689.274,6.563,6.769,0.0,0.0,GPS,26,-21429053.2533,-750254.1935,15750769.7752,-56303.380,5.154,4.229,0.0,0.0,GPS,31,-25132262.0767,5685915.4900,-7248398.1381,38836.234,8.988,11.681,0.0,0.0,GPS,8,-4817336.1081,25617679.5933,4709563.0528,-29176.657,4.655,3.482,0.0,0.0,GPS,16,-14362479.1832,6475372.9324,21305054.8359,8417.233,3.790,2.931,0.0,0.0,GPS,23,1095165.8888,26083945.2399,3675807.6489,-65361.345,5.808,4.552,0.0,0.0*3de78325
#BESTPOSA,USB3_1,0,69.0,FINESTEERING,1996,195849.000,00000000,7145,12778;SOL_COMPUTED,SINGLE,36.76857570598,126.93547953380,72.5462,23.3000,WGS84,2.7640,1.9013,3.2852,"",0.000,0.000,8,8,8,8,0,12,00,01*9f1e6b5d
#RANGEA,USB3_1,0,69.5,FINESTEERING,1996,195850.000,00000000,5103,12778;8,27,0,19942712.694,0.030,-104799640.584644,0.029,-83.629,51.8,137.350,08009c04,9,0,22761182.490,0.331,-119610834.593086,0.107,-73.911,35.2,48.160,08009c24,21,0,24359643.116,0.153,-128010775.747776,0.033,-1674.144,39.7,81.130,18009c44,26,0,22489295.044,0.073,-118182014.688885,0.032,-2063.684,43.9,140.500,18009c64,31,0,24682607.129,0.090,-129707974.304344,0.031,-3300.156,44.3,78.650,08009c84,8,0,21647286.105,0.035,-113757231.979725,0.029,2396.229,50.2,157.200,08009ce4,16,0,20959917.882,0.060,-110145093.684233,0.029,-1214.090,45.6,151.830,18009d24,23,0,22452771.858,0.042,-117990086.362470,0.029,-1859.551,48.8,149.960,18009d64*d1b6cc1a
#SATXYZ2A,USB3_1,0,69.5,FINESTEERING,1996,195850.000,00000000,7513,12778;8,GPS,27,-12093995.4422,17078462.7624,16128184.4450,110990.905,3.328,2.444,0.0,0.0,GPS,9,9143561.6964,20191454.1740,14590475.8135,153071.344,6.084,5.127,0.0,0.0,GPS,21,-16394380.1398,-7777470.8806,20203788.8371,-122689.271,6.564,6.770,0.0,0.0,GPS,26,-21430616.5479,-751512.8839,15748597.1678,-56303.376,5.155,4.230,0.0,0.0,GPS,31,-25131517.9128,5685337.4326,-7251373.9435,38836.234,8.989,11.687,0.0,0.0,GPS,8,-4817560.5326,25617071.0326,4712691.7692,-29176.658,4.654,3.482,0.0,0.0,GPS,16,-14364577.5971,6473633.6476,21304215.8628,8417.233,3.790,2.931,0.0,0.0,GPS,23,1094775.5283,26084362.3722,3672688.6108,-65361.346,5.809,4.553,0.0,0.0*c3403084
#BESTPOSA,USB3_1,0,69.5,FINESTEERING,1996,195850.000,00000000,7145,12778;SOL_COMPUTED,SINGLE,36.76857570598,126.93547953380,72.5462,23.3000,WGS84,2.7634,1.9009,3.2845,"",0.000,0.000,8,8,8,8,0,12,00,01*971db5b8
#RANGEA,USB3_1,0,70.0,FINESTEERING,1996,195851.000,00000000,5103,12778;8,27,0,19942728.551,0.030,-104799723.943666,0.028,-84.552,51.7,138.350,08009c04,9,0,22761196.374,0.245,-119610908.110920,0.103,-74.828,37.7,49.160,08009c24,21,0,24359961.596,0.147,-128012449.470257,0.032,-1674.636,39.9,82.130,18009c44,26,0,22489687.655,0.070,-118184077.953203,0.032,-2064.076,44.2,141.500,18009c64,31,0,24683235.076,0.090,-129711274.189829,0.028,-3301.140,44.3,79.650,08009c84,8,0,21646830.057,0.035,-113754835.414491,0.027,2395.335,50.3,158.200,08009ce4,16,0,20960148.812,0.061,-110146307.308468,0.028,-1214.615,45.5,152.830,18009d24,23,0,22453125.655,0.041,-117991945.607660,0.028,-1860.411,48.8,150.960,18009d64*7d152637
#SATXYZ2A,USB3_1,0,70.0,FINESTEERING,1996,195851.000,00000000,7513,12778;8,GPS,27,-12094025.0543,17076387.8260,16130374.7526,110990.905,3.328,2.444,0.0,0.0,GPS,9,9143220.1592,20193297.5295,14588142.7438,153071.345,6.084,5.127,0.0,0.0,GPS,21,-16392328.6472,-7778718.2545,20205023.2727,-122689.267,6.564,6.771,0.0,0.0,GPS,26,-21432179.6865,-752771.3345,15746424.2271,-56303.372,5.155,4.230,0.0,0.0,GPS,31,-25130773.4445,5684759.1787,-7254349.5982,38836.234,8.991,11.693,0.0,0.0,GPS,8,-4817784.9682,25616462.0913,4715820.3844,-29176.658,4.653,3.481,0.0,0.0,GPS,16,-14366676.0333,6471894.5645,21303376.4333,8417.232,3.790,2.931,0.0,0.0,GPS,23,1094385.2105,26084779.1328,3669569.4929,-65361.346,5.809,4.553,0.0,0.0*9a960e50
#BESTPOSA,USB3_1,0,70.0,FINESTEERING,1996,195851.000,00000000,7145,12778;SOL_COMPUTED,SINGLE,36.76857601302,126.93547926490,72.5399,23.3000,WGS84,2.7153,1.8669,3.2517,"",0.000,0.000,8,8,8,8,0,12,00,01*e766d6a2
#RANGEA,USB3_1,0,69.5,FINESTEERING,1996,195852.000,00000000,5103,12778;8,27,0,19942744.495,0.030,-104799807.729490,0.030,-85.624,51.8,139.350,08009c04,9,0,22761210.405,0.261,-119610982.079260,0.070,-76.087,37.0,50.160,08009c24,21,0,24360280.096,0.143,-128014123.485014,0.032,-1675.714,40.1,83.130,18009c44,26,0,22490080.274,0.073,-118186141.219026,0.033,-2064.930,43.9,142.500,18009c64,31,0,24683863.035,0.087,-129714574.054504,0.032,-3301.600,44.6,80.650,08009c84,8,0,21646374.063,0.035,-113752439.126978,0.030,2394.574,50.2,159.200,08009ce4,16,0,20960379.757,0.059,-110147520.968616,0.031,-1215.532,45.7,153.830,18009d24,23,0,22453479.511,0.041,-117993805.145075,0.030,-1861.304,48.9,151.960,18009d64*ca574ae5
#SATXYZ2A,USB3_1,0,69.5,FINESTEERING,1996,195852.000,00000000,7513,12778;8,GPS,27,-12094054.7720,17074312.6157,16132564.7116,110990.904,3.328,2.444,0.0,0.0,GPS,9,9142878.7444,20195140.6113,14585809.3629,153071.345,6.084,5.127,0.0,0.0,GPS,21,-16390277.0974,-7779965.8140,20206257.3061,-122689.263,6.564,6.772,0.0,0.0,GPS,26,-21433742.6690,-754029.5451,15744250.9531,-56303.367,5.155,4.231,0.0,0.0,GPS,31,-25130028.6719,5684180.7283,-7257325.1021,38836.234,8.992,11.699,0.0,0.0,GPS,8,-4818009.4149,25615852.7697,4718948.8984,-29176.659,4.653,3.481,0.0,0.0,GPS,16,-14368774.4918,6470155.6833,21302536.5473,8417.232,3.790,2.931,0.0,0.0,GPS,23,1093994.9355,26085195.5216,3666450.2951,-65361.347,5.810,4.554,0.0,0.0*5f95aecd
#BESTPOSA,USB3_1,0,69.5,FINESTEERING,1996,195852.000,00000000,7145,12778;SOL_COMPUTED,SINGLE,36.76857601302,126.93547926490,72.5399,23.3000,WGS84,2.7152,1.8668,3.2516,"",0.000,0.000,8,8,8,8,0,12,00,01*6bee47be
#RANGEA,USB3_1,0,69.5,FINESTEERING,1996,195853.000,00000000,5103,12778;8,27,0,19942760.813,0.030,-104799893.481212,0.027,-81.453,51.7,140.350,08009c04,9,0,22761224.816,0.275,-119611058.085115,0.052,-72.519,36.6,51.160,08009c24,21,0,24360598.972,0.146,-128015799.310749,0.032,-1671.894,39.9,84.130,18009c44,26,0,22490473.178,0.070,-118188205.985044,0.029,-2060.280,44.2,143.500,18009c64,31,0,24684491.275,0.089,-129717875.405693,0.027,-3296.854,44.3,81.650,08009c84,8,0,21645918.409,0.035,-113750044.620264,0.027,2398.697,50.2,160.200,08009ce4,16,0,20960611.011,0.063,-110148736.219225,0.029,-1210.780,45.2,154.830,18009d24,23,0,22453833.724,0.041,-117995666.535475,0.027,-1857.118,49.0,152.960,18009d64*5718abfb
#SATXYZ2A,USB3_1,0,69.5,FINESTEERING,1996,195853.000,00000000,7513,12778;8,GPS,27,-12094084.5953,17072237.1316,16134754.3219,110990.904,3.327,2.444,0.0,0.0,GPS,9,9142537.4519,20196983.4196,14583475.6707,153071.346,6.084,5.127,0.0,0.0,GPS,21,-16388225.4906,-7781213.5593,20207490.9374,-122689.260,6.564,6.773,0.0,0.0,GPS,26,-21435305.4953,-755287.5159,15742077.3459,-56303.363,5.156,4.231,0.0,0.0,GPS,31,-25129283.5950,5683602.0813,-7260300.4551,38836.234,8.993,11.705,0.0,0.0,GPS,8,-4818233.8728,25615243.0675,4722077.3112,-29176.660,4.652,3.480,0.0,0.0,GPS,16,-14370872.9725,6468417.0040,21301696.2050,8417.231,3.790,2.932,0.0,0.0,GPS,23,1093604.7033,26085611.5385,3663331.0176,-65361.348,5.810,4.555,0.0,0.0*aa0fccd9
#BESTPOSA,USB3_1,0,69.5,FINESTEERING,1996,195853.000,00000000,7145,12778;SOL_COMPUTED,SINGLE,36.76857601302,126.93547926490,72.5399,23.3000,WGS84,2.7151,1.8668,3.2515,"",0.000,0.000,8,8,8,8,0,12,00,01*1652ab1c
#RANGEA,USB3_1,0,68.5,FINESTEERING,1996,195854.000,00000000,5103,12778;8,27,0,19942777.030,0.030,-104799978.712982,0.030,-85.033,51.7,141.350,08009c04,9,0,22761239.233,0.297,-119611133.566574,0.100,-75.326,35.8,52.160,08009c24,21,0,24360917.706,0.136,-128017474.436857,0.033,-1674.630,40.4,85.130,18009c44,26,0,22490865.900,0.069,-118190269.797796,0.032,-2063.881,44.3,144.500,18009c64,31,0,24685119.342,0.089,-129721175.826162,0.031,-3300.035,44.2,82.650,08009c84,8,0,21645462.628,0.035,-113747649.446405,0.030,2395.457,50.3,161.200,08009ce4,16,0,20960842.096,0.063,-110149950.592783,0.031,-1214.341,45.1,155.830,18009d24,23,0,22454187.818,0.040,-117997527.280006,0.029,-1860.648,49.1,153.960,18009d64*3dd05b29
#SATXYZ2A,USB3_1,0,68.5,FINESTEERING,1996,195854.000,00000000,7513,12778;8,GPS,27,-12094114.5242,17070161.3736,16136943.5834,110990.903,3.327,2.444,0.0,0.0,GPS,9,9142196.2818,20198825.9543,14581141.6675,153071.346,6.084,5.127,0.0,0.0,GPS,21,-16386173.8268,-7782461.4904,20208724.1665,-122689.256,6.564,6.774,0.0,0.0,GPS,26,-21436868.1655,-756545.2468,15739903.4054,-56303.359,5.156,4.232,0.0,0.0,GPS,31,-25128538.2138,5683023.2378,-7263275.6572,38836.234,8.994,11.711,0.0,0.0,GPS,8,-4818458.3420,25614632.9849,4725205.6228,-29176.660,4.652,3.480,0.0,0.0,GPS,16,-14372971.4754,6466678.5266,21300855.4062,8417.231,3.790,2.932,0.0,0.0,GPS,23,1093214.5137,26086027.1837,3660211.6603,-65361.348,5.811,4.555,0.0,0.0*87398322
#BESTPOSA,USB3_1,0,68.5,FINESTEERING,1996,195854.000,00000000,7145,12778;SOL_COMPUTED,SINGLE,36.76857632621,126.93547899932,72.5317,23.3000,WGS84,2.6698,1.8349,3.2200,"",0.000,0.000,8,8,8,8,0,12,00,01*307f1d08
#RANGEA,USB3_1,0,68.5,FINESTEERING,1996,195855.000,00000000,5103,12778;8,27,0,19942793.625,0.030,-104800065.949093,0.028,-89.513,51.7,142.350,08009c04,9,0,22761253.999,0.304,-119611211.141191,0.101,-79.082,35.5,53.160,08009c24,21,0,24361236.841,0.140,-128019151.519728,0.033,-1679.541,40.1,86.130,18009c44,26,0,22491258.912,0.073,-118192335.181701,0.034,-2067.585,43.8,145.500,18009c64,31,0,24685747.679,0.088,-129724477.819237,0.029,-3304.159,44.3,83.650,08009c84,8,0,21645007.198,0.035,-113745256.132654,0.029,2391.030,50.3,162.200,08009ce4,16,0,20961073.487,0.062,-110151166.567446,0.030,-1217.965,45.3,156.830,18009d24,23,0,22454542.266,0.041,-117999389.898193,0.029,-1864.996,48.9,154.960,18009d64*a8117361
#SATXYZ2A,USB3_1,0,68.5,FINESTEERING,1996,195855.000,00000000,7513,12778;8,GPS,27,-12094144.5589,17068085.3419,16139132.4961,110990.903,3.327,2.444,0.0,0.0,GPS,9,9141855.2340,20200668.2152,14578807.3532,153071.346,6.084,5.127,0.0,0.0,GPS,21,-16384122.1061,-7783709.6072,20209956.9933,-122689.253,6.565,6.775,0.0,0.0,GPS,26,-21438430.6793,-757802.7379,15737729.1317,-56303.355,5.157,4.233,0.0,0.0,GPS,31,-25127792.5283,5682444.1976,-7266250.7084,38836.234,8.996,11.717,0.0,0.0,GPS,8,-4818682.8224,25614022.5219,4728333.8329,-29176.661,4.651,3.480,0.0,0.0,GPS,16,-14375070.0003,6464940.2510,21300014.1512,8417.230,3.791,2.932,0.0,0.0,GPS,23,1092824.3667,26086442.4569,3657092.2235,-65361.349,5.811,4.556,0.0,0.0*d2fa9b9c
#BESTPOSA,USB3_1,0,68.5,FINESTEERING,1996,195855.000,00000000,7145,12778;SOL_COMPUTED,SINGLE,36.76857632621,126.93547899932,72.5317,23.3000,WGS84,2.6698,1.8348,3.2200,"",0.000,0.000,8,8,8,8,0,12,00,01*2db03c29
#RANGEA,USB3_1,0,73.0,FINESTEERING,1996,195856.000,00000000,5103,12778;8,27,0,19942810.258,0.030,-104800153.352682,0.030,-86.190,51.6,143.350,08009c04,9,0,22761268.723,0.276,-119611288.971544,0.114,-75.864,36.2,54.160,08009c24,21,0,24361555.958,0.138,-128020828.591188,0.035,-1675.698,40.2,87.130,18009c44,26,0,22491651.868,0.071,-118194400.291071,0.033,-2063.547,44.1,146.500,18009c64,31,0,24686376.002,0.086,-129727779.539772,0.033,-3300.300,44.4,84.650,08009c84,8,0,21644551.772,0.035,-113742862.835148,0.031,2394.757,50.3,163.200,08009ce4,16,0,20961304.849,0.063,-110152382.374031,0.031,-1214.457,45.1,157.830,18009d24,23,0,22454896.714,0.042,-118001252.560159,0.031,-1861.215,48.8,155.960,18009d64*024aa6c2
#SATXYZ2A,USB3_1,0,73.0,FINESTEERING,1996,195856.000,00000000,7513,12778;8,GPS,27,-12094174.6993,17066009.0365,16141321.0600,110990.902,3.327,2.444,0.0,0.0,GPS,9,9141514.3085,20202510.2025,14576472.7278,153071.347,6.084,5.127,0.0,0.0,GPS,21,-16382070.3285,-7784957.9098,20211189.4179,-122689.249,6.565,6.775,0.0,0.0,GPS,26,-21439993.0368,-759059.9890,15735554.5249,-56303.351,5.157,4.233,0.0,0.0,GPS,31,-25127046.5387,5681864.9607,-7269225.6084,38836.233,8.997,11.723,0.0,0.0,GPS,8,-4818907.3141,25613411.6784,4731461.9416,-29176.662,4.650,3.479,0.0,0.0,GPS,16,-14377168.5473,6463202.1775,21299172.4397,8417.230,3.791,2.932,0.0,0.0,GPS,23,1092434.2624,26086857.3584,3653972.7070,-65361.350,5.812,4.556,0.0,0.0*5571dce8
#BESTPOSA,USB3_1,0,73.0,FINESTEERING,1996,195856.000,00000000,7145,12778;SOL_COMPUTED,SINGLE,36.76857662780,126.93547874964,72.5234,23.3000,WGS84,2.6269,1.8046,3.1896,"",0.000,0.000,8,8,8,8,0,12,00,01*610bff6d
#RANGEA,USB3_1,0,69.0,FINESTEERING,1996,195857.000,00000000,5103,12778;8,27,0,19942827.131,0.030,-104800242.035080,0.027,-91.161,51.7,144.350,08009c04,9,0,22761283.715,0.280,-119611368.041895,0.098,-81.684,36.0,55.160,08009c24,21,0,24361875.301,0.132,-128022506.821173,0.032,-1680.896,40.6,88.130,18009c44,26,0,22492044.999,0.071,-118196466.242145,0.029,-2068.244,44.1,147.500,18009c64,31,0,24687004.478,0.082,-129731082.108234,0.030,-3305.091,44.7,85.650,08009c84,8,0,21644096.571,0.035,-113740470.686483,0.028,2389.666,50.3,164.200,08009ce4,16,0,20961536.378,0.058,-110153599.090290,0.029,-1219.277,45.8,158.830,18009d24,23,0,22455251.387,0.041,-118003116.402666,0.029,-1866.299,48.8,156.960,18009d64*fbf53ae9
#SATXYZ2A,USB3_1,0,69.0,FINESTEERING,1996,195857.000,00000000,7513,12778;8,GPS,27,-12094204.9455,17063932.4574,16143509.2750,110990.902,3.327,2.444,0.0,0.0,GPS,9,9141173.5053,20204351.9159,14574137.7915,153071.347,6.084,5.127,0.0,0.0,GPS,21,-16380018.4941,-7786206.3980,20212421.4402,-122689.245,6.565,6.776,0.0,0.0,GPS,26,-21441555.2379,-760317.0003,15733379.5850,-56303.347,5.157,4.234,0.0,0.0,GPS,31,-25126300.2449,5681285.5271,-7272200.3573,38836.233,8.998,11.729,0.0,0.0,GPS,8,-4819131.8172,25612800.4545,4734589.9489,-29176.662,4.650,3.479,0.0,0.0,GPS,16,-14379267.1162,6461464.3059,21298330.2720,8417.229,3.791,2.932,0.0,0.0,GPS,23,1092044.2005,26087271.8879,3650853.1110,-65361.350,5.813,4.557,0.0,0.0*aef608b7
#BESTPOSA,USB3_1,0,69.0,FINESTEERING,1996,195857.000,00000000,7145,12778;SOL_COMPUTED,SINGLE,36.76857662780,126.93547874964,72.5234,23.3000,WGS84,2.6269,1.8046,3.1896,"",0.000,0.000,8,8,8,8,0,12,00,01*75079bcf
#RANGEA,USB3_1,0,69.0,FINESTEERING,1996,195858.000,00000000,5103,12778;8,27,0,19942844.744,0.030,-104800334.603647,0.023,-92.899,51.7,145.350,08009c04,9,0,22761299.446,0.256,-119611450.982845,0.064,-82.833,36.8,56.160,08009c24,21,0,24362195.335,0.131,-128024188.766950,0.028,-1681.819,40.6,89.130,18009c44,26,0,22492438.782,0.073,-118198535.657011,0.029,-2069.683,43.9,148.500,18009c64,31,0,24687633.573,0.082,-129734388.096100,0.027,-3306.066,44.7,86.650,08009c84,8,0,21643642.072,0.034,-113738082.265892,0.025,2388.168,50.4,165.200,08009ce4,16,0,20961768.572,0.057,-110154819.300184,0.026,-1220.305,46.0,159.830,18009d24,23,0,22455606.785,0.041,-118004984.014293,0.024,-1867.858,48.8,157.960,18009d64*f5f80d5b
#SATXYZ2A,USB3_1,0,69.0,FINESTEERING,1996,195858.000,00000000,7513,12778;8,GPS,27,-12094235.2975,17061855.6048,16145697.1411,110990.901,3.327,2.444,0.0,0.0,GPS,9,9140832.8242,20206193.3555,14571802.5443,153071.347,6.084,5.127,0.0,0.0,GPS,21,-16377966.6029,-7787455.0720,20213653.0602,-122689.242,6.565,6.777,0.0,0.0,GPS,26,-21443117.2826,-761573.7717,15731204.3121,-56303.343,5.158,4.234,0.0,0.0,GPS,31,-25125553.6470,5680705.8968,-7275174.9551,38836.233,8.999,11.735,0.0,0.0,GPS,8,-4819356.3318,25612188.8503,4737717.8545,-29176.663,4.649,3.478,0.0,0.0,GPS,16,-14381365.7071,6459726.6363,21297487.6480,8417.229,3.791,2.932,0.0,0.0,GPS,23,1091654.1811,26087686.0456,3647733.4357,-65361.351,5.813,4.558,0.0,0.0*46ee149a
#BESTPOSA,USB3_1,0,69.0,FINESTEERING,1996,195858.000,00000000,7145,12778;SOL_COMPUTED,SINGLE,36.76857662780,126.93547874964,72.5234,23.3000,WGS84,2.6269,1.8046,3.1896,"",0.000,0.000,8,8,8,8,0,12,00,01*12c6d39f
#RANGEA,USB3_1,0,72.0,FINESTEERING,1996,195859.000,00000000,5103,12778;8,27,0,19942862.368,0.030,-104800427.224052,0.028,-93.485,51.7,146.350,08009c04,9,0,22761315.148,0.270,-119611534.228111,0.135,-83.908,36.2,57.160,08009c24,21,0,24362515.394,0.128,-128025870.676552,0.031,-1682.995,40.7,90.130,18009c44,26,0,22492832.481,0.075,-118200604.661396,0.031,-2069.718,43.7,149.500,18009c64,31,0,24688262.641,0.089,-129737693.724804,0.031,-3306.568,44.0,87.650,08009c84,8,0,21643187.543,0.034,-113735693.712826,0.028,2387.628,50.4,166.200,08009ce4,16,0,20962000.708,0.058,-110156039.220060,0.030,-1220.611,45.9,160.830,18009d24,23,0,22455962.170,0.041,-118006851.545088,0.027,-1868.427,48.9,158.960,18009d64*d70acae1
#SATXYZ2A,USB3_1,0,72.0,FINESTEERING,1996,195859.000,00000000,7513,12778;8,GPS,27,-12094265.7554,17059778.4786,16147884.6581,110990.901,3.327,2.444,0.0,0.0,GPS,9,9140492.2654,20208034.5213,14569466.9862,153071.348,6.084,5.127,0.0,0.0,GPS,21,-16375914.6550,-7788703.9316,20214884.2779,-122689.238,6.566,6.778,0.0,0.0,GPS,26,-21444679.1707,-762830.3032,15729028.7062,-56303.339,5.158,4.235,0.0,0.0,GPS,31,-25124806.7450,5680126.0697,-7278149.4016,38836.233,9.000,11.740,0.0,0.0,GPS,8,-4819580.8578,25611576.8656,4740845.6585,-29176.664,4.649,3.478,0.0,0.0,GPS,16,-14383464.3197,6457989.1688,21296644.5677,8417.228,3.791,2.932,0.0,0.0,GPS,23,1091264.2042,26088099.8313,3644613.6809,-65361.352,5.814,4.558,0.0,0.0*db06d99b
#BESTPOSA,USB3_1,0,72.0,FINESTEERING,1996,195859.000,00000000,7145,12778;SOL_COMPUTED,SINGLE,36.76857694330,126.93547849022,72.5131,23.3000,WGS84,2.5861,1.7758,3.1601,"",0.000,0.000,8,8,8,8,0,12,00,01*1f8144bb
#RANGEA,USB3_1,0,68.5,FINESTEERING,1996,195860.000,00000000,5103,12778;8,27,0,19942880.115,0.030,-104800520.485021,0.030,-97.030,51.7,147.350,08009c04,9,0,22761331.004,0.255,-119611617.940920,0.107,-86.935,36.7,58.160,08009c24,21,0,24362835.546,0.122,-128027553.050556,0.032,-1686.289,41.1,91.130,18009c44,26,0,22493226.232,0.074,-118202673.879982,0.033,-2072.632,43.7,150.500,18009c64,31,0,24688891.723,0.087,-129740999.553444,0.032,-3309.373,44.1,88.650,08009c84,8,0,21642733.105,0.034,-113733305.647159,0.030,2384.451,50.4,167.200,08009ce4,16,0,20962232.897,0.058,-110157259.364694,0.031,-1223.425,45.9,161.830,18009d24,23,0,22456317.638,0.041,-118008719.582277,0.031,-1871.593,48.9,159.960,18009d64*cc089702
#SATXYZ2A,USB3_1,0,68.5,FINESTEERING,1996,195860.000,00000000,7513,12778;8,GPS,27,-12094296.3191,17057701.0789,16150071.8262,110990.900,3.327,2.444,0.0,0.0,GPS,9,9140151.8286,20209875.4131,14567131.1173,153071.348,6.084,5.127,0.0,0.0,GPS,21,-16373862.6505,-7789952.9769,20216115.0932,-122689.235,6.566,6.779,0.0,0.0,GPS,26,-21446240.9023,-764086.5949,15726852.7674,-56303.335,5.159,4.235,0.0,0.0,GPS,31,-25124059.5390,5679546.0458,-7281123.6968,38836.233,9.002,11.746,0.0,0.0,GPS,8,-4819805.3954,25610964.5005,4743973.3608,-29176.664,4.648,3.477,0.0,0.0,GPS,16,-14385562.9542,6456251.9034,21295801.0312,8417.227,3.791,2.933,0.0,0.0,GPS,23,1090874.2697,26088513.2451,3641493.8469,-65361.352,5.814,4.559,0.0,0.0*8169f828
#BESTPOSA,USB3_1,0,68.5,FINESTEERING,1996,195860.000,00000000,7145,12778;SOL_COMPUTED,SINGLE,36.76857694330,126.93547849022,72.5131,23.3000,WGS84,2.5861,1.7758,3.1601,"",0.000,0.000,8,8,8,8,0,12,00,01*92838b1e
#RANGEA,USB3_1,0,66.5,FINESTEERING,1996,195861.000,00000000,5103,12778;8,27,0,19942898.208,0.030,-104800615.571094,0.032,-96.218,51.7,148.350,08009c04,9,0,22761347.197,0.247,-119611703.597744,0.085,-86.204,36.9,59.160,08009c24,21,0,24363156.009,0.125,-128029237.129083,0.033,-1684.782,40.8,92.130,18009c44,26,0,22493620.235,0.070,-118204744.499508,0.094,-2071.599,44.3,151.500,18009c64,31,0,24689521.062,0.089,-129744306.748421,0.078,-3307.933,43.9,89.650,08009c84,8,0,21642278.991,0.034,-113730919.269758,0.032,2385.521,50.5,168.200,08009ce4,16,0,20962465.378,0.057,-110158481.018421,0.032,-1222.846,46.0,162.830,18009d24,23,0,22456673.433,0.042,-118010589.330267,0.032,-1870.762,48.7,160.960,18009d64*955aeb41
#SATXYZ2A,USB3_1,0,66.5,FINESTEERING,1996,195861.000,00000000,7513,12778;8,GPS,27,-12094326.9889,17055623.4057,16152258.6452,110990.900,3.327,2.444,0.0,0.0,GPS,9,9139811.5140,20211716.0310,14564794.9376,153071.348,6.084,5.127,0.0,0.0,GPS,21,-16371810.5894,-7791202.2080,20217345.5062,-122689.231,6.566,6.780,0.0,0.0,GPS,26,-21447802.4773,-765342.6467,15724676.4957,-56303.331,5.159,4.236,0.0,0.0,GPS,31,-25123312.0290,5678965.8251,-7284097.8406,38836.233,9.003,11.752,0.0,0.0,GPS,8,-4820029.9445,25610351.7551,4747100.9614,-29176.665,4.647,3.477,0.0,0.0,GPS,16,-14387661.6103,6454514.8400,21294957.0384,8417.227,3.791,2.933,0.0,0.0,GPS,23,1090484.3775,26088926.2870,3638373.9336,-65361.353,5.815,4.560,0.0,0.0*86116ab4
#BESTPOSA,USB3_1,0,66.5,FINESTEERING,1996,195861.000,00000000,7145,12778;SOL_COMPUTED,SINGLE,36.76857728136,126.93547820690,72.4999,23.3000,WGS84,2.5473,1.7485,3.1314,"",0.000,0.000,8,8,8,8,0,12,00,01*b344f137
#RANGEA,USB3_1,0,66.5,FINESTEERING,1996,195862.000,00000000,5103,12778;8,27,0,19942916.136,0.030,-104800709.796179,0.035,-92.798,51.7,149.350,08009c04,9,0,22761363.342,0.240,-119611788.479816,0.105,-83.363,37.0,60.160,08009c24,21,0,24363476.282,0.127,-128030920.199850,0.035,-1681.219,40.7,93.130,18009c44,26,0,22494013.989,0.068,-118206813.767053,0.064,-2067.539,44.5,152.500,18009c64,31,0,24690150.160,0.086,-129747612.691362,0.056,-3303.941,44.1,90.650,08009c84,8,0,21641824.689,0.034,-113728531.876692,0.034,2389.244,50.4,169.200,08009ce4,16,0,20962697.613,0.057,-110159701.398071,0.036,-1218.940,46.0,163.830,18009d24,23,0,22457029.043,0.042,-118012458.094862,0.034,-1867.118,48.6,161.960,18009d64*f5bea19e
#SATXYZ2A,USB3_1,0,66.5,FINESTEERING,1996,195862.000,00000000,7513,12778;8,GPS,27,-12094357.7646,17053545.4592,16154445.1150,110990.899,3.327,2.444,0.0,0.0,GPS,9,9139471.3215,20213556.3748,14562458.4471,153071.349,6.084,5.127,0.0,0.0,GPS,21,-16369758.4717,-7792451.6247,20218575.5168,-122689.227,6.566,6.781,0.0,0.0,GPS,26,-21449363.8955,-766598.4587,15722499.8911,-56303.327,5.159,4.236,0.0,0.0,GPS,31,-25122564.2151,5678385.4075,-7287071.8330,38836.233,9.004,11.758,0.0,0.0,GPS,8,-4820254.5053,25609738.6293,4750228.4601,-29176.666,4.647,3.477,0.0,0.0,GPS,16,-14389760.2882,6452777.9789,21294112.5894,8417.226,3.791,2.933,0.0,0.0,GPS,23,1090094.5275,26089338.9569,3635253.9412,-65361.354,5.815,4.560,0.0,0.0*601a0f33
#BESTPOSA,USB3_1,0,66.5,FINESTEERING,1996,195862.000,00000000,7145,12778;SOL_COMPUTED,SINGLE,36.76857728136,126.93547820690,72.4999,23.3000,WGS84,2.5473,1.7485,3.1314,"",0.000,0.000,8,8,8,8,0,12,00,01*ad2e1927
#RANGEA,USB3_1,0,69.5,FINESTEERING,1996,195863.000,00000000,5103,12778;8,27,0,19942934.192,0.030,-104800804.694376,0.027,-93.905,51.7,150.350,08009c04,9,0,22761379.600,0.243,-119611874.020485,0.070,-84.440,36.8,61.160,08009c24,21,0,24363796.668,0.118,-128032603.847177,0.031,-1682.757,41.2,94.130,18009c44,26,0,22494407.805,0.068,-118208883.293188,0.043,-2068.328,44.4,153.500,18009c64,31,0,24690779.316,0.085,-129750918.852926,0.040,-3305.178,44.1,91.650,08009c84,8,0,21641370.485,0.034,-113726145.003240,0.028,2387.957,50.4,170.200,08009ce4,16,0,20962929.909,0.059,-110160922.103634,0.028,-1219.354,45.8,164.830,18009d24,23,0,22457384.754,0.043,-118014327.402450,0.027,-1868.236,48.4,162.960,18009d64*f18f8b7e
#SATXYZ2A,USB3_1,0,69.5,FINESTEERING,1996,195863.000,00000000,7513,12778;8,GPS,27,-12094388.6463,17051467.2392,16156631.2357,110990.899,3.327,2.444,0.0,0.0,GPS,9,9139131.2509,20215396.4446,14560121.6460,153071.349,6.084,5.127,0.0,0.0,GPS,21,-16367706.2976,-7793701.2270,20219805.1249,-122689.224,6.566,6.782,0.0,0.0,GPS,26,-21450925.1570,-767854.0308,15720322.9537,-56303.322,5.160,4.237,0.0,0.0,GPS,31,-25121816.0972,5677804.7929,-7290045.6739,38836.233,9.005,11.764,0.0,0.0,GPS,8,-4820479.0778,25609125.1232,4753355.8569,-29176.666,4.646,3.476,0.0,0.0,GPS,16,-14391858.9876,6451041.3198,21293267.6842,8417.226,3.791,2.933,0.0,0.0,GPS,23,1089704.7199,26089751.2549,3632133.8696,-65361.354,5.816,4.561,0.0,0.0*32cccd38
#BESTPOSA,USB3_1,0,69.5,FINESTEERING,1996,195863.000,00000000,7145,12778;SOL_COMPUTED,SINGLE,36.76857728136,126.93547820690,72.4999,23.3000,WGS84,2.5473,1.7485,3.1314,"",0.000,0.000,8,8,8,8,0,12,00,01*2662ffcb
#RANGEA,USB3_1,0,71.0,FINESTEERING,1996,195864.000,00000000,5103,12778;8,27,0,19942952.320,0.030,-104800899.946283,0.028,-94.940,51.6,151.350,08009c04,9,0,22761395.911,0.227,-119611959.961023,0.091,-85.359,37.3,62.160,08009c24,21,0,24364117.072,0.117,-128034287.667358,0.033,-1683.611,41.2,95.130,18009c44,26,0,22494801.603,0.064,-118210952.732918,0.036,-2068.698,45.0,154.500,18009c64,31,0,24691408.441,0.089,-129754224.921953,0.033,-3305.735,43.8,92.650,08009c84,8,0,21640916.320,0.034,-113723758.343031,0.028,2387.150,50.4,171.200,08009ce4,16,0,20963162.201,0.056,-110162142.817699,0.028,-1220.203,46.2,165.830,18009d24,23,0,22457740.520,0.043,-118016196.959387,0.028,-1869.070,48.5,163.960,18009d64*9e0ddaa3
#SATXYZ2A,USB3_1,0,71.0,FINESTEERING,1996,195864.000,00000000,7513,12778;8,GPS,27,-12094419.6341,17049388.7460,16158817.0072,110990.898,3.327,2.444,0.0,0.0,GPS,9,9138791.3024,20217236.2403,14557784.5343,153071.349,6.084,5.128,0.0,0.0,GPS,21,-16365654.0671,-7794951.0150,20221034.3307,-122689.220,6.567,6.783,0.0,0.0,GPS,26,-21452486.2617,-769109.3630,15718145.6836,-56303.318,5.160,4.237,0.0,0.0,GPS,31,-25121067.6755,5677223.9814,-7293019.3633,38836.233,9.006,11.770,0.0,0.0,GPS,8,-4820703.6620,25608511.2367,4756483.1517,-29176.667,4.646,3.476,0.0,0.0,GPS,16,-14393957.7085,6449304.8630,21292422.3228,8417.225,3.792,2.933,0.0,0.0,GPS,23,1089314.9544,26090163.1809,3629013.7191,-65361.355,5.817,4.561,0.0,0.0*ea211e72
#BESTPOSA,USB3_1,0,71.0,FINESTEERING,1996,195864.000,00000000,7145,12778;SOL_COMPUTED,SINGLE,36.76857761277,126.93547793059,72.4862,23.3000,WGS84,2.5102,1.7224,3.1036,"",0.000,0.000,8,8,8,8,0,12,00,01*e613c30f
#RANGEA,USB3_1,0,67.5,FINESTEERING,1996,195865.000,00000000,5103,12778;8,27,0,19942970.695,0.030,-104800996.538769,0.028,-94.805,51.7,152.350,08009c04,9,0,22761412.499,0.261,-119612047.292709,0.106,-85.429,36.0,63.160,08009c24,21,0,24364437.735,0.127,-128035972.746807,0.032,-1683.713,40.4,96.130,18009c44,26,0,22495195.577,0.066,-118213023.090496,0.031,-2068.372,44.7,155.500,18009c64,31,0,24692037.730,0.086,-129757531.885383,0.031,-3305.207,44.0,93.650,08009c84,8,0,21640462.387,0.034,-113721372.870188,0.028,2387.234,50.4,172.200,08009ce4,16,0,20963394.679,0.054,-110163364.483991,0.028,-1219.816,46.5,166.830,18009d24,23,0,22458096.500,0.044,-118018067.731075,0.028,-1869.017,48.2,164.960,18009d64*9863ce65
#SATXYZ2A,USB3_1,0,67.5,FINESTEERING,1996,195865.000,00000000,7513,12778;8,GPS,27,-12094450.7280,17047309.9796,16161002.4294,110990.897,3.327,2.444,0.0,0.0,GPS,9,9138451.4759,20219075.7618,14555447.1120,153071.350,6.084,5.128,0.0,0.0,GPS,21,-16363601.7802,-7796200.9887,20222263.1340,-122689.217,6.567,6.784,0.0,0.0,GPS,26,-21454047.2096,-770364.4554,15715968.0807,-56303.314,5.161,4.238,0.0,0.0,GPS,31,-25120318.9499,5676642.9730,-7295992.9010,38836.233,9.008,11.776,0.0,0.0,GPS,8,-4820928.2581,25607896.9700,4759610.3445,-29176.668,4.645,3.475,0.0,0.0,GPS,16,-14396056.4509,6447568.6085,21291576.5053,8417.225,3.792,2.933,0.0,0.0,GPS,23,1088925.2310,26090574.7348,3625893.4895,-65361.356,5.817,4.562,0.0,0.0*2574f3c3
#BESTPOSA,USB3_1,0,67.5,FINESTEERING,1996,195865.000,00000000,7145,12778;SOL_COMPUTED,SINGLE,36.76857761277,126.93547793059,72.4862,23.3000,WGS84,2.5102,1.7224,3.1036,"",0.000,0.000,8,8,8,8,0,12,00,01*1e42e0da
#RANGEA,USB3_1,0,67.5,FINESTEERING,1996,195866.000,00000000,5103,12778;8,27,0,19942989.057,0.030,-104801093.029438,0.024,-95.437,51.7,153.350,08009c04,9,0,22761429.135,0.359,-119612134.621580,0.114,-86.291,33.2,64.160,08009c24,21,0,24364758.339,0.139,-128037657.516941,0.029,-1683.678,39.7,97.130,18009c44,26,0,22495589.428,0.074,-118215092.874611,0.026,-2068.557,43.8,156.500,18009c64,31,0,24692666.904,0.090,-129760838.318609,0.027,-3305.037,43.5,94.650,08009c84,8,0,21640008.398,0.034,-113718987.138605,0.023,2386.876,50.6,173.200,08009ce4,16,0,20963627.067,0.051,-110164585.664511,0.025,-1219.952,46.9,167.830,18009d24,23,0,22458452.437,0.043,-118019938.267893,0.024,-1869.422,48.4,165.960,18009d64*4ff4cc6b
#SATXYZ2A,USB3_1,0,67.5,FINESTEERING,1996,195866.000,00000000,7513,12778;8,GPS,27,-12094481.9280,17045230.9399,16163187.5023,110990.897,3.327,2.444,0.0,0.0,GPS,9,9138111.7713,20220915.0091,14553109.3792,153071.350,6.085,5.128,0.0,0.0,GPS,21,-16361549.4371,-7797451.1479,20223491.5348,-122689.213,6.567,6.785,0.0,0.0,GPS,26,-21455608.0005,-771619.3079,15713790.1452,-56303.310,5.161,4.238,0.0,0.0,GPS,31,-25119569.9205,5676061.7675,-7298966.2871,38836.233,9.009,11.782,0.0,0.0,GPS,8,-4821152.8659,25607282.3229,4762737.4352,-29176.668,4.645,3.475,0.0,0.0,GPS,16,-14398155.2147,6445832.5562,21290730.2317,8417.224,3.792,2.933,0.0,0.0,GPS,23,1088535.5498,26090985.9168,3622773.1811,-65361.356,5.818,4.563,0.0,0.0*aafcde5a
#BESTPOSA,USB3_1,0,67.5,FINESTEERING,1996,195866.000,00000000,7145,12778;SOL_COMPUTED,SINGLE,36.76857791537,126.93547767828,72.4733,23.3000,WGS84,2.4750,1.6976,3.0767,"",0.000,0.000,8,8,8,8,0,12,00,01*6bc01af1
#RANGEA,USB3_1,0,67.5,FINESTEERING,1996,195867.000,00000000,5103,12778;7,27,0,19943007.435,0.029,-104801189.567348,0.029,-95.976,51.9,154.350,08009c04,21,0,24365078.906,0.150,-128039342.245622,0.093,-1684.203,38.9,98.130,18009c44,26,0,22495983.202,0.071,-118217162.291439,0.032,-2068.601,44.1,157.500,18009c64,31,0,24693296.003,0.087,-129764144.371860,0.033,-3305.619,43.8,95.650,08009c84,8,0,21639554.388,0.034,-113716601.297907,0.029,2386.378,50.6,174.200,08009ce4,16,0,20963859.412,0.050,-110165806.551620,0.031,-1220.243,47.1,168.830,18009d24,23,0,22458808.376,0.042,-118021808.745746,0.030,-1869.939,48.8,166.960,18009d64*6528bbf8
#SATXYZ2A,USB3_1,0,67.5,FINESTEERING,1996,195867.000,00000000,7513,12778;7,GPS,27,-12094513.2342,17043151.6271,16165372.2258,110990.896,3.327,2.444,0.0,0.0,GPS,21,-16359497.0377,-7798701.4929,20224719.5331,-122689.209,6.567,6.786,0.0,0.0,GPS,26,-21457168.6344,-772873.9207,15711611.8770,-56303.306,5.161,4.239,0.0,0.0,GPS,31,-25118820.5874,5675480.3649,-7301939.5214,38836.233,9.010,11.788,0.0,0.0,GPS,8,-4821377.4857,25606667.2955,4765864.4237,-29176.669,4.644,3.475,0.0,0.0,GPS,16,-14400253.9999,6444096.7062,21289883.5019,8417.224,3.792,2.934,0.0,0.0,GPS,23,1088145.9106,26091396.7267,3619652.7939,-65361.357,5.818,4.563,0.0,0.0*72dd9279
#BESTPOSA,USB3_1,0,67.5,FINESTEERING,1996,195867.000,00000000,7145,12778;SOL_COMPUTED,SINGLE,36.76857791537,126.93547767828,72.4733,23.3000,WGS84,2.4750,1.6976,3.0767,"",0.000,0.000,7,7,7,7,0,12,00,01*8ba357eb
#RANGEA,USB3_1,0,65.0,FINESTEERING,1996,195868.000,00000000,5103,12778;7,27,0,19943025.396,0.030,-104801283.941578,0.076,-92.327,51.7,155.350,08009c04,21,0,24365399.033,0.157,-128041024.687206,0.096,-1680.906,38.5,99.130,18009c44,26,0,22496376.501,0.071,-118219229.104713,0.080,-2064.529,44.1,158.500,18009c64,31,0,24693924.616,0.086,-129767447.839344,0.036,-3301.120,43.9,96.650,08009c84,8,0,21639099.944,0.035,-113714213.129251,0.034,2390.345,50.2,175.200,08009ce4,16,0,20964091.250,0.053,-110167024.863674,0.092,-1216.322,46.7,169.830,18009d24,23,0,22459163.860,0.044,-118023676.903326,0.034,-1866.238,48.2,167.960,18009d64*1f84c950
#SATXYZ2A,USB3_1,0,65.0,FINESTEERING,1996,195868.000,00000000,7513,12778;7,GPS,27,-12094544.6466,17041072.0411,16167556.5999,110990.896,3.327,2.444,0.0,0.0,GPS,21,-16357444.5821,-7799952.0234,20225947.1288,-122689.206,6.567,6.787,0.0,0.0,GPS,26,-21458729.1113,-774128.2935,15709433.2763,-56303.302,5.162,4.239,0.0,0.0,GPS,31,-25118070.9505,5674898.7652,-7304912.6039,38836.233,9.011,11.794,0.0,0.0,GPS,8,-4821602.1174,25606051.8879,4768991.3100,-29176.670,4.643,3.474,0.0,0.0,GPS,16,-14402352.8063,6442361.0585,21289036.3160,8417.223,3.792,2.934,0.0,0.0,GPS,23,1087756.3134,26091807.1646,3616532.3279,-65361.358,5.819,4.564,0.0,0.0*cd3a2a33
#BESTPOSA,USB3_1,0,65.0,FINESTEERING,1996,195868.000,00000000,7145,12778;SOL_COMPUTED,SINGLE,36.76857791537,126.93547767828,72.4733,23.3000,WGS84,2.4750,1.6976,3.0767,"",0.000,0.000,7,7,7,7,0,12,00,01*e93441f0
#RANGEA,USB3_1,0,62.5,FINESTEERING,1996,195869.000,00000000,5103,12778;7,27,0,19943043.251,0.030,-104801377.750520,0.053,-92.683,51.7,156.350,08009c04,21,0,24365719.003,0.134,-128042706.382757,0.065,-1680.406,39.9,100.130,18009c44,26,0,22496769.607,0.071,-118221294.899467,0.056,-2064.024,44.1,159.500,18009c64,31,0,24694553.045,0.080,-129770750.269634,0.033,-3300.842,44.4,97.650,08009c84,8,0,21638645.349,0.035,-113711824.238685,0.032,2390.094,50.3,176.200,08009ce4,16,0,20964322.908,0.054,-110168242.227625,0.062,-1215.571,46.4,170.830,18009d24,23,0,22459519.226,0.043,-118025544.413597,0.033,-1866.079,48.5,168.960,18009d64*26c90c74
#SATXYZ2A,USB3_1,0,62.5,FINESTEERING,1996,195869.000,00000000,7513,12778;7,GPS,27,-12094576.1653,17038992.1821,16169740.6246,110990.895,3.327,2.443,0.0,0.0,GPS,21,-16355392.0704,-7801202.7395,20227174.3221,-122689.202,6.568,6.786,0.0,0.0,GPS,26,-21460289.4311,-775382.4266,15707254.3431,-56303.298,5.162,4.239,0.0,0.0,GPS,31,-25117321.0100,5674316.9685,-7307885.5346,38836.233,9.012,11.797,0.0,0.0,GPS,8,-4821826.7612,25605436.0999,4772118.0940,-29176.670,4.643,3.473,0.0,0.0,GPS,16,-14404451.6340,6440625.6132,21288188.6741,8417.223,3.792,2.933,0.0,0.0,GPS,23,1087366.7582,26092217.2304,3613411.7832,-65361.358,5.819,4.563,0.0,0.0*a492e093
#BESTPOSA,USB3_1,0,62.5,FINESTEERING,1996,195869.000,00000000,7145,12778;SOL_COMPUTED,SINGLE,36.76857786175,126.93547789222,72.5146,23.3000,WGS84,2.4224,1.6766,3.0221,"",0.000,0.000,7,7,7,7,0,12,00,01*e6d559d3
#RANGEA,USB3_1,0,62.5,FINESTEERING,1996,195870.000,00000000,5103,12778;7,27,0,19943061.053,0.029,-104801471.289614,0.040,-96.477,51.8,157.350,08009c04,21,0,24366038.951,0.110,-128044387.647528,0.047,-1683.898,41.5,101.130,18009c44,26,0,22497162.604,0.061,-118223360.031156,0.042,-2067.733,45.5,160.500,18009c64,31,0,24695181.350,0.079,-129774051.973079,0.033,-3304.292,44.5,98.650,08009c84,8,0,21638190.681,0.035,-113709434.918100,0.030,2386.587,50.2,177.200,08009ce4,16,0,20964554.453,0.053,-110169458.998359,0.044,-1219.592,46.6,171.830,18009d24,23,0,22459874.508,0.044,-118027411.489857,0.031,-1869.884,48.2,169.960,18009d64*208237a1
#SATXYZ2A,USB3_1,0,62.5,FINESTEERING,1996,195870.000,00000000,7513,12778;7,GPS,27,-12094607.7903,17036912.0501,16171924.2998,110990.895,3.327,2.443,0.0,0.0,GPS,21,-16353339.5026,-7802453.6412,20228401.1127,-122689.199,6.568,6.787,0.0,0.0,GPS,26,-21461849.5937,-776636.3198,15705075.0774,-56303.294,5.162,4.240,0.0,0.0,GPS,31,-25116570.7659,5673734.9745,-7310858.3133,38836.233,9.014,11.803,0.0,0.0,GPS,8,-4822051.4170,25604819.9317,4775244.7757,-29176.671,4.642,3.472,0.0,0.0,GPS,16,-14406550.4828,6438890.3703,21287340.5761,8417.222,3.792,2.933,0.0,0.0,GPS,23,1086977.2448,26092626.9242,3610291.1598,-65361.359,5.820,4.564,0.0,0.0*c121d2b2
#BESTPOSA,USB3_1,0,62.5,FINESTEERING,1996,195870.000,00000000,7145,12778;SOL_COMPUTED,SINGLE,36.76857781448,126.93547808984,72.5483,23.3000,WGS84,2.3778,1.6594,2.9755,"",0.000,0.000,7,7,7,7,0,12,00,01*143f6c3f
#RANGEA,USB3_1,0,65.5,FINESTEERING,1996,195871.000,00000000,5103,12778;7,27,0,19943079.457,0.030,-104801568.007479,0.071,-96.501,51.7,158.350,08009c04,21,0,24366359.470,0.127,-128046072.030115,0.039,-1683.984,40.2,102.130,18009c44,26,0,22497556.116,0.067,-118225427.893730,0.037,-2067.785,44.6,161.500,18009c64,31,0,24695810.177,0.090,-129777356.469322,0.034,-3303.904,43.3,99.650,08009c84,8,0,21637736.584,0.035,-113707048.643429,0.030,2386.787,50.2,178.200,08009ce4,16,0,20964786.533,0.050,-110170678.560598,0.036,-1219.096,47.2,172.830,18009d24,23,0,22460230.377,0.044,-118029281.666326,0.031,-1869.681,48.4,170.960,18009d64*5535605b
#SATXYZ2A,USB3_1,0,65.5,FINESTEERING,1996,195871.000,00000000,7513,12778;7,GPS,27,-12094639.5216,17034831.6452,16174107.6255,110990.894,3.326,2.443,0.0,0.0,GPS,21,-16351286.8789,-7803704.7285,20229627.5008,-122689.195,6.568,6.788,0.0,0.0,GPS,26,-21463409.5991,-777889.9731,15702895.4792,-56303.290,5.163,4.240,0.0,0.0,GPS,31,-25115820.2181,5673152.7834,-7313830.9401,38836.233,9.015,11.809,0.0,0.0,GPS,8,-4822276.0849,25604203.3833,4778371.3548,-29176.672,4.642,3.472,0.0,0.0,GPS,16,-14408649.3527,6437155.3299,21286492.0221,8417.222,3.792,2.933,0.0,0.0,GPS,23,1086587.7734,26093036.2458,3607170.4580,-65361.360,5.820,4.565,0.0,0.0*b0e44230
#BESTPOSA,USB3_1,0,65.5,FINESTEERING,1996,195871.000,00000000,7145,12778;SOL_COMPUTED,SINGLE,36.76857781448,126.93547808984,72.5483,23.3000,WGS84,2.3624,1.6487,2.9562,"",0.000,0.000,7,7,7,7,0,12,00,01*f638624a
#RANGEA,USB3_1,0,65.5,FINESTEERING,1996,195872.000,00000000,5103,12778;7,27,0,19943097.959,0.030,-104801665.240570,0.046,-97.270,51.6,159.350,08009c04,21,0,24366680.062,0.146,-128047756.812326,0.032,-1684.800,39.0,103.130,18009c44,26,0,22497949.617,0.068,-118227495.781990,0.030,-2067.626,44.6,162.500,18009c64,31,0,24696438.997,0.080,-129780661.011717,0.030,-3304.564,44.3,100.650,08009c84,8,0,21637282.562,0.035,-113704662.744556,0.025,2385.910,50.3,179.200,08009ce4,16,0,20965018.649,0.047,-110171898.254831,0.027,-1219.356,47.7,173.830,18009d24,23,0,22460586.321,0.043,-118031152.239559,0.024,-1870.477,48.6,171.960,18009d64*e6634358
#SATXYZ2A,USB3_1,0,65.5,FINESTEERING,1996,195872.000,00000000,7513,12778;7,GPS,27,-12094671.3593,17032750.9673,16176290.6015,110990.894,3.326,2.443,0.0,0.0,GPS,21,-16349234.1992,-7804956.0014,20230853.4862,-122689.191,6.568,6.789,0.0,0.0,GPS,26,-21464969.4472,-779143.3867,15700715.5487,-56303.286,5.163,4.241,0.0,0.0,GPS,31,-25115069.3668,5672570.3950,-7316803.4148,38836.233,9.016,11.815,0.0,0.0,GPS,8,-4822500.7649,25603586.4546,4781497.8315,-29176.672,4.641,3.472,0.0,0.0,GPS,16,-14410748.2437,6435420.4919,21285643.0121,8417.221,3.792,2.934,0.0,0.0,GPS,23,1086198.3437,26093445.1954,3604049.6776,-65361.360,5.821,4.565,0.0,0.0*4a213e1f
