#ALMANACA,UNKNOWN,0,72.5,SATTIME,1487,258498.000,00000000,06de,2945;31,2,1487,405504.0,8.753777e-03,-7.98890420e-09,-9.25015882e-01,2.6028238e+00,-2.3324361e+00,2.03132629e-04,-3.63797881e-12,1.45851981e-04,2.6560590e+07,4.43416321e-04,1,0,0,TRUE,3,1487,405504.0,1.079130e-02,-8.11462372e-09,-2.0695779e+00,8.21861666e-01,-2.7044699e+00,2.53677368e-04,3.63797881e-12,1.45857826e-04,2.6559881e+07,-1.67239859e-02,1,0,0,TRUE,4,1487,405504.0,8.078098e-03,-8.02319134e-09,-9.06206641e-01,3.79994680e-01,3.67345330e-01,-1.11579895e-04,-1.09139364e-11,1.45847421e-04,2.6561144e+07,-2.45676611e-04,1,0,0,TRUE,5,1487,405504.0,8.988857e-03,-8.09176563e-09,-3.1018859e+00,1.2367623e+00,3.14664550e-02,-3.61442566e-04,1.81898940e-11,1.45868481e-04,2.6558587e+07,8.74848418e-04,1,0,0,TRUE,6,1487,405504.0,5.908012e-03,-8.04604944e-09,-2.0045792e+00,-1.6337143e+00,-6.24546646e-02,1.59263611e-04,3.63797881e-12,1.45854509e-04,2.6560283e+07,-9.19789261e-03,1,0,0,TRUE,7,1487,405504.0,1.899719e-03,-7.84032658e-09,2.2263619e+00,2.6334319e+00,2.3336473e+00,-6.67572021e-06,7.27595761e-12,1.45855297e-04,2.6560188e+07,2.04570719e-02,2,0,0,TRUE,8,1487,405504.0,1.033258e-02,-7.63460373e-09,2.2800681e+00,2.8845490e+00,1.5038105e+00,-1.61170959e-04,0.00000000,1.45852644e-04,2.6560510e+07,4.16571658e-02,1,0,0,TRUE,9,1487,405504.0,2.009916e-02,-7.72603611e-09,2.1900003e+00,1.4187895e+00,1.1127877e+00,4.76837158e-06,0.00000000,1.45858697e-04,2.6559775e+07,2.94572248e-02,1,0,0,TRUE,10,1487,405504.0,7.975101e-03,-8.04604944e-09,1.56767893e-01,5.60076759e-01,-1.4798050e+00,-2.86102295e-06,0.00000000,1.45858697e-04,2.6559775e+07,2.08585434e-02,1,0,0,TRUE,11,1487,405504.0,8.167744e-03,-8.48035324e-09,-1.1089408e+00,5.94169257e-01,1.9002782e+00,2.38418579e-05,0.00000000,1.45862635e-04,2.6559297e+07,-5.18377648e-02,1,0,0,TRUE,12,1487,405504.0,3.332615e-03,-7.86318468e-09,-3.0075229e+00,-9.06490891e-01,2.3412464e+00,-3.57627869e-04,0.00000000,1.45867113e-04,2.6558753e+07,2.20989107e-02,2,0,0,TRUE,13,1487,405504.0,3.830910e-03,-7.60031658e-09,1.2267727e+00,1.5021155e+00,-1.8208996e+00,2.63214111e-04,0.00000000,1.45862760e-04,2.6559282e+07,5.28803924e-02,1,0,0,TRUE,14,1487,405504.0,3.849983e-03,-7.66889087e-09,1.2092053e+00,-2.1855103e+00,-2.0296899e+00,-2.46047974e-04,3.63797881e-12,1.45854178e-04,2.6560324e+07,4.66126428e-02,1,0,0,TRUE,15,1487,405504.0,6.666183e-04,-8.00033325e-09,1.1667635e+00,-1.2472664e+00,-1.1237192e+00,-1.40190125e-04,-7.27595761e-12,1.45857950e-04,2.6559866e+07,1.49862732e-02,2,0,0,TRUE,16,1487,405504.0,4.778862e-03,-7.84032658e-09,-2.9910903e+00,-4.52353557e-01,-2.17603938e-01,1.17301941e-04,0.00000000,1.45862387e-04,2.6559327e+07,2.37587259e-02,1,0,0,TRUE,17,1487,405504.0,3.645420e-03,-7.76032325e-09,-1.9501645e+00,-2.7603408e+00,-1.4731050e+00,3.81469727e-05,0.00000000,1.45849742e-04,2.6560862e+07,1.68558123e-02,2,0,0,TRUE,18,1487,405504.0,9.570122e-03,-8.18319801e-09,1.67045489e-01,-2.4976379e+00,-4.78069457e-02,-1.58309937e-04,3.63797881e-12,1.45856375e-04,2.6560057e+07,4.94349277e-03,1,0,0,TRUE,19,1487,405504.0,4.831314e-03,-7.79461039e-09,-1.8931810e+00,-5.73634288e-01,-1.8561834e+00,3.33786011e-05,0.00000000,1.45855795e-04,2.6560127e+07,1.46087702e-02,1,0,0,TRUE,20,1487,405504.0,3.614426e-03,-8.19462705e-09,1.13440800e-01,1.3515404e+00,1.91122172e-02,1.10626221e-04,0.00000000,1.45870430e-04,2.6558351e+07,4.46412378e-03,1,0,0,TRUE,21,1487,405504.0,1.414585e-02,-8.04604944e-09,-8.90955216e-01,-2.7009121e+00,1.1311798e+00,5.81741333e-05,0.00000000,1.45855878e-04,2.6560117e+07,-6.70517383e-03,1,0,0,TRUE,22,1487,405504.0,4.930019e-03,-8.22891420e-09,1.73440571e-01,-1.8266887e+00,-1.3238543e+00,2.11715698e-04,0.00000000,1.45859319e-04,2.6559700e+07,2.57660835e-03,1,0,0,TRUE,23,1487,405504.0,5.733490e-03,-7.85175563e-09,1.1822880e+00,2.7643105e+00,-2.5409411e+00,3.63349915e-04,3.63797881e-12,1.45854053e-04,2.6560339e+07,2.87381713e-02,1,0,0,TRUE,24,1487,405504.0,7.653713e-03,-7.92032991e-09,-8.64253614e-01,-7.28890670e-01,-2.21298076e-01,1.08718872e-04,3.63797881e-12,1.45858655e-04,2.6559780e+07,9.96488301e-03,1,0,0,TRUE,25,1487,405504.0,1.165581e-02,-7.81746849e-09,2.1312012e+00,-1.2475428e+00,2.80749943e-01,-1.85966492e-04,-1.09139364e-11,1.45855878e-04,2.6560117e+07,2.28599090e-02,1,0,0,TRUE,26,1487,405504.0,1.916838e-02,-7.60031658e-09,1.2253121e+00,9.46609582e-01,3.1378131e+00,2.89916992e-04,7.27595761e-12,1.45862138e-04,2.6559357e+07,5.08131136e-02,1,0,0,TRUE,27,1487,405504.0,2.110434e-02,-7.77175230e-09,2.1661273e+00,-1.7001821e+00,2.85912148e-01,2.02178955e-04,3.63797881e-12,1.45851069e-04,2.6560701e+07,2.74798277e-02,1,0,0,TRUE,28,1487,405504.0,1.382780e-02,-7.87461372e-09,-2.9824860e+00,-2.0949178e+00,-9.79010058e-01,-2.09808350e-05,0.00000000,1.45855048e-04,2.6560218e+07,2.19191474e-02,1,0,0,TRUE,29,1487,405504.0,3.728390e-03,-7.78318134e-09,-1.9419950e+00,-1.3941923e+00,1.2313724e+00,-4.19616699e-05,0.00000000,1.45861474e-04,2.6559438e+07,1.69816467e-02,2,0,0,TRUE,30,1487,405504.0,1.080656e-02,-8.03462039e-09,-3.0500328e+00,1.3787858e+00,-5.08248731e-01,8.48770142e-05,3.63797881e-12,1.45855587e-04,2.6560153e+07,6.95085045e-03,1,0,0,TRUE,31,1487,405504.0,6.653786e-03,-7.80603944e-09,2.2227052e+00,-1.2206671e+00,1.9043971e+00,-2.47955322e-05,0.00000000,1.45849203e-04,2.6560928e+07,2.59338627e-02,2,0,0,TRUE,32,1487,405504.0,1.391459e-02,-7.95461706e-09,2.16166955e-01,-1.3087054e+00,2.9969535e+00,3.06129456e-04,3.63797881e-12,1.45845099e-04,2.6561426e+07,2.63832711e-02,1,0,0,TRUE*6def7a83

#BESTXYZA,UNKNOWN,0,72.5,FINESTEERING,1487,259124.000,00000000,d821,2945;SOL_COMPUTED,SINGLE,-3119514.5340,4086863.1512,3761998.2321,3.2091,2.8205,3.8012,SOL_COMPUTED,DOPPLER_VELOCITY,0.0036,-0.0117,-0.0028,0.3836,0.3371,0.4543,"",0.150,0.000,0.000,8,8,0,0,0,6,0,3*583bcd46

#PSRPOSA,UNKNOWN,0,72.5,FINESTEERING,1487,259124.000,00000000,6326,2945;SOL_COMPUTED,SINGLE,36.37686990790,127.35459936087,69.1212,25.0000,WGS84,2.2063,1.8057,4.9573,"",0.000,0.000,8,8,0,0,0,6,0,3*1e979a13

#RAWEPHEMA,UNKNOWN,27,62.5,SATTIME,1487,259140.000,00000000,97b7,2945;26,1487,259200,8b073c545ba773d10069e01b41b768e57d5ba397f3363f4800003d25ded0,8b073c5459a836ffb627651a6607adffc309cfde6f1354a10cf0b43f487f,8b073c545a2cff6031f8543b004028789ac51be826894698ffa9ec36fd5b*9c8240b4

#RAWEPHEMA,UNKNOWN,26,69.5,SATTIME,1487,259140.000,00000000,97b7,2945;21,1487,259200,8b073c545ba773d00061e01b41b768e57d5ba397e71a3f4800fff507b075,8b073c5459a81a0692382ac8af5fb30586073c99090c70a10da3ff3f4859,8b073c545a2c0062dbbfbdf6ff8d262075c81f7491ea4d95ffa4c81a02c4*5d3661fa

#RAWEPHEMA,UNKNOWN,25,69.5,SATTIME,1487,259140.000,00000000,97b7,2945;18,1487,259200,8b073c545ba773d00061e01b41b768e57d5ba397e95a3f48000026eb365b,8b073c5459a85afdd832e098a70372fe2804e52e070caaa10d9a273f487e,8b073c545a2c000706db3803ffb8269a2d601ff19a30d861ffa6ef5af7ae*69023cef

#RAWEPHEMA,UNKNOWN,24,69.5,SATTIME,1487,259140.000,00000000,97b7,2945;10,1487,259200,8b073c545ba773d10069e01b41b768e57d5ba397fb383f4800fffeffa3dc,8b073c5459a838fe9031185e3aa46bfe700415327d0bfca10d539d3f487e,8b073c545a2cffeb066fbefbffe327402e97222a16d68a2bffa6d238f1a2*a8455ca3

#RAWEPHEMA,UNKNOWN,23,69.5,SATTIME,1487,259140.000,00000000,97b7,2945;28,1487,259200,8b073c545ba773d10069e01b41b768e57d5ba397ea613f4800fffdfd44a8,8b073c5459a861f827336172a80db1f9100713fc3d0e39a10db4503f487c,8b073c545a2c001b8687d7b4ff9c274aeba11f48aaa9a164ffa98c61f963*4d60c783

#RAWEPHEMA,UNKNOWN,22,69.5,SATTIME,1487,259140.000,00000000,97b7,2945;24,1487,259200,8b073c545ba773d10069e01b41b768e57d5ba397fd473f4800001a0e2819,8b073c5459a84706e8340691861e3f05b903eb6e030d9ca10d59953f487f,8b073c545a2cfff4dcd5f6ce003926ce57781f93e24d72e8ffa75647fc9c*050c6dd7

#RAWEPHEMA,UNKNOWN,21,69.5,SATTIME,1487,259140.000,00000000,97b7,2945;15,1487,259200,8b073c545ba773d10069e01b41b768e57d5ba397eb4e3f4800ffc9edb35a,8b073c5459a84efedb2f5e6cb58932feed00577df31228a10d6aa13f487f,8b073c545a2cffea2f9641d400022702e42f1a6acd3bcd64ffa8bc4e0336*fb69b762

#RAWEPHEMA,UNKNOWN,20,69.5,SATTIME,1487,259140.000,00000000,97b7,2945;9,1487,259200,8b073c545ba773d10069e01b41b768e57d5ba397f49a3f4800000f009364,8b073c5459a89a01fb3035c7e6f8fb02ef0a49b0850caca10d4e153f487f,8b073c545a2c00345946b07d00f5279944ea21ca39c8b1abffa7519a10f6*40e57c66

#RANGEA,UNKNOWN,0,72.5,FINESTEERING,1487,259124.000,00000000,5103,2945;16,18,0,22847687.556,0.286,-120065410.066074,0.007,2644.785,49.0,103.888,18109c04,18,0,22847686.076,0.273,-93557460.613840,0.010,2060.871,33.7,99.380,11309c0b,26,0,20839077.427,0.235,-109510089.374259,0.005,-2235.141,50.7,103.930,08109c24,26,0,20839076.845,0.089,-85332533.177886,0.005,-1741.668,43.4,99.380,01309c2b,24,0,21018003.212,0.235,-110450349.855979,0.005,-1654.883,50.7,103.884,18109c44,24,0,21018004.161,0.075,-86065209.315827,0.006,-1289.523,44.9,99.380,11309c4b,28,0,25255063.803,0.634,-132716255.866397,0.015,641.387,42.0,103.886,08109c64,28,0,25255062.493,0.356,-103415263.953576,0.029,499.781,31.4,98.320,01309c6b,21,0,21348274.440,0.224,-112185941.246994,0.005,1447.969,51.1,103.910,08109c84,21,0,21348272.505,0.084,-87417608.389893,0.005,1128.285,43.9,98.340,01309c8b,9,0,21717762.111,0.273,-114127612.383188,0.007,3378.934,49.4,103.954,18109ca4,9,0,21717763.281,0.095,-88930605.469530,0.007,2632.934,42.8,99.380,11309cab,15,0,20714010.771,0.222,-108852855.047246,0.004,-1082.172,51.1,104.010,08109cc4,15,0,20714010.021,0.064,-84820405.105850,0.005,-843.250,46.3,99.380,01309ccb,10,0,23202054.523,0.338,-121927618.368920,0.011,-2524.293,47.5,103.890,08109ce4,10,0,23202055.176,0.215,-95008534.675864,0.012,-1966.984,35.7,99.380,01309ceb*d23ed9b5

#SATXYZA,UNKNOWN,0,72.5,FINESTEERING,1487,259124.000,00000000,6f3c,2945;0.0,8,18,7183398.3624,15702321.5698,20458632.4860,-47542.853,-1.269335897,4.444887206,0.000000000,0.000000000,26,-13544515.0119,4582019.2380,21899210.8150,86610.311,-1.297614158,3.068492461,0.000000000,0.000000000,24,-11817846.3389,23017927.6341,6774015.1196,32381.563,1.826553305,2.740041426,0.000000000,0.000000000,28,-18991465.6226,-12328319.1462,14538108.0590,-6251.398,-0.047905319,16.754209281,0.000000000,0.000000000,21,1287449.8246,19905547.8699,17431243.3577,17596.726,-2.387676390,3.148229158,0.000000000,0.000000000,9,-14263619.7393,22301882.0440,-205471.6501,1330.434,0.817595381,3.480581167,0.000000000,0.000000000,15,-11779279.6673,10348631.3695,21457667.8593,-41855.186,-1.121746435,2.617983500,0.000000000,0.000000000,10,-26041185.7058,1129377.1868,5798401.9979,-827.280,2.148568034,5.302667833,0.000000000,0.000000000*72fc820f

#RANGEA,UNKNOWN,0,72.5,FINESTEERING,1487,259124.500,00000000,5103,2945;16,18,0,22847435.914,0.283,-120064087.716816,0.006,2644.648,49.1,104.388,18109c04,18,0,22847434.428,0.267,-93556430.213049,0.010,2060.766,33.8,99.880,11309c0b,26,0,20839289.757,0.235,-109511207.044951,0.005,-2235.449,50.7,104.430,08109c24,26,0,20839289.536,0.091,-85333404.090112,0.005,-1741.910,43.2,99.880,01309c2b,24,0,21018160.655,0.236,-110451177.365814,0.005,-1655.141,50.6,104.384,18109c44,24,0,21018161.639,0.076,-86065854.129913,0.006,-1289.723,44.8,99.880,11309c4b,28,0,25255001.935,0.628,-132715935.235343,0.015,641.125,42.1,104.386,08109c64,28,0,25255001.506,0.296,-103415014.101375,0.029,499.574,32.9,98.820,01309c6b,21,0,21348136.615,0.224,-112185217.358833,0.005,1447.598,51.1,104.410,08109c84,21,0,21348134.750,0.090,-87417044.319969,0.005,1127.996,43.3,98.840,01309c8b,9,0,21717440.895,0.274,-114125922.967372,0.007,3378.746,49.4,104.454,18109ca4,9,0,21717441.796,0.094,-88929289.044077,0.007,2632.789,42.9,99.880,11309cab,15,0,20714113.830,0.223,-108853396.169356,0.005,-1082.230,51.1,104.510,08109cc4,15,0,20714112.995,0.062,-84820826.759442,0.005,-843.301,46.6,99.880,01309ccb,10,0,23202294.990,0.335,-121928880.623781,0.010,-2524.473,47.6,104.390,08109ce4,10,0,23202295.354,0.221,-95009518.251080,0.012,-1967.125,35.5,99.880,01309ceb*bedac588

#PSRPOSA,UNKNOWN,0,72.5,FINESTEERING,1487,259124.500,00000000,6326,2945;SOL_COMPUTED,SINGLE,36.37687309433,127.35460086059,68.7356,25.0000,WGS84,2.2062,1.8056,4.9572,"",0.000,0.000,8,8,0,0,0,6,0,3*b01fa5ff

#SATXYZA,UNKNOWN,0,72.5,FINESTEERING,1487,259124.500,00000000,6f3c,2945;0.0,8,18,7182126.8243,15702209.2907,20459151.6971,-47542.852,-1.270726085,4.445009604,0.000000000,0.000000000,26,-13545072.9076,4580685.2408,21899172.0207,86610.312,-1.297614158,3.068576958,0.000000000,0.000000000,24,-11818207.8810,23018173.9419,6772523.8694,32381.564,1.826089913,2.740116878,0.000000000,0.000000000,28,-18990578.7231,-12328302.9096,14539296.3011,-6251.398,-0.048832121,16.754670637,0.000000000,0.000000000,21,1286698.5483,19906364.8719,17430324.8824,17596.726,-2.388139788,3.148315850,0.000000000,0.000000000,9,-14263715.2217,22301789.9707,-203866.5682,1330.434,0.818058785,3.480677011,0.000000000,0.000000000,15,-11779891.1556,10347415.7546,21457919.1385,-41855.187,-1.122209827,2.618055591,0.000000000,0.000000000,10,-26041543.4841,1129216.4641,5796878.7612,-827.280,2.148568045,5.302813851,0.000000000,0.000000000*2200427e

#BESTXYZA,UNKNOWN,0,72.5,FINESTEERING,1487,259124.500,00000000,d821,2945;SOL_COMPUTED,SINGLE,-3119514.3254,4086862.6561,3761998.2881,3.2092,2.8199,3.8013,SOL_COMPUTED,DOPPLER_VELOCITY,-0.0123,0.0036,-0.0017,0.3836,0.3370,0.4543,"",0.150,0.000,0.000,8,8,0,0,0,6,0,3*4c870c81

#RANGEA,UNKNOWN,0,62.5,FINESTEERING,1487,259125.000,00000000,5103,2945;16,18,0,22847184.372,0.285,-120062765.414821,0.006,2644.664,49.0,104.888,18109c04,18,0,22847182.825,0.265,-93555399.847858,0.009,2060.777,33.9,100.380,11309c0b,26,0,20839502.506,0.236,-109512324.822770,0.005,-2235.594,50.6,104.930,08109c24,26,0,20839502.253,0.091,-85334275.088271,0.005,-1742.020,43.2,100.380,01309c2b,24,0,21018318.248,0.236,-110452005.067851,0.005,-1655.586,50.6,104.884,18109c44,24,0,21018319.144,0.075,-86066499.091312,0.006,-1290.070,44.8,100.380,11309c4b,28,0,25254941.423,0.612,-132715614.771284,0.017,640.758,42.4,104.886,08109c64,28,0,25254940.580,0.364,-103414764.387894,0.028,499.289,31.2,99.320,01309c6b,21,0,21347998.911,0.225,-112184493.673902,0.005,1447.195,51.1,104.910,08109c84,21,0,21347997.041,0.087,-87416480.409633,0.005,1127.680,43.6,99.340,01309c8b,9,0,21717119.455,0.276,-114124233.693344,0.007,3378.539,49.3,104.954,18109ca4,9,0,21717120.337,0.091,-88927972.726652,0.007,2632.629,43.2,100.380,11309cab,15,0,20714216.882,0.223,-108853937.404897,0.005,-1082.516,51.1,105.010,08109cc4,15,0,20714215.990,0.062,-84821248.501422,0.005,-843.523,46.6,100.380,01309ccb,10,0,23202535.292,0.337,-121930142.973168,0.010,-2524.734,47.5,104.890,08109ce4,10,0,23202535.565,0.252,-95010501.899953,0.011,-1967.328,34.4,100.380,01309ceb*6abaa39b

#PSRPOSA,UNKNOWN,0,62.5,FINESTEERING,1487,259125.000,00000000,6326,2945;SOL_COMPUTED,SINGLE,36.37687272010,127.35460014204,69.1034,25.0000,WGS84,2.2062,1.8057,4.9565,"",0.000,0.000,8,8,0,0,0,6,0,3*c4bc5608

#SATXYZA,UNKNOWN,0,62.5,FINESTEERING,1487,259125.000,00000000,6f3c,2945;0.0,8,18,7180855.2502,15702097.0437,20459670.8018,-47542.851,-1.271189489,4.444577658,0.000000000,0.000000000,26,-13545630.8432,4579351.2648,21899133.1045,86610.312,-1.297614158,3.069090601,0.000000000,0.000000000,24,-11818569.3593,23018420.1868,6771032.5840,32381.565,1.825626520,2.740513471,0.000000000,0.000000000,28,-18989691.7505,-12328286.6909,14540484.4689,-6251.397,-0.045124937,16.753370720,0.000000000,0.000000000,21,1285947.3264,19907181.8484,17429406.3136,17596.726,-2.387676396,3.148359380,0.000000000,0.000000000,9,-14263810.6532,22301697.8142,-202261.4851,1330.434,0.817131989,3.480366183,0.000000000,0.000000000,15,-11780502.6856,10346200.1432,21458170.3038,-41855.188,-1.122209833,2.618357685,0.000000000,0.000000000,10,-26041901.1725,1129055.7630,5795355.4942,-827.280,2.148568045,5.304168900,0.000000000,0.000000000*83c1c7c0

#BESTXYZA,UNKNOWN,0,62.5,FINESTEERING,1487,259125.000,00000000,d821,2945;SOL_COMPUTED,SINGLE,-3119514.4688,4086862.9502,3761998.4728,3.2094,2.8187,3.8013,SOL_COMPUTED,DOPPLER_VELOCITY,0.0140,-0.0040,-0.0100,0.3836,0.3369,0.4543,"",0.150,0.000,0.000,8,8,0,0,0,6,0,3*b80de42f

#RANGEA,UNKNOWN,0,62.5,FINESTEERING,1487,259125.500,00000000,5103,2945;16,18,0,22846932.438,0.285,-120061443.223106,0.006,2644.266,49.0,105.388,18109c04,18,0,22846931.206,0.253,-93554369.572282,0.009,2060.465,34.3,100.880,11309c0b,26,0,20839715.334,0.236,-109513442.762858,0.005,-2235.938,50.6,105.430,08109c24,26,0,20839714.999,0.088,-85335146.212873,0.005,-1742.289,43.4,100.880,01309c2b,24,0,21018475.666,0.237,-110452832.965240,0.005,-1655.922,50.6,105.384,18109c44,24,0,21018476.679,0.073,-86067144.206160,0.005,-1290.332,45.0,100.880,11309c4b,28,0,25254880.953,0.620,-132715294.458465,0.018,640.777,42.3,105.386,08109c64,28,0,25254879.583,0.242,-103414514.794717,0.029,499.309,34.7,99.820,01309c6b,21,0,21347861.108,0.225,-112183770.204803,0.005,1446.777,51.0,105.410,08109c84,21,0,21347859.368,0.086,-87415916.665023,0.005,1127.355,43.6,99.840,01309c8b,9,0,21716797.827,0.276,-114122544.598914,0.007,3378.141,49.3,105.454,18109ca4,9,0,21716798.913,0.092,-88926656.549174,0.007,2632.316,43.1,100.880,11309cab,15,0,20714319.779,0.224,-108854478.790103,0.004,-1082.879,51.1,105.510,08109cc4,15,0,20714319.009,0.063,-84821670.358797,0.005,-843.805,46.3,100.880,01309ccb,10,0,23202775.871,0.333,-121931405.462767,0.010,-2525.113,47.7,105.390,08109ce4,10,0,23202775.780,0.237,-95011485.655627,0.011,-1967.625,34.9,100.880,01309ceb*31ea8996

#PSRPOSA,UNKNOWN,0,62.5,FINESTEERING,1487,259125.500,00000000,6326,2945;SOL_COMPUTED,SINGLE,36.37687237424,127.35459617527,69.3536,25.0000,WGS84,2.2061,1.8057,4.9574,"",0.000,0.000,8,8,0,0,0,6,0,3*16964ee6

#SATXYZA,UNKNOWN,0,62.5,FINESTEERING,1487,259125.500,00000000,6f3c,2945;0.0,8,18,7179583.6402,15701984.8288,20460189.8004,-47542.850,-1.296332580,4.444246993,0.000000000,0.000000000,26,-13546188.8187,4578017.3100,21899094.0663,86610.312,-1.285518880,3.068862269,0.000000000,0.000000000,24,-11818930.7738,23018666.3688,6769541.2633,32381.565,1.816295152,2.740309584,0.000000000,0.000000000,28,-18988804.7049,-12328270.4903,14541672.5623,-6251.397,-0.044661545,16.752124312,0.000000000,0.000000000,21,1285196.1588,19907998.7995,17428487.6514,17596.725,-2.387676384,3.148125150,0.000000000,0.000000000,9,-14263906.0338,22301605.5745,-200656.4010,1330.434,0.830448813,3.480107253,0.000000000,0.000000000,15,-11781114.2575,10344984.5351,21458421.3552,-41855.189,-1.129169830,2.618162886,0.000000000,0.000000000,10,-26042258.7709,1128895.0836,5793832.1968,-827.280,2.126182907,5.303774283,0.000000000,0.000000000*cd12d8ca

#BESTXYZA,UNKNOWN,0,62.5,FINESTEERING,1487,259125.500,00000000,d821,2945;SOL_COMPUTED,SINGLE,-3119514.3219,4086863.3444,3761998.5903,3.2097,2.8194,3.8016,SOL_COMPUTED,DOPPLER_VELOCITY,0.0124,-0.0300,-0.0312,0.3836,0.3370,0.4544,"",0.150,0.000,0.000,8,8,0,0,0,6,0,3*6059cd18

#RANGEA,UNKNOWN,0,62.5,FINESTEERING,1487,259126.000,00000000,5103,2945;16,18,0,22846680.910,0.289,-120060121.067625,0.006,2644.285,48.9,105.888,18109c04,18,0,22846679.609,0.282,-93553339.323714,0.009,2060.480,33.3,101.380,11309c0b,26,0,20839927.895,0.236,-109514560.792745,0.005,-2236.195,50.6,105.930,08109c24,26,0,20839927.755,0.087,-85336017.406220,0.005,-1742.488,43.6,101.380,01309c2b,24,0,21018633.667,0.238,-110453661.053254,0.005,-1656.305,50.5,105.884,18109c44,24,0,21018634.256,0.073,-86067789.470776,0.005,-1290.629,45.0,101.380,11309c4b,28,0,25254819.165,0.613,-132714974.340998,0.017,640.477,42.4,105.886,08109c64,28,0,25254818.661,0.287,-103414265.354990,0.028,499.074,33.2,100.320,01309c6b,21,0,21347723.604,0.225,-112183046.937358,0.005,1446.406,51.0,105.910,08109c84,21,0,21347721.734,0.089,-87415353.078774,0.005,1127.066,43.3,100.340,01309c8b,9,0,21716476.521,0.280,-114120855.638395,0.007,3377.891,49.2,105.954,18109ca4,9,0,21716477.514,0.087,-88925340.474815,0.007,2632.121,43.5,101.380,11309cab,15,0,20714423.017,0.225,-108855020.280862,0.005,-1083.020,51.1,106.010,08109cc4,15,0,20714422.048,0.063,-84822092.302103,0.005,-843.914,46.3,101.380,01309ccb,10,0,23203015.840,0.335,-121932668.031138,0.010,-2525.172,47.6,105.890,08109ce4,10,0,23203016.044,0.224,-95012469.471454,0.011,-1967.672,35.3,101.380,01309ceb*a301a4d5

#PSRPOSA,UNKNOWN,0,62.5,FINESTEERING,1487,259126.000,00000000,6326,2945;SOL_COMPUTED,SINGLE,36.37687403214,127.35459932558,68.4368,25.0000,WGS84,2.2062,1.8059,4.9576,"",0.000,0.000,8,8,0,0,0,6,0,3*731230d4

#BESTXYZA,UNKNOWN,0,62.5,FINESTEERING,1487,259126.000,00000000,d821,2945;SOL_COMPUTED,SINGLE,-3119514.0325,4086862.4993,3761998.1947,3.2102,2.8190,3.8019,SOL_COMPUTED,DOPPLER_VELOCITY,0.0307,-0.0430,-0.0441,0.3837,0.3369,0.4544,"",0.150,0.000,0.000,8,8,0,0,0,6,0,3*416568e0

#SATXYZA,UNKNOWN,0,62.5,FINESTEERING,1487,259126.000,00000000,6f3c,2945;0.0,8,18,7178311.9943,15701872.6459,20460708.6926,-47542.849,-1.297722780,4.443512836,0.000000000,0.000000000,26,-13546746.8340,4576683.3766,21899054.9061,86610.312,-1.286445670,3.069166752,0.000000000,0.000000000,24,-11819292.1245,23018912.4878,6768049.9073,32381.566,1.816295158,2.740520034,0.000000000,0.000000000,28,-18987917.5862,-12328254.3078,14542860.5813,-6251.396,-0.045124943,16.749674628,0.000000000,0.000000000,21,1284445.0457,19908815.7251,17427568.8957,17596.725,-2.386749600,3.147954659,0.000000000,0.000000000,9,-14264001.3634,22301513.2517,-199051.3158,1330.435,0.830448813,3.479560364,0.000000000,0.000000000,15,-11781725.8711,10343768.9306,21458672.2927,-41855.189,-1.128706432,2.618286653,0.000000000,0.000000000,10,-26042616.2793,1128734.4259,5792308.8690,-827.280,2.127109703,5.304768302,0.000000000,0.000000000*d6014050

#RANGEA,UNKNOWN,0,70.0,FINESTEERING,1487,259126.500,00000000,5103,2945;16,18,0,22846429.465,0.287,-120058798.994066,0.006,2643.957,48.9,106.388,18109c04,18,0,22846428.028,0.275,-93552309.136525,0.009,2060.227,33.5,101.880,11309c0b,26,0,20840141.011,0.237,-109515678.925034,0.005,-2236.477,50.6,106.430,08109c24,26,0,20840140.528,0.091,-85336888.678134,0.005,-1742.711,43.1,101.880,01309c2b,24,0,21018791.071,0.236,-110454489.320867,0.005,-1656.902,50.6,106.384,18109c44,24,0,21018791.866,0.076,-86068434.874110,0.005,-1291.094,44.7,101.880,11309c4b,28,0,25254758.464,0.591,-132714654.395252,0.016,639.723,42.7,106.386,08109c64,28,0,25254757.754,0.277,-103414016.044161,0.028,498.480,33.5,100.820,01309c6b,21,0,21347586.068,0.225,-112182323.871567,0.005,1445.828,51.1,106.410,08109c84,21,0,21347584.135,0.086,-87414789.654567,0.005,1126.617,43.6,100.840,01309c8b,9,0,21716155.604,0.279,-114119166.832266,0.007,3377.383,49.2,106.454,18109ca4,9,0,21716156.147,0.094,-88924024.521988,0.007,2631.727,42.9,101.880,11309cab,15,0,20714525.718,0.225,-108855561.892929,0.005,-1083.449,51.1,106.510,08109cc4,15,0,20714525.112,0.061,-84822514.336252,0.005,-844.250,46.6,101.880,01309ccb,10,0,23203256.263,0.332,-121933930.705061,0.009,-2525.512,47.7,106.390,08109ce4,10,0,23203256.318,0.226,-95013453.370757,0.011,-1967.934,35.2,101.880,01309ceb*6d82f939

#PSRPOSA,UNKNOWN,0,70.0,FINESTEERING,1487,259126.500,00000000,6326,2945;SOL_COMPUTED,SINGLE,36.37687518672,127.35459998225,69.0524,25.0000,WGS84,2.2060,1.8058,4.9561,"",0.000,0.000,8,8,0,0,0,6,0,3*66b8699d

#SATXYZA,UNKNOWN,0,70.0,FINESTEERING,1487,259126.500,00000000,6f3c,2945;0.0,8,18,7177040.3124,15701760.4951,20461227.4786,-47542.848,-1.298649570,4.443573997,0.000000000,0.000000000,26,-13547304.8891,4575349.4644,21899015.6240,86610.313,-1.286909074,3.069208997,0.000000000,0.000000000,24,-11819653.4114,23019158.5439,6766558.5160,32381.567,1.815831754,2.740557755,0.000000000,0.000000000,28,-18987030.3945,-12328238.1432,14544048.5260,-6251.395,-0.062383236,16.749905172,0.000000000,0.000000000,21,1283693.9869,19909632.6252,17426650.0466,17596.725,-2.395197906,3.147997988,0.000000000,0.000000000,9,-14264096.6422,22301420.8456,-197446.2295,1330.435,0.830912211,3.479608257,0.000000000,0.000000000,15,-11782337.5265,10342553.3294,21458923.1162,-41855.190,-1.129633228,2.618322691,0.000000000,0.000000000,10,-26042973.6977,1128573.7898,5790785.5110,-827.279,2.128499891,5.304841317,0.000000000,0.000000000*27813599

#BESTXYZA,UNKNOWN,0,70.0,FINESTEERING,1487,259126.500,00000000,d821,2945;SOL_COMPUTED,SINGLE,-3119514.3339,4086862.7972,3761998.6629,3.2100,2.8169,3.8015,SOL_COMPUTED,DOPPLER_VELOCITY,0.0028,-0.0131,-0.0061,0.3837,0.3367,0.4544,"",0.150,0.000,0.000,8,8,0,0,0,6,0,3*5c4d1bbf

#RANGEA,UNKNOWN,0,70.0,FINESTEERING,1487,259127.000,00000000,5103,2945;16,18,0,22846177.833,0.287,-120057477.134764,0.006,2643.703,48.9,106.888,18109c04,18,0,22846176.512,0.259,-93551279.111379,0.010,2060.027,34.0,102.380,11309c0b,26,0,20840353.779,0.236,-109516797.347200,0.005,-2236.914,50.6,106.930,08109c24,26,0,20840353.357,0.089,-85337760.173470,0.005,-1743.051,43.3,102.380,01309c2b,24,0,21018948.676,0.237,-110455317.938223,0.005,-1657.434,50.6,106.884,18109c44,24,0,21018949.550,0.072,-86069080.548744,0.005,-1291.512,45.1,102.380,11309c4b,28,0,25254698.073,0.601,-132714334.748835,0.016,638.625,42.5,106.886,08109c64,28,0,25254696.905,0.417,-103413766.966576,0.027,497.625,29.9,101.320,01309c6b,21,0,21347448.616,0.224,-112181601.174424,0.005,1445.109,51.1,106.910,08109c84,21,0,21347446.613,0.087,-87414226.512709,0.005,1126.055,43.5,101.340,01309c8b,9,0,21715834.056,0.280,-114117478.331770,0.007,3376.824,49.2,106.954,18109ca4,9,0,21715834.840,0.088,-88922708.808542,0.007,2631.293,43.4,102.380,11309cab,15,0,20714628.920,0.224,-108856103.785420,0.006,-1083.980,51.1,107.010,08109cc4,15,0,20714628.228,0.062,-84822936.588914,0.005,-844.664,46.4,102.380,01309ccb,10,0,23203495.964,0.330,-121935193.645230,0.009,-2525.996,47.7,106.890,08109ce4,10,0,23203496.640,0.223,-95014437.481207,0.010,-1968.312,35.3,102.380,01309ceb*f034d913

#PSRPOSA,UNKNOWN,0,70.0,FINESTEERING,1487,259127.000,00000000,6326,2945;SOL_COMPUTED,SINGLE,36.37687260781,127.35460040387,69.0980,25.0000,WGS84,2.2061,1.8059,4.9573,"",0.000,0.000,8,8,0,0,0,6,0,3*f3c537f1

#SATXYZA,UNKNOWN,0,70.0,FINESTEERING,1487,259127.000,00000000,6f3c,2945;0.0,8,18,7175768.5947,15701648.3764,20461746.1583,-47542.847,-1.298649570,4.442800973,0.000000000,0.000000000,26,-13547862.9841,4574015.5736,21898976.2199,86610.313,-1.286909068,3.069486743,0.000000000,0.000000000,24,-11820014.6345,23019404.5370,6765067.0896,32381.568,1.815831760,2.740744205,0.000000000,0.000000000,28,-18986143.1297,-12328221.9967,14545236.3962,-6251.395,-0.061456440,16.747311876,0.000000000,0.000000000,21,1282942.9825,19910449.4999,17425731.1041,17596.725,-2.396588100,3.147799937,0.000000000,0.000000000,9,-14264191.8700,22301328.3564,-195841.1422,1330.435,0.830912211,3.479030902,0.000000000,0.000000000,15,-11782949.2236,10341337.7317,21459173.8258,-41855.191,-1.129169835,2.618423596,0.000000000,0.000000000,10,-26043331.0262,1128413.1754,5789262.1226,-827.279,2.129426687,5.305789210,0.000000000,0.000000000*682f05c8

#BESTXYZA,UNKNOWN,0,70.0,FINESTEERING,1487,259127.000,00000000,d821,2945;SOL_COMPUTED,SINGLE,-3119514.4893,4086862.9383,3761998.4596,3.2105,2.8179,3.8020,SOL_COMPUTED,DOPPLER_VELOCITY,-0.0122,0.0445,0.0259,0.3837,0.3368,0.4544,"",0.150,0.000,0.000,8,8,0,0,0,6,0,3*ce9d036b

#RANGEA,UNKNOWN,0,71.5,FINESTEERING,1487,259127.500,00000000,5103,2945;16,18,0,22845926.389,0.286,-120056155.355809,0.007,2643.480,49.0,107.388,18109c04,18,0,22845924.964,0.253,-93550249.154979,0.010,2059.855,34.2,102.880,11309c0b,26,0,20840566.614,0.236,-109517915.900127,0.005,-2237.297,50.6,107.430,08109c24,26,0,20840566.211,0.094,-85338631.771926,0.006,-1743.352,42.8,102.880,01309c2b,24,0,21019106.417,0.237,-110456146.739902,0.006,-1657.910,50.6,107.384,18109c44,24,0,21019107.261,0.075,-86069726.368235,0.006,-1291.883,44.8,102.880,11309c4b,28,0,25254637.262,0.592,-132714015.278866,0.018,638.512,42.7,107.386,08109c64,28,0,25254636.100,0.360,-103413518.019117,0.029,497.535,31.2,101.820,01309c6b,21,0,21347311.096,0.224,-112180878.680511,0.005,1444.711,51.1,107.410,08109c84,21,0,21347309.128,0.086,-87413663.529211,0.005,1125.746,43.6,101.840,01309c8b,9,0,21715513.075,0.278,-114115789.984089,0.008,3376.527,49.2,107.454,18109ca4,9,0,21715513.554,0.087,-88921393.214174,0.008,2631.059,43.5,102.880,11309cab,15,0,20714732.203,0.223,-108856645.805520,0.005,-1084.160,51.1,107.510,08109cc4,15,0,20714731.368,0.062,-84823358.942238,0.005,-844.805,46.4,102.880,01309ccb,10,0,23203736.336,0.327,-121936456.684651,0.011,-2526.363,47.8,107.390,08109ce4,10,0,23203736.992,0.274,-95015421.666541,0.011,-1968.598,33.5,102.880,01309ceb*0d026942

#PSRPOSA,UNKNOWN,0,71.5,FINESTEERING,1487,259127.500,00000000,6326,2945;SOL_COMPUTED,SINGLE,36.37687367965,127.35460068372,69.1046,25.0000,WGS84,2.2059,1.8059,4.9570,"",0.000,0.000,8,8,0,0,0,6,0,3*db15fc2c

#SATXYZA,UNKNOWN,0,71.5,FINESTEERING,1487,259127.500,00000000,6f3c,2945;0.0,8,18,7174496.8411,15701536.2898,20462264.7318,-47542.846,-1.296795978,4.442876954,0.000000000,0.000000000,26,-13548421.1189,4572681.7040,21898936.6938,86610.313,-1.285982278,3.069539238,0.000000000,0.000000000,24,-11820375.7938,23019650.4671,6763575.6278,32381.568,1.816295158,2.740791077,0.000000000,0.000000000,28,-18985255.7919,-12328205.8682,14546424.1920,-6251.394,-0.060529638,16.747598292,0.000000000,0.000000000,21,1282192.0326,19911266.3491,17424812.0682,17596.724,-2.396124708,3.147853771,0.000000000,0.000000000,9,-14264287.0469,22301235.7839,-194236.0538,1330.435,0.830448813,3.479090401,0.000000000,0.000000000,15,-11783560.9625,10340122.1375,21459424.4215,-41855.192,-1.128706432,2.618468377,0.000000000,0.000000000,10,-26043688.2647,1128252.5827,5787738.7039,-827.279,2.128963289,5.305879951,0.000000000,0.000000000*ec08dcd0

#BESTXYZA,UNKNOWN,0,71.5,FINESTEERING,1487,259127.500,00000000,d821,2945;SOL_COMPUTED,SINGLE,-3119514.4696,4086862.8712,3761998.5592,3.2106,2.8172,3.8020,SOL_COMPUTED,DOPPLER_VELOCITY,0.0010,0.0247,0.0150,0.3837,0.3367,0.4544,"",0.150,0.000,0.000,8,8,0,0,0,6,0,3*d80be796

#RANGEA,UNKNOWN,0,70.0,FINESTEERING,1487,259128.000,00000000,5103,2945;16,18,0,22845674.775,0.285,-120054833.646172,0.006,2643.410,49.0,107.888,18109c04,18,0,22845673.457,0.251,-93549219.252594,0.010,2059.801,34.2,103.380,11309c0b,26,0,20840779.437,0.235,-109519034.566483,0.005,-2237.469,50.7,107.930,08109c24,26,0,20840779.095,0.091,-85339503.456313,0.005,-1743.484,43.1,103.380,01309c2b,24,0,21019264.190,0.236,-110456975.738510,0.006,-1658.094,50.6,107.884,18109c44,24,0,21019265.010,0.073,-86070372.339948,0.006,-1292.023,45.0,103.380,11309c4b,28,0,25254575.867,0.588,-132713695.956986,0.016,638.461,42.7,107.886,08109c64,28,0,25254575.331,0.267,-103413269.182142,0.029,497.496,33.7,102.320,01309c6b,21,0,21347173.646,0.226,-112180156.391402,0.006,1444.359,51.0,107.910,08109c84,21,0,21347171.678,0.088,-87413100.704073,0.006,1125.473,43.4,102.340,01309c8b,9,0,21715191.937,0.278,-114114101.793949,0.007,3376.188,49.2,107.954,18109ca4,9,0,21715192.301,0.088,-88920077.742566,0.008,2630.797,43.3,103.380,11309cab,15,0,20714835.345,0.224,-108857187.948503,0.005,-1084.418,51.1,108.010,08109cc4,15,0,20714834.532,0.063,-84823781.392544,0.005,-845.004,46.2,103.380,01309ccb,10,0,23203977.025,0.337,-121937719.839077,0.012,-2526.473,47.5,107.890,08109ce4,10,0,23203977.364,0.233,-95016405.946400,0.013,-1968.684,34.9,103.380,01309ceb*13ed90c5

#PSRPOSA,UNKNOWN,0,70.0,FINESTEERING,1487,259128.000,00000000,6326,2945;SOL_COMPUTED,SINGLE,36.37687577687,127.35460071886,68.6615,25.0000,WGS84,2.2057,1.8059,4.9569,"",0.000,0.000,8,8,0,0,0,6,0,3*ecad152a

#BESTXYZA,UNKNOWN,0,70.0,FINESTEERING,1487,259128.000,00000000,d821,2945;SOL_COMPUTED,SINGLE,-3119514.1720,4086862.4760,3761998.4839,3.2106,2.8169,3.8019,SOL_COMPUTED,DOPPLER_VELOCITY,0.0151,-0.0023,-0.0056,0.3837,0.3367,0.4544,"",0.150,0.000,0.000,8,8,0,0,0,6,0,3*01b56306

#SATXYZA,UNKNOWN,0,70.0,FINESTEERING,1487,259128.000,00000000,6f3c,2945;0.0,8,18,7173225.0515,15701424.2352,20462783.1990,-47542.845,-1.316108144,4.442119408,0.000000000,0.000000000,26,-13548979.2935,4571347.8558,21898897.0457,86610.313,-1.279293932,3.069827237,0.000000000,0.000000000,24,-11820736.8894,23019896.3344,6762084.1309,32381.569,1.804883110,2.740986534,0.000000000,0.000000000,28,-18984368.3810,-12328189.7577,14547611.9133,-6251.394,-0.056822460,16.745067045,0.000000000,0.000000000,21,1281441.1370,19912083.1727,17423892.9388,17596.724,-2.395661310,3.147666336,0.000000000,0.000000000,9,-14264382.1729,22301143.1283,-192630.9643,1330.435,0.826162034,3.478524579,0.000000000,0.000000000,15,-11784172.7432,10338906.5468,21459674.9032,-41855.193,-1.132985475,2.618577932,0.000000000,0.000000000,10,-26044045.4132,1128092.0115,5786215.2550,-827.279,2.123751424,5.306845636,0.000000000,0.000000000*1d66a0bb

#RANGEA,UNKNOWN,0,70.0,FINESTEERING,1487,259128.500,00000000,5103,2945;16,18,0,22845423.516,0.289,-120053511.961742,0.006,2643.223,48.9,108.388,18109c04,18,0,22845421.943,0.242,-93548189.371077,0.009,2059.652,34.5,103.880,11309c0b,26,0,20840992.509,0.236,-109520153.313186,0.005,-2237.797,50.6,108.430,08109c24,26,0,20840991.995,0.092,-85340375.208218,0.005,-1743.742,43.0,103.880,01309c2b,24,0,21019421.863,0.236,-110457804.882056,0.005,-1658.598,50.6,108.384,18109c44,24,0,21019422.789,0.075,-86071018.425828,0.006,-1292.418,44.8,103.880,11309c4b,28,0,25254514.812,0.591,-132713376.765866,0.016,638.016,42.7,108.386,08109c64,28,0,25254514.601,0.365,-103413020.459334,0.028,497.148,31.0,102.820,01309c6b,21,0,21347035.974,0.225,-112179434.270863,0.006,1443.930,51.1,108.410,08109c84,21,0,21347034.269,0.086,-87412538.015199,0.006,1125.141,43.5,102.840,01309c8b,9,0,21714870.485,0.276,-114112413.709364,0.007,3375.973,49.3,108.454,18109ca4,9,0,21714871.077,0.094,-88918762.353208,0.007,2630.629,42.8,103.880,11309cab,15,0,20714938.572,0.224,-108857730.174983,0.005,-1084.641,51.1,108.510,08109cc4,15,0,20714937.710,0.063,-84824203.905456,0.005,-845.176,46.3,103.880,01309ccb,10,0,23204217.432,0.336,-121938983.047068,0.011,-2526.629,47.6,108.390,08109ce4,10,0,23204217.724,0.210,-95017390.265543,0.013,-1968.805,35.8,103.880,01309ceb*eddcc591

#PSRPOSA,UNKNOWN,0,70.0,FINESTEERING,1487,259128.500,00000000,6326,2945;SOL_COMPUTED,SINGLE,36.37687378980,127.35460070377,68.4946,25.0000,WGS84,2.2057,1.8061,4.9578,"",0.000,0.000,8,8,0,0,0,6,0,3*4835d2fc

#SATXYZA,UNKNOWN,0,70.0,FINESTEERING,1487,259128.500,00000000,6f3c,2945;0.0,8,18,7171953.2262,15701312.2128,20463301.5599,-47542.844,-1.316571542,4.442348392,0.000000000,0.000000000,26,-13549537.5080,4570014.0289,21898857.2757,86610.314,-1.277903744,3.069985482,0.000000000,0.000000000,24,-11821097.9212,23020142.1386,6760592.5987,32381.570,1.805346502,2.741127827,0.000000000,0.000000000,28,-18983480.8970,-12328173.6653,14548799.5603,-6251.393,-0.051261696,16.745930224,0.000000000,0.000000000,21,1280690.2958,19912899.9709,17422973.7160,17596.724,-2.394734508,3.147828593,0.000000000,0.000000000,9,-14264477.2480,22301050.3894,-191025.8739,1330.435,0.825698630,3.478703891,0.000000000,0.000000000,15,-11784784.5656,10337690.9595,21459925.2710,-41855.194,-1.133448867,2.618712915,0.000000000,0.000000000,10,-26044402.4717,1127931.4620,5784691.7757,-827.278,2.122361230,5.307119194,0.000000000,0.000000000*74268713

#BESTXYZA,UNKNOWN,0,70.0,FINESTEERING,1487,259128.500,00000000,d821,2945;SOL_COMPUTED,SINGLE,-3119514.1687,4086862.4740,3761998.2073,3.2113,2.8172,3.8023,SOL_COMPUTED,DOPPLER_VELOCITY,0.0089,0.0056,-0.0133,0.3838,0.3367,0.4545,"",0.150,0.000,0.000,8,8,0,0,0,6,0,3*a8daec54

#RANGEA,UNKNOWN,0,70.0,FINESTEERING,1487,259129.000,00000000,5103,2945;16,18,0,22845171.937,0.289,-120052190.438004,0.007,2642.996,48.9,108.888,18109c04,18,0,22845170.455,0.215,-93547159.608638,0.009,2059.477,35.5,104.380,11309c0b,26,0,20841205.111,0.236,-109521272.288325,0.005,-2237.988,50.6,108.930,08109c24,26,0,20841204.928,0.088,-85341247.134442,0.006,-1743.891,43.3,104.380,01309c2b,24,0,21019579.888,0.236,-110458634.317054,0.006,-1659.059,50.6,108.884,18109c44,24,0,21019580.626,0.075,-86071664.738814,0.005,-1292.777,44.8,104.380,11309c4b,28,0,25254454.133,0.605,-132713057.840992,0.016,637.680,42.5,108.886,08109c64,28,0,25254453.953,0.328,-103412771.955038,0.029,496.891,31.9,103.320,01309c6b,21,0,21346898.852,0.225,-112178712.454379,0.005,1443.414,51.0,108.910,08109c84,21,0,21346896.907,0.082,-87411975.563252,0.006,1124.738,43.9,103.340,01309c8b,9,0,21714549.128,0.275,-114110725.884722,0.007,3375.457,49.3,108.954,18109ca4,9,0,21714549.897,0.087,-88917447.163948,0.008,2630.227,43.4,104.380,11309cab,15,0,20715041.659,0.223,-108858272.623597,0.005,-1084.988,51.1,109.010,08109cc4,15,0,20715040.939,0.061,-84824626.595144,0.005,-845.449,46.5,104.380,01309ccb,10,0,23204457.963,0.339,-121940246.464589,0.011,-2526.797,47.5,108.890,08109ce4,10,0,23204458.152,0.215,-95018374.749184,0.012,-1968.934,35.6,104.380,01309ceb*7f3dd824

#PSRPOSA,UNKNOWN,0,70.0,FINESTEERING,1487,259129.000,00000000,6326,2945;SOL_COMPUTED,SINGLE,36.37687500846,127.35460192353,68.6702,25.0000,WGS84,2.2056,1.8063,4.9594,"",0.000,0.000,8,8,0,0,0,6,0,3*ada886eb

#SATXYZA,UNKNOWN,0,70.0,FINESTEERING,1487,259129.000,00000000,6f3c,2945;0.0,8,18,7170681.3649,15701200.2224,20463819.8145,-47542.843,-1.317498338,4.441557367,0.000000000,0.000000000,26,-13550095.7623,4568680.2233,21898817.3837,86610.314,-1.278367136,3.070250552,0.000000000,0.000000000,24,-11821458.8891,23020387.8799,6759101.0313,32381.571,1.805346508,2.741303156,0.000000000,0.000000000,28,-18982593.3401,-12328157.5909,14549987.1328,-6251.393,-0.053749433,16.743269625,0.000000000,0.000000000,21,1279939.5090,19913716.7435,17422054.3999,17596.723,-2.397317938,3.147617697,0.000000000,0.000000000,9,-14264572.2722,22300957.5674,-189420.7824,1330.435,0.825235232,3.478112709,0.000000000,0.000000000,15,-11785396.4298,10336475.3758,21460175.5249,-41855.195,-1.132985463,2.618802963,0.000000000,0.000000000,10,-26044759.4403,1127770.9342,5783168.2661,-827.278,2.121897838,5.308045902,0.000000000,0.000000000*2023f151

#BESTXYZA,UNKNOWN,0,70.0,FINESTEERING,1487,259129.000,00000000,d821,2945;SOL_COMPUTED,SINGLE,-3119514.2928,4086862.4562,3761998.4203,3.2119,2.8186,3.8030,SOL_COMPUTED,DOPPLER_VELOCITY,-0.0012,-0.0108,0.0015,0.3839,0.3369,0.4545,"",0.150,0.000,0.000,8,8,0,0,0,6,0,3*e8b047e8

#RANGEA,UNKNOWN,0,68.5,FINESTEERING,1487,259129.500,00000000,5103,2945;16,18,0,22844920.544,0.287,-120050869.010367,0.006,2642.941,48.9,109.388,18109c04,18,0,22844919.009,0.251,-93546129.924765,0.009,2059.434,34.2,104.880,11309c0b,26,0,20841418.194,0.236,-109522391.398950,0.005,-2238.219,50.7,109.430,08109c24,26,0,20841417.893,0.090,-85342119.168696,0.006,-1744.070,43.1,104.880,01309c2b,24,0,21019737.528,0.236,-110459463.945830,0.006,-1659.328,50.6,109.384,18109c44,24,0,21019738.497,0.072,-86072311.201567,0.006,-1292.988,45.0,104.880,11309c4b,28,0,25254393.096,0.591,-132712739.103594,0.015,637.191,42.7,109.386,08109c64,28,0,25254393.271,0.284,-103412523.599282,0.030,496.512,33.1,103.820,01309c6b,21,0,21346761.552,0.225,-112177990.856880,0.005,1443.113,51.0,109.410,08109c84,21,0,21346759.590,0.085,-87411413.280714,0.005,1124.504,43.5,103.840,01309c8b,9,0,21714228.163,0.274,-114109038.222349,0.007,3375.277,49.3,109.454,18109ca4,9,0,21714228.743,0.087,-88916132.103586,0.007,2630.086,43.4,104.880,11309cab,15,0,20715144.960,0.224,-108858815.206123,0.005,-1085.160,51.1,109.510,08109cc4,15,0,20715144.187,0.062,-84825049.387949,0.005,-845.582,46.3,104.880,01309ccb,10,0,23204698.244,0.340,-121941510.001843,0.011,-2527.008,47.5,109.390,08109ce4,10,0,23204698.579,0.208,-95019359.324894,0.012,-1969.098,35.8,104.880,01309ceb*f9465d24

#PSRPOSA,UNKNOWN,0,68.5,FINESTEERING,1487,259129.500,00000000,6326,2945;SOL_COMPUTED,SINGLE,36.37687464504,127.35460294592,68.3694,25.0000,WGS84,2.2056,1.8063,4.9586,"",0.000,0.000,8,8,0,0,0,6,0,3*e12dcba9

#SATXYZA,UNKNOWN,0,68.5,FINESTEERING,1487,259129.500,00000000,6f3c,2945;0.0,8,18,7169409.4677,15701088.2641,20464337.9629,-47542.842,-1.316108144,4.441343933,0.000000000,0.000000000,26,-13550654.0564,4567346.4391,21898777.3697,86610.314,-1.277440351,3.070103015,0.000000000,0.000000000,24,-11821819.7934,23020633.5581,6757609.4287,32381.572,1.805346508,2.741171426,0.000000000,0.000000000,28,-18981705.7101,-12328141.5346,14551174.6309,-6251.392,-0.056993219,16.742465047,0.000000000,0.000000000,21,1279188.7767,19914533.4906,17421134.9903,17596.723,-2.398244734,3.147466442,0.000000000,0.000000000,9,-14264667.2455,22300864.6621,-187815.6899,1330.435,0.825698636,3.477945573,0.000000000,0.000000000,15,-11786008.3357,10335259.7955,21460425.6649,-41855.196,-1.133912265,2.618677119,0.000000000,0.000000000,10,-26045116.3188,1127610.4279,5781644.7263,-827.278,2.120971048,5.307790830,0.000000000,0.000000000*5d65655e

#BESTXYZA,UNKNOWN,0,68.5,FINESTEERING,1487,259129.500,00000000,d821,2945;SOL_COMPUTED,SINGLE,-3119514.2333,4086862.2270,3761998.2094,3.2119,2.8173,3.8029,SOL_COMPUTED,DOPPLER_VELOCITY,-0.0065,0.0241,0.0102,0.3839,0.3367,0.4545,"",0.150,0.000,0.000,8,8,0,0,0,6,0,3*810fc0db

#RANGEA,UNKNOWN,0,68.5,FINESTEERING,1487,259130.000,00000000,5103,2945;16,18,0,22844669.185,0.287,-120049547.578004,0.006,2642.910,49.0,109.888,18109c04,18,0,22844667.570,0.257,-93545100.235982,0.010,2059.406,34.0,105.380,11309c0b,26,0,20841631.413,0.235,-109523510.555262,0.005,-2238.527,50.7,109.930,08109c24,26,0,20841630.864,0.087,-85342991.238549,0.005,-1744.312,43.3,105.380,01309c2b,24,0,21019895.503,0.234,-110460293.713242,0.005,-1659.773,50.7,109.884,18109c44,24,0,21019896.397,0.071,-86072957.774804,0.006,-1293.332,45.1,105.380,11309c4b,28,0,25254332.885,0.583,-132712420.446541,0.014,637.133,42.8,109.886,08109c64,28,0,25254332.676,0.264,-103412275.302451,0.029,496.469,33.7,104.320,01309c6b,21,0,21346624.233,0.226,-112177269.416922,0.005,1442.570,51.0,109.910,08109c84,21,0,21346622.304,0.086,-87410851.122163,0.005,1124.082,43.5,104.340,01309c8b,9,0,21713906.845,0.272,-114107350.652925,0.007,3374.887,49.4,109.954,18109ca4,9,0,21713907.604,0.096,-88914817.114424,0.007,2629.781,42.5,105.380,11309cab,15,0,20715248.267,0.223,-108859357.857966,0.005,-1085.469,51.1,110.010,08109cc4,15,0,20715247.452,0.062,-84825472.229859,0.005,-845.824,46.3,105.380,01309ccb,10,0,23204938.483,0.342,-121942773.587934,0.011,-2527.293,47.4,109.890,08109ce4,10,0,23204939.036,0.228,-95020343.936206,0.013,-1969.324,35.0,105.380,01309ceb*a4c1bf54

#PSRPOSA,UNKNOWN,0,68.5,FINESTEERING,1487,259130.000,00000000,6326,2945;SOL_COMPUTED,SINGLE,36.37687227718,127.35460217765,68.4734,25.0000,WGS84,2.2054,1.8064,4.9585,"",0.000,0.000,8,8,0,0,0,6,0,3*39154aa7

#SATXYZA,UNKNOWN,0,68.5,FINESTEERING,1487,259130.000,00000000,6f3c,2945;0.0,8,18,7168137.5347,15700976.3379,20464856.0049,-47542.841,-1.316108144,4.440910333,0.000000000,0.000000000,26,-13551212.3903,4566012.6762,21898737.2337,86610.314,-1.277440340,3.070614884,0.000000000,0.000000000,24,-11822180.6338,23020879.1735,6756117.7908,32381.572,1.805809900,2.741566869,0.000000000,0.000000000,28,-18980818.0071,-12328125.4964,14552362.0546,-6251.391,-0.061163795,16.741155074,0.000000000,0.000000000,21,1278438.0987,19915350.2122,17420215.4873,17596.723,-2.398708132,3.147508556,0.000000000,0.000000000,9,-14264762.1680,22300771.6736,-186210.5963,1330.435,0.825235238,3.477633650,0.000000000,0.000000000,15,-11786620.2834,10334044.2187,21460675.6909,-41855.197,-1.134375663,2.618977586,0.000000000,0.000000000,10,-26045473.1074,1127449.9433,5780121.1562,-827.278,2.120507644,5.309144004,0.000000000,0.000000000*8bfe8a90

#BESTXYZA,UNKNOWN,0,68.5,FINESTEERING,1487,259130.000,00000000,d821,2945;SOL_COMPUTED,SINGLE,-3119514.3239,4086862.4593,3761998.0596,3.2120,2.8167,3.8029,SOL_COMPUTED,DOPPLER_VELOCITY,0.0434,-0.0352,-0.0279,0.3839,0.3367,0.4545,"",0.150,0.000,0.000,8,8,0,0,0,6,0,3*862d4f64

#RANGEA,UNKNOWN,0,67.5,FINESTEERING,1487,259130.500,00000000,5103,2945;16,18,0,22844417.810,0.289,-120048226.241742,0.007,2642.613,48.9,110.388,18109c04,18,0,22844416.125,0.269,-93544070.620855,0.010,2059.176,33.6,105.880,11309c0b,26,0,20841844.339,0.236,-109524629.825004,0.005,-2238.602,50.6,110.430,08109c24,26,0,20841843.860,0.090,-85343863.400473,0.005,-1744.367,43.1,105.880,01309c2b,24,0,21020053.469,0.235,-110461123.663403,0.006,-1660.031,50.7,110.384,18109c44,24,0,21020054.329,0.074,-86073604.486760,0.006,-1293.535,44.7,105.880,11309c4b,28,0,25254272.263,0.581,-132712101.961209,0.014,637.051,42.8,110.386,08109c64,28,0,25254272.067,0.298,-103412027.133290,0.027,496.402,32.6,104.820,01309c6b,21,0,21346487.041,0.227,-112176548.169166,0.005,1442.461,51.0,110.410,08109c84,21,0,21346485.049,0.082,-87410289.110924,0.006,1123.996,43.8,104.840,01309c8b,9,0,21713586.059,0.275,-114105663.226865,0.007,3374.902,49.3,110.454,18109ca4,9,0,21713586.492,0.091,-88913502.236975,0.007,2629.793,42.9,105.880,11309cab,15,0,20715351.652,0.225,-108859900.632693,0.005,-1085.562,51.1,110.510,08109cc4,15,0,20715350.736,0.062,-84825895.172432,0.005,-845.898,46.3,105.880,01309ccb,10,0,23205179.116,0.343,-121944037.285881,0.011,-2527.316,47.4,110.390,08109ce4,10,0,23205179.519,0.235,-95021328.632221,0.012,-1969.340,34.7,105.880,01309ceb*74641a58

#SATXYZA,UNKNOWN,0,67.5,FINESTEERING,1487,259130.500,00000000,6f3c,2945;0.0,8,18,7166865.5659,15700864.4438,20465373.9407,-47542.840,-1.341099033,4.440731839,0.000000000,0.000000000,26,-13551770.7641,4564678.9347,21898696.9758,86610.315,-1.277408304,3.070491466,0.000000000,0.000000000,24,-11822541.4105,23021124.7258,6754626.1178,32381.573,1.796500356,2.741456677,0.000000000,0.000000000,28,-18979930.2311,-12328109.4762,14553549.4038,-6251.391,-0.063944183,16.740482193,0.000000000,0.000000000,21,1277687.4751,19916166.9083,17419295.8909,17596.722,-2.399634928,3.147382048,0.000000000,0.000000000,9,-14264857.0395,22300678.6019,-184605.5018,1330.435,0.832771244,3.477493873,0.000000000,0.000000000,15,-11787232.2729,10332828.6455,21460925.6030,-41855.198,-1.136281431,2.618872321,0.000000000,0.000000000,10,-26045829.8060,1127289.4803,5778597.5559,-827.277,2.111574348,5.308930613,0.000000000,0.000000000*e10f7b68

#PSRPOSA,UNKNOWN,0,67.5,FINESTEERING,1487,259130.500,00000000,6326,2945;SOL_COMPUTED,SINGLE,36.37687381823,127.35460273984,68.5868,25.0000,WGS84,2.2054,1.8064,4.9587,"",0.000,0.000,8,8,0,0,0,6,0,3*26ef3bff

#BESTXYZA,UNKNOWN,0,67.5,FINESTEERING,1487,259130.500,00000000,d821,2945;SOL_COMPUTED,SINGLE,-3119514.3578,4086862.4206,3761998.2645,3.2124,2.8166,3.8031,SOL_COMPUTED,DOPPLER_VELOCITY,-0.0021,-0.0129,-0.0258,0.3840,0.3366,0.4546,"",0.150,0.000,0.000,8,8,0,0,0,6,0,3*65bd78fd

#RANGEA,UNKNOWN,0,67.5,FINESTEERING,1487,259131.000,00000000,5103,2945;16,18,0,22844166.063,0.289,-120046904.894452,0.007,2642.672,48.9,110.888,18109c04,18,0,22844164.672,0.293,-93543041.003272,0.010,2059.227,32.8,106.380,11309c0b,26,0,20842057.123,0.237,-109525749.154613,0.005,-2238.703,50.6,110.930,08109c24,26,0,20842056.871,0.088,-85344735.605362,0.005,-1744.449,43.2,106.380,01309c2b,24,0,21020211.242,0.236,-110461953.752201,0.006,-1660.383,50.6,110.884,18109c44,24,0,21020212.292,0.073,-86074251.306745,0.006,-1293.809,44.8,106.380,11309c4b,28,0,25254211.382,0.593,-132711783.601911,0.014,636.555,42.6,110.886,08109c64,28,0,25254211.428,0.329,-103411779.072158,0.029,496.020,31.7,105.320,01309c6b,21,0,21346349.981,0.227,-112175827.080527,0.005,1442.004,51.0,110.910,08109c84,21,0,21346347.829,0.084,-87409727.222445,0.005,1123.641,43.6,105.340,01309c8b,9,0,21713264.686,0.275,-114103975.911084,0.007,3374.508,49.3,110.954,18109ca4,9,0,21713265.415,0.090,-88912187.446685,0.007,2629.488,43.0,106.380,11309cab,15,0,20715454.941,0.224,-108860443.475162,0.005,-1085.762,51.1,111.010,08109cc4,15,0,20715454.036,0.061,-84826318.166564,0.005,-846.051,46.5,106.380,01309ccb,10,0,23205419.518,0.341,-121945301.032665,0.011,-2527.648,47.4,110.890,08109ce4,10,0,23205419.991,0.225,-95022313.372430,0.012,-1969.602,35.1,106.380,01309ceb*5b00640d

#PSRPOSA,UNKNOWN,0,67.5,FINESTEERING,1487,259131.000,00000000,6326,2945;SOL_COMPUTED,SINGLE,36.37687329357,127.35460265665,68.1829,25.0000,WGS84,2.2054,1.8066,4.9602,"",0.000,0.000,8,8,0,0,0,6,0,3*15a3efb4

#SATXYZA,UNKNOWN,0,67.5,FINESTEERING,1487,259131.000,00000000,6f3c,2945;0.0,8,18,7165593.5612,15700752.5818,20465891.7702,-47542.839,-1.340172231,4.440042170,0.000000000,0.000000000,26,-13552329.1776,4563345.2145,21898656.5959,86610.315,-1.278798498,3.070826301,0.000000000,0.000000000,24,-11822902.1234,23021370.2151,6753134.4096,32381.574,1.797427147,2.741693906,0.000000000,0.000000000,28,-18979042.3820,-12328093.4741,14554736.6785,-6251.390,-0.064407575,16.738210328,0.000000000,0.000000000,21,1276936.9059,19916983.5788,17418376.2012,17596.722,-2.399634928,3.147242582,0.000000000,0.000000000,9,-14264951.8602,22300585.4470,-183000.4063,1330.435,0.832771244,3.476981253,0.000000000,0.000000000,15,-11787844.3041,10331613.0757,21461175.4012,-41855.198,-1.136744824,2.619021721,0.000000000,0.000000000,10,-26046186.4145,1127129.0389,5777073.9253,-827.277,2.112964542,5.309977782,0.000000000,0.000000000*7e96af85

#BESTXYZA,UNKNOWN,0,67.5,FINESTEERING,1487,259131.000,00000000,d821,2945;SOL_COMPUTED,SINGLE,-3119514.1756,4086862.1941,3761997.9781,3.2130,2.8178,3.8037,SOL_COMPUTED,DOPPLER_VELOCITY,0.0058,0.0006,0.0129,0.3840,0.3368,0.4546,"",0.150,0.000,0.000,8,8,0,0,0,6,0,3*9b8507f6

#RANGEA,UNKNOWN,0,67.5,FINESTEERING,1487,259131.500,00000000,5103,2945;16,18,0,22843914.911,0.291,-120045583.662167,0.007,2642.348,48.8,111.388,18109c04,18,0,22843913.250,0.274,-93542011.470394,0.010,2058.973,33.4,106.880,11309c0b,26,0,20842270.242,0.238,-109526868.651215,0.005,-2239.070,50.6,111.430,08109c24,26,0,20842269.903,0.087,-85345607.939150,0.005,-1744.734,43.4,106.880,01309c2b,24,0,21020369.430,0.236,-110462784.061558,0.005,-1660.797,50.6,111.384,18109c44,24,0,21020370.291,0.070,-86074898.301049,0.006,-1294.133,45.2,106.880,11309c4b,28,0,25254150.901,0.589,-132711465.434814,0.014,636.129,42.7,111.386,08109c64,28,0,25254150.862,0.327,-103411531.162021,0.028,495.688,31.8,105.820,01309c6b,21,0,21346212.665,0.229,-112175106.228200,0.005,1441.488,50.9,111.410,08109c84,21,0,21346210.651,0.084,-87409165.518106,0.005,1123.238,43.6,105.840,01309c8b,9,0,21712943.676,0.276,-114102288.778052,0.007,3374.152,49.3,111.454,18109ca4,9,0,21712944.370,0.084,-88910872.796341,0.007,2629.211,43.6,106.880,11309cab,15,0,20715558.246,0.226,-108860986.473598,0.004,-1086.094,51.0,111.510,08109cc4,15,0,20715557.366,0.061,-84826741.282228,0.005,-846.312,46.4,106.880,01309ccb,10,0,23205660.246,0.351,-121946564.911784,0.011,-2527.656,47.2,111.390,08109ce4,10,0,23205660.488,0.217,-95023298.214530,0.013,-1969.602,35.4,106.880,01309ceb*ddfb22c7

#PSRPOSA,UNKNOWN,0,67.5,FINESTEERING,1487,259131.500,00000000,6326,2945;SOL_COMPUTED,SINGLE,36.37687361314,127.35460293909,68.4653,25.0000,WGS84,2.2055,1.8069,4.9606,"",0.000,0.000,8,8,0,0,0,6,0,3*432d1b10

#SATXYZA,UNKNOWN,0,67.5,FINESTEERING,1487,259131.500,00000000,6f3c,2945;0.0,8,18,7164321.5207,15700640.7519,20466409.4934,-47542.838,-1.341562425,4.440141588,0.000000000,0.000000000,26,-13552887.6309,4562011.5157,21898616.0941,86610.315,-1.278798492,3.070895061,0.000000000,0.000000000,24,-11823262.7726,23021615.6414,6751642.6662,32381.575,1.798353942,2.741755296,0.000000000,0.000000000,28,-18978154.4600,-12328077.4901,14555923.8788,-6251.390,-0.060851873,16.738585117,0.000000000,0.000000000,21,1276186.3912,19917800.2237,17417456.4180,17596.722,-2.418509939,3.147313052,0.000000000,0.000000000,9,-14265046.6301,22300492.2088,-181395.3098,1330.436,0.832307852,3.477059107,0.000000000,0.000000000,15,-11788456.3770,10330397.5095,21461425.0854,-41855.199,-1.136744824,2.619080364,0.000000000,0.000000000,10,-26046542.9331,1126968.6191,5775550.2645,-827.277,2.112037746,5.310096679,0.000000000,0.000000000*2cda02af

#BESTXYZA,UNKNOWN,0,67.5,FINESTEERING,1487,259131.500,00000000,d821,2945;SOL_COMPUTED,SINGLE,-3119514.3209,4086862.3428,3761998.1742,3.2135,2.8176,3.8041,SOL_COMPUTED,DOPPLER_VELOCITY,-0.0201,0.0014,-0.0046,0.3841,0.3368,0.4547,"",0.150,0.000,0.000,8,8,0,0,0,6,0,3*dae5b443

#RANGEA,UNKNOWN,0,69.5,FINESTEERING,1487,259132.000,00000000,5103,2945;16,18,0,22843663.230,0.290,-120044262.514955,0.007,2642.234,48.8,111.888,18109c04,18,0,22843661.861,0.225,-93540982.006262,0.009,2058.883,35.0,107.380,11309c0b,26,0,20842483.327,0.239,-109527988.284880,0.005,-2239.363,50.5,111.930,08109c24,26,0,20842482.969,0.083,-85346480.380966,0.005,-1744.961,43.7,107.380,01309c2b,24,0,21020527.368,0.236,-110463614.583596,0.006,-1661.336,50.6,111.884,18109c44,24,0,21020528.336,0.071,-86075545.459852,0.006,-1294.551,45.1,107.380,11309c4b,28,0,25254091.608,0.607,-132711147.450466,0.015,635.824,42.5,111.886,08109c64,28,0,25254090.367,0.375,-103411283.372188,0.030,495.449,30.6,106.320,01309c6b,21,0,21346075.564,0.230,-112174385.610612,0.005,1441.059,50.9,111.910,08109c84,21,0,21346073.517,0.083,-87408603.997908,0.005,1122.902,43.7,106.340,01309c8b,9,0,21712622.412,0.275,-114100601.818316,0.007,3373.848,49.3,111.954,18109ca4,9,0,21712623.349,0.088,-88909558.283489,0.007,2628.973,43.2,107.380,11309cab,15,0,20715661.537,0.226,-108861529.624850,0.005,-1086.438,51.0,112.010,08109cc4,15,0,20715660.721,0.059,-84827164.516970,0.005,-846.578,46.6,107.380,01309ccb,10,0,23205900.752,0.349,-121947828.937418,0.010,-2528.094,47.2,111.890,08109ce4,10,0,23205900.988,0.254,-95024283.168342,0.013,-1969.945,34.0,107.380,01309ceb*14da467b

#PSRPOSA,UNKNOWN,0,69.5,FINESTEERING,1487,259132.000,00000000,6326,2945;SOL_COMPUTED,SINGLE,36.37687179009,127.35459954036,69.2197,25.0000,WGS84,2.2054,1.8071,4.9625,"",0.000,0.000,8,8,0,0,0,6,0,3*c6bd73fe

#SATXYZA,UNKNOWN,0,69.5,FINESTEERING,1487,259132.000,00000000,6f3c,2945;0.0,8,18,7163049.4443,15700528.9541,20466927.1103,-47542.837,-1.341099027,4.439368556,0.000000000,0.000000000,26,-13553446.1241,4560677.8383,21898575.4702,86610.315,-1.278335100,3.071172228,0.000000000,0.000000000,24,-11823623.3580,23021861.0047,6750150.8877,32381.576,1.798353942,2.741941329,0.000000000,0.000000000,28,-18977266.4650,-12328061.5242,14557111.0047,-6251.389,-0.065485847,16.735997747,0.000000000,0.000000000,21,1275435.9308,19918616.8431,17416536.5415,17596.721,-2.418046535,3.147114595,0.000000000,0.000000000,9,-14265141.3490,22300398.8874,-179790.2123,1330.436,0.832771244,3.476481795,0.000000000,0.000000000,15,-11789068.4916,10329181.9468,21461674.6557,-41855.200,-1.136744818,2.619180597,0.000000000,0.000000000,10,-26046899.3617,1126808.2209,5774026.5734,-827.277,2.111574342,5.311044844,0.000000000,0.000000000*3b4ada29

#BESTXYZA,UNKNOWN,0,69.5,FINESTEERING,1487,259132.000,00000000,d821,2945;SOL_COMPUTED,SINGLE,-3119514.5198,4086863.1060,3761998.4587,3.2142,2.8193,3.8048,SOL_COMPUTED,DOPPLER_VELOCITY,0.0152,-0.0157,-0.0176,0.3842,0.3370,0.4548,"",0.150,0.000,0.000,8,8,0,0,0,6,0,3*7e181fdb

#RANGEA,UNKNOWN,0,68.5,FINESTEERING,1487,259132.500,00000000,5103,2945;16,18,0,22843411.922,0.289,-120042941.451240,0.007,2642.129,48.9,112.388,18109c04,18,0,22843410.468,0.219,-93539952.607192,0.010,2058.801,35.2,107.880,11309c0b,26,0,20842696.646,0.239,-109529108.068209,0.005,-2239.734,50.5,112.430,08109c24,26,0,20842696.057,0.084,-85347352.939405,0.005,-1745.246,43.5,107.880,01309c2b,24,0,21020685.516,0.236,-110464445.300987,0.005,-1661.586,50.7,112.384,18109c44,24,0,21020686.421,0.070,-86076192.770876,0.006,-1294.746,45.1,107.880,11309c4b,28,0,25254030.854,0.595,-132710829.640989,0.016,635.492,42.6,112.386,08109c64,28,0,25254029.936,0.278,-103411035.716164,0.030,495.184,33.2,106.820,01309c6b,21,0,21345938.474,0.231,-112173665.205705,0.005,1440.590,50.8,112.410,08109c84,21,0,21345936.425,0.079,-87408042.642207,0.005,1122.539,44.1,106.840,01309c8b,9,0,21712301.735,0.275,-114098915.023999,0.007,3373.422,49.3,112.454,18109ca4,9,0,21712302.358,0.087,-88908243.901990,0.007,2628.641,43.2,107.880,11309cab,15,0,20715764.982,0.227,-108862072.902135,0.005,-1086.695,51.0,112.510,08109cc4,15,0,20715764.104,0.061,-84827587.848692,0.005,-846.781,46.4,107.880,01309ccb,10,0,23206141.163,0.348,-121949093.071756,0.009,-2528.246,47.3,112.390,08109ce4,10,0,23206141.547,0.205,-95025268.204403,0.012,-1970.066,35.8,107.880,01309ceb*e1398970

#PSRPOSA,UNKNOWN,0,68.5,FINESTEERING,1487,259132.500,00000000,6326,2945;SOL_COMPUTED,SINGLE,36.37687239997,127.35460020644,68.8414,25.0000,WGS84,2.2054,1.8071,4.9620,"",0.000,0.000,8,8,0,0,0,6,0,3*806983a2

#SATXYZA,UNKNOWN,0,68.5,FINESTEERING,1487,259132.500,00000000,6f3c,2945;0.0,8,18,7161777.3321,15700417.1884,20467444.6209,-47542.836,-1.341562431,4.439268244,0.000000000,0.000000000,26,-13554004.6570,4559344.1823,21898534.7244,86610.316,-1.278335094,3.071102832,0.000000000,0.000000000,24,-11823983.8796,23022106.3050,6748659.0740,32381.576,1.798817346,2.741879372,0.000000000,0.000000000,28,-18976378.3969,-12328045.5763,14558298.0560,-6251.388,-0.061778669,16.735619582,0.000000000,0.000000000,21,1274685.5249,19919433.4369,17415616.5716,17596.721,-2.418046541,3.147043483,0.000000000,0.000000000,9,-14265236.0171,22300305.4828,-178185.1139,1330.436,0.832307852,3.476403241,0.000000000,0.000000000,15,-11789680.6480,10327966.3877,21461924.1121,-41855.201,-1.136744824,2.619121414,0.000000000,0.000000000,10,-26047255.7002,1126647.8443,5772502.8521,-827.277,2.112037746,5.310924836,0.000000000,0.000000000*5f5a6b0d

#BESTXYZA,UNKNOWN,0,68.5,FINESTEERING,1487,259132.500,00000000,d821,2945;SOL_COMPUTED,SINGLE,-3119514.3582,4086862.7957,3761998.2889,3.2142,2.8183,3.8048,SOL_COMPUTED,DOPPLER_VELOCITY,0.0240,-0.0218,-0.0319,0.3842,0.3368,0.4548,"",0.150,0.000,0.000,8,8,0,0,0,6,0,3*937e43a9

#RANGEA,UNKNOWN,0,68.5,FINESTEERING,1487,259133.000,00000000,5103,2945;16,18,0,22843160.608,0.288,-120041620.266218,0.006,2642.527,48.9,112.888,18109c04,18,0,22843159.062,0.218,-93538923.116053,0.010,2059.113,35.3,108.380,11309c0b,26,0,20842909.575,0.239,-109530227.779069,0.005,-2239.312,50.5,112.930,08109c24,26,0,20842909.136,0.089,-85348225.441374,0.005,-1744.918,43.0,108.380,01309c2b,24,0,21020843.552,0.235,-110465276.016802,0.005,-1661.359,50.7,112.884,18109c44,24,0,21020844.504,0.074,-86076840.081901,0.005,-1294.570,44.7,108.380,11309c4b,28,0,25253969.558,0.615,-132710511.820485,0.018,635.598,42.4,112.886,08109c64,28,0,25253969.479,0.283,-103410788.063823,0.031,495.270,33.0,107.320,01309c6b,21,0,21345801.387,0.231,-112172944.816553,0.005,1440.812,50.8,112.910,08109c84,21,0,21345799.335,0.081,-87407481.301238,0.005,1122.711,43.8,107.340,01309c8b,9,0,21711980.597,0.273,-114097228.191872,0.007,3373.695,49.4,112.954,18109ca4,9,0,21711981.367,0.090,-88906929.488573,0.007,2628.852,43.0,108.380,11309cab,15,0,20715868.305,0.227,-108862616.121130,0.005,-1086.340,51.0,113.010,08109cc4,15,0,20715867.468,0.061,-84828011.133765,0.005,-846.504,46.4,108.380,01309ccb,10,0,23206381.817,0.348,-121950357.119445,0.009,-2528.012,47.3,112.890,08109ce4,10,0,23206382.068,0.211,-95026253.175401,0.011,-1969.883,35.5,108.380,01309ceb*0e0886b8

#PSRPOSA,UNKNOWN,0,68.5,FINESTEERING,1487,259133.000,00000000,6326,2945;SOL_COMPUTED,SINGLE,36.37687278787,127.35460219796,68.4425,25.0000,WGS84,2.2052,1.8071,4.9638,"",0.000,0.000,8,8,0,0,0,6,0,3*715d39c0

#BESTXYZA,UNKNOWN,0,68.5,FINESTEERING,1487,259133.000,00000000,d821,2945;SOL_COMPUTED,SINGLE,-3119514.2898,4086862.4117,3761998.0869,3.2147,2.8201,3.8054,SOL_COMPUTED,DOPPLER_VELOCITY,0.0017,0.0130,0.0056,0.3842,0.3371,0.4548,"",0.150,0.000,0.000,8,8,0,0,0,6,0,3*3187f1fa

#SATXYZA,UNKNOWN,0,68.5,FINESTEERING,1487,259133.000,00000000,6f3c,2945;0.0,8,18,7160505.1841,15700305.4549,20467962.0253,-47542.835,-1.359922531,4.438462629,0.000000000,0.000000000,26,-13554563.2298,4558010.5477,21898493.8567,86610.316,-1.279841719,3.071357479,0.000000000,0.000000000,24,-11824344.3375,23022351.5423,6747167.2251,32381.577,1.791225145,2.742044974,0.000000000,0.000000000,28,-18975490.2558,-12328029.6466,14559485.0329,-6251.388,-0.057144683,16.732922731,0.000000000,0.000000000,21,1273935.1733,19920250.0052,17414696.5083,17596.721,-2.417583137,3.146821684,0.000000000,0.000000000,9,-14265330.6344,22300211.9949,-176580.0145,1330.436,0.832872749,3.475800208,0.000000000,0.000000000,15,-11790292.8462,10326750.8321,21462173.4545,-41855.202,-1.141846662,2.619202271,0.000000000,0.000000000,10,-26047611.9488,1126487.4892,5770979.1006,-827.276,2.097885941,5.311834790,0.000000000,0.000000000*88b571a9

