#BESTXYZA,UNKNOWN,0,72.5,FINESTEERING,1487,259124.000,00000000,d821,2945;SOL_COMPUTED,SINGLE,-3119514.5340,4086863.1512,3761998.2321,3.2091,2.8205,3.8012,SOL_COMPUTED,DOPPLER_VELOCITY,0.0036,-0.0117,-0.0028,0.3836,0.3371,0.4543,"",0.150,0.000,0.000,8,8,0,0,0,6,0,3*583bcd46

#BESTXYZA,UNKNOWN,0,72.5,FINESTEERING,1487,259124.500,00000000,d821,2945;SOL_COMPUTED,SINGLE,-3119514.3254,4086862.6561,3761998.2881,3.2092,2.8199,3.8013,SOL_COMPUTED,DOPPLER_VELOCITY,-0.0123,0.0036,-0.0017,0.3836,0.3370,0.4543,"",0.150,0.000,0.000,8,8,0,0,0,6,0,3*4c870c81

#BESTXYZA,UNKNOWN,0,62.5,FINESTEERING,1487,259125.000,00000000,d821,2945;SOL_COMPUTED,SINGLE,-3119514.4688,4086862.9502,3761998.4728,3.2094,2.8187,3.8013,SOL_COMPUTED,DOPPLER_VELOCITY,0.0140,-0.0040,-0.0100,0.3836,0.3369,0.4543,"",0.150,0.000,0.000,8,8,0,0,0,6,0,3*b80de42f

#BESTXYZA,UNKNOWN,0,62.5,FINESTEERING,1487,259125.500,00000000,d821,2945;SOL_COMPUTED,SINGLE,-3119514.3219,4086863.3444,3761998.5903,3.2097,2.8194,3.8016,SOL_COMPUTED,DOPPLER_VELOCITY,0.0124,-0.0300,-0.0312,0.3836,0.3370,0.4544,"",0.150,0.000,0.000,8,8,0,0,0,6,0,3*6059cd18

#BESTXYZA,UNKNOWN,0,62.5,FINESTEERING,1487,259126.000,00000000,d821,2945;SOL_COMPUTED,SINGLE,-3119514.0325,4086862.4993,3761998.1947,3.2102,2.8190,3.8019,SOL_COMPUTED,DOPPLER_VELOCITY,0.0307,-0.0430,-0.0441,0.3837,0.3369,0.4544,"",0.150,0.000,0.000,8,8,0,0,0,6,0,3*416568e0

#BESTXYZA,UNKNOWN,0,70.0,FINESTEERING,1487,259126.500,00000000,d821,2945;SOL_COMPUTED,SINGLE,-3119514.3339,4086862.7972,3761998.6629,3.2100,2.8169,3.8015,SOL_COMPUTED,DOPPLER_VELOCITY,0.0028,-0.0131,-0.0061,0.3837,0.3367,0.4544,"",0.150,0.000,0.000,8,8,0,0,0,6,0,3*5c4d1bbf

#BESTXYZA,UNKNOWN,0,70.0,FINESTEERING,1487,259127.000,00000000,d821,2945;SOL_COMPUTED,SINGLE,-3119514.4893,4086862.9383,3761998.4596,3.2105,2.8179,3.8020,SOL_COMPUTED,DOPPLER_VELOCITY,-0.0122,0.0445,0.0259,0.3837,0.3368,0.4544,"",0.150,0.000,0.000,8,8,0,0,0,6,0,3*ce9d036b

#BESTXYZA,UNKNOWN,0,71.5,FINESTEERING,1487,259127.500,00000000,d821,2945;SOL_COMPUTED,SINGLE,-3119514.4696,4086862.8712,3761998.5592,3.2106,2.8172,3.8020,SOL_COMPUTED,DOPPLER_VELOCITY,0.0010,0.0247,0.0150,0.3837,0.3367,0.4544,"",0.150,0.000,0.000,8,8,0,0,0,6,0,3*d80be796

#BESTXYZA,UNKNOWN,0,70.0,FINESTEERING,1487,259128.000,00000000,d821,2945;SOL_COMPUTED,SINGLE,-3119514.1720,4086862.4760,3761998.4839,3.2106,2.8169,3.8019,SOL_COMPUTED,DOPPLER_VELOCITY,0.0151,-0.0023,-0.0056,0.3837,0.3367,0.4544,"",0.150,0.000,0.000,8,8,0,0,0,6,0,3*01b56306

#BESTXYZA,UNKNOWN,0,70.0,FINESTEERING,1487,259128.500,00000000,d821,2945;SOL_COMPUTED,SINGLE,-3119514.1687,4086862.4740,3761998.2073,3.2113,2.8172,3.8023,SOL_COMPUTED,DOPPLER_VELOCITY,0.0089,0.0056,-0.0133,0.3838,0.3367,0.4545,"",0.150,0.000,0.000,8,8,0,0,0,6,0,3*a8daec54

#BESTXYZA,UNKNOWN,0,70.0,FINESTEERING,1487,259129.000,00000000,d821,2945;SOL_COMPUTED,SINGLE,-3119514.2928,4086862.4562,3761998.4203,3.2119,2.8186,3.8030,SOL_COMPUTED,DOPPLER_VELOCITY,-0.0012,-0.0108,0.0015,0.3839,0.3369,0.4545,"",0.150,0.000,0.000,8,8,0,0,0,6,0,3*e8b047e8

#BESTXYZA,UNKNOWN,0,68.5,FINESTEERING,1487,259129.500,00000000,d821,2945;SOL_COMPUTED,SINGLE,-3119514.2333,4086862.2270,3761998.2094,3.2119,2.8173,3.8029,SOL_COMPUTED,DOPPLER_VELOCITY,-0.0065,0.0241,0.0102,0.3839,0.3367,0.4545,"",0.150,0.000,0.000,8,8,0,0,0,6,0,3*810fc0db

#BESTXYZA,UNKNOWN,0,68.5,FINESTEERING,1487,259130.000,00000000,d821,2945;SOL_COMPUTED,SINGLE,-3119514.3239,4086862.4593,3761998.0596,3.2120,2.8167,3.8029,SOL_COMPUTED,DOPPLER_VELOCITY,0.0434,-0.0352,-0.0279,0.3839,0.3367,0.4545,"",0.150,0.000,0.000,8,8,0,0,0,6,0,3*862d4f64

#BESTXYZA,UNKNOWN,0,67.5,FINESTEERING,1487,259130.500,00000000,d821,2945;SOL_COMPUTED,SINGLE,-3119514.3578,4086862.4206,3761998.2645,3.2124,2.8166,3.8031,SOL_COMPUTED,DOPPLER_VELOCITY,-0.0021,-0.0129,-0.0258,0.3840,0.3366,0.4546,"",0.150,0.000,0.000,8,8,0,0,0,6,0,3*65bd78fd

#BESTXYZA,UNKNOWN,0,67.5,FINESTEERING,1487,259131.000,00000000,d821,2945;SOL_COMPUTED,SINGLE,-3119514.1756,4086862.1941,3761997.9781,3.2130,2.8178,3.8037,SOL_COMPUTED,DOPPLER_VELOCITY,0.0058,0.0006,0.0129,0.3840,0.3368,0.4546,"",0.150,0.000,0.000,8,8,0,0,0,6,0,3*9b8507f6

#BESTXYZA,UNKNOWN,0,67.5,FINESTEERING,1487,259131.500,00000000,d821,2945;SOL_COMPUTED,SINGLE,-3119514.3209,4086862.3428,3761998.1742,3.2135,2.8176,3.8041,SOL_COMPUTED,DOPPLER_VELOCITY,-0.0201,0.0014,-0.0046,0.3841,0.3368,0.4547,"",0.150,0.000,0.000,8,8,0,0,0,6,0,3*dae5b443

#BESTXYZA,UNKNOWN,0,69.5,FINESTEERING,1487,259132.000,00000000,d821,2945;SOL_COMPUTED,SINGLE,-3119514.5198,4086863.1060,3761998.4587,3.2142,2.8193,3.8048,SOL_COMPUTED,DOPPLER_VELOCITY,0.0152,-0.0157,-0.0176,0.3842,0.3370,0.4548,"",0.150,0.000,0.000,8,8,0,0,0,6,0,3*7e181fdb

#BESTXYZA,UNKNOWN,0,68.5,FINESTEERING,1487,259132.500,00000000,d821,2945;SOL_COMPUTED,SINGLE,-3119514.3582,4086862.7957,3761998.2889,3.2142,2.8183,3.8048,SOL_COMPUTED,DOPPLER_VELOCITY,0.0240,-0.0218,-0.0319,0.3842,0.3368,0.4548,"",0.150,0.000,0.000,8,8,0,0,0,6,0,3*937e43a9

#BESTXYZA,UNKNOWN,0,68.5,FINESTEERING,1487,259133.000,00000000,d821,2945;SOL_COMPUTED,SINGLE,-3119514.2898,4086862.4117,3761998.0869,3.2147,2.8201,3.8054,SOL_COMPUTED,DOPPLER_VELOCITY,0.0017,0.0130,0.0056,0.3842,0.3371,0.4548,"",0.150,0.000,0.000,8,8,0,0,0,6,0,3*3187f1fa

#BESTXYZA,UNKNOWN,0,68.5,FINESTEERING,1487,259133.500,00000000,d821,2945;SOL_COMPUTED,SINGLE,-3119514.7416,4086862.9761,3761998.6028,3.2143,2.8173,3.8048,SOL_COMPUTED,DOPPLER_VELOCITY,-0.0000,0.0021,0.0214,0.3842,0.3367,0.4548,"",0.150,0.000,0.000,8,8,0,0,0,6,0,3*094dd71a

#BESTXYZA,UNKNOWN,0,68.5,FINESTEERING,1487,259134.000,00000000,d821,2945;SOL_COMPUTED,SINGLE,-3119514.2073,4086862.5373,3761998.3914,3.2145,2.8178,3.8051,SOL_COMPUTED,DOPPLER_VELOCITY,0.0103,-0.0142,-0.0174,0.3842,0.3368,0.4548,"",0.150,0.000,0.000,8,8,0,0,0,6,0,3*e11428ea

#BESTXYZA,UNKNOWN,0,70.5,FINESTEERING,1487,259134.500,00000000,d821,2945;SOL_COMPUTED,SINGLE,-3119514.1676,4086862.2627,3761998.0675,3.2147,2.8180,3.8054,SOL_COMPUTED,DOPPLER_VELOCITY,0.0078,-0.0010,-0.0219,0.3842,0.3368,0.4548,"",0.150,0.000,0.000,8,8,0,0,0,6,0,3*24a133d1

#BESTXYZA,UNKNOWN,0,68.0,FINESTEERING,1487,259135.000,00000000,d821,2945;SOL_COMPUTED,SINGLE,-3119514.1994,4086862.4832,3761998.0812,3.2151,2.8181,3.8057,SOL_COMPUTED,DOPPLER_VELOCITY,-0.0170,0.0437,0.0260,0.3843,0.3368,0.4549,"",0.150,0.000,0.000,8,8,0,0,0,6,0,3*9286f0d3

#BESTXYZA,UNKNOWN,0,68.0,FINESTEERING,1487,259135.500,00000000,d821,2945;SOL_COMPUTED,SINGLE,-3119514.2780,4086862.4914,3761998.2290,3.2150,2.8173,3.8056,SOL_COMPUTED,DOPPLER_VELOCITY,0.0107,-0.0123,-0.0242,0.3843,0.3367,0.4549,"",0.150,0.000,0.000,8,8,0,0,0,6,0,3*233329c2

#BESTXYZA,UNKNOWN,0,68.0,FINESTEERING,1487,259136.000,00000000,d821,2945;SOL_COMPUTED,SINGLE,-3119514.6704,4086862.7054,3761998.4160,3.2153,2.8177,3.8059,SOL_COMPUTED,DOPPLER_VELOCITY,0.0254,-0.0365,-0.0395,0.3843,0.3368,0.4549,"",0.150,0.000,0.000,8,8,0,0,0,6,0,3*3619ea97

#BESTXYZA,UNKNOWN,0,69.5,FINESTEERING,1487,259136.500,00000000,d821,2945;SOL_COMPUTED,SINGLE,-3119514.7173,4086862.6594,3761998.2146,3.2156,2.8179,3.8062,SOL_COMPUTED,DOPPLER_VELOCITY,0.0025,-0.0001,-0.0061,0.3843,0.3368,0.4549,"",0.150,0.000,0.000,8,8,0,0,0,6,0,3*68f06d48

#BESTXYZA,UNKNOWN,0,69.5,FINESTEERING,1487,259137.000,00000000,d821,2945;SOL_COMPUTED,SINGLE,-3119514.8379,4086862.8885,3761998.4506,3.2156,2.8172,3.8062,SOL_COMPUTED,DOPPLER_VELOCITY,0.0054,-0.0209,-0.0306,0.3843,0.3367,0.4549,"",0.150,0.000,0.000,8,8,0,0,0,6,0,3*5b85931d

#BESTXYZA,UNKNOWN,0,71.5,FINESTEERING,1487,259137.500,00000000,d821,2945;SOL_COMPUTED,SINGLE,-3119514.9120,4086862.7508,3761998.7963,3.2158,2.8164,3.8062,SOL_COMPUTED,DOPPLER_VELOCITY,-0.0225,-0.0052,0.0138,0.3844,0.3366,0.4549,"",0.150,0.000,0.000,8,8,0,0,0,6,0,3*3955deb1

#BESTXYZA,UNKNOWN,0,70.5,FINESTEERING,1487,259138.000,00000000,d821,2945;SOL_COMPUTED,SINGLE,-3119514.7327,4086863.0354,3761998.8187,3.2161,2.8173,3.8066,SOL_COMPUTED,DOPPLER_VELOCITY,-0.0176,0.0150,0.0145,0.3844,0.3367,0.4550,"",0.150,0.000,0.000,8,8,0,0,0,6,0,3*16add3e9

#BESTXYZA,UNKNOWN,0,70.5,FINESTEERING,1487,259138.500,00000000,d821,2945;SOL_COMPUTED,SINGLE,-3119514.9631,4086863.2367,3761998.7776,3.2165,2.8172,3.8068,SOL_COMPUTED,DOPPLER_VELOCITY,-0.0148,0.0267,0.0186,0.3844,0.3367,0.4550,"",0.150,0.000,0.000,8,8,0,0,0,6,0,3*c8c51093

#BESTXYZA,UNKNOWN,0,70.5,FINESTEERING,1487,259139.000,00000000,d821,2945;SOL_COMPUTED,SINGLE,-3119515.0836,4086863.2585,3761998.8533,3.2168,2.8169,3.8069,SOL_COMPUTED,DOPPLER_VELOCITY,-0.0024,-0.0172,-0.0397,0.3845,0.3367,0.4550,"",0.150,0.000,0.000,8,8,0,0,0,6,0,3*192f4bdd

#BESTXYZA,UNKNOWN,0,69.0,FINESTEERING,1487,259139.500,00000000,d821,2945;SOL_COMPUTED,SINGLE,-3119515.2667,4086863.1505,3761998.9114,3.2171,2.8171,3.8072,SOL_COMPUTED,DOPPLER_VELOCITY,-0.0187,0.0095,0.0074,0.3845,0.3367,0.4550,"",0.150,0.000,0.000,8,8,0,0,0,6,0,3*48618e96

#BESTXYZA,UNKNOWN,0,69.0,FINESTEERING,1487,259140.000,00000000,d821,2945;SOL_COMPUTED,SINGLE,-3119514.8404,4086862.8974,3761998.7742,3.2175,2.8166,3.8073,SOL_COMPUTED,DOPPLER_VELOCITY,0.0047,-0.0113,-0.0174,0.3846,0.3367,0.4551,"",0.150,0.000,0.000,8,8,0,0,0,6,0,3*2d34e89c

#BESTXYZA,UNKNOWN,0,66.0,FINESTEERING,1487,259140.500,00000000,d821,2945;SOL_COMPUTED,SINGLE,-3119514.9716,4086863.3747,3761999.0650,3.2178,2.8165,3.8074,SOL_COMPUTED,DOPPLER_VELOCITY,-0.0001,0.0193,0.0075,0.3846,0.3366,0.4551,"",0.150,0.000,0.000,8,8,0,0,0,6,0,3*641c5697

#BESTXYZA,UNKNOWN,0,66.0,FINESTEERING,1487,259141.000,00000000,d821,2945;SOL_COMPUTED,SINGLE,-3119515.0061,4086863.1417,3761999.1086,3.2185,2.8169,3.8078,SOL_COMPUTED,DOPPLER_VELOCITY,-0.0110,0.0254,0.0322,0.3847,0.3367,0.4551,"",0.150,0.000,0.000,8,8,0,0,0,6,0,3*ea8edc94

#BESTXYZA,UNKNOWN,0,66.0,FINESTEERING,1487,259141.500,00000000,d821,2945;SOL_COMPUTED,SINGLE,-3119515.4088,4086863.6372,3761999.1920,3.2187,2.8169,3.8081,SOL_COMPUTED,DOPPLER_VELOCITY,0.0263,-0.0186,-0.0056,0.3847,0.3367,0.4552,"",0.150,0.000,0.000,8,8,0,0,0,6,0,3*ffc2db7f

#BESTXYZA,UNKNOWN,0,71.0,FINESTEERING,1487,259142.000,00000000,d821,2945;SOL_COMPUTED,SINGLE,-3119515.0991,4086863.4034,3761999.0763,3.2192,2.8170,3.8083,SOL_COMPUTED,DOPPLER_VELOCITY,-0.0031,0.0132,0.0086,0.3848,0.3367,0.4552,"",0.150,0.000,0.000,8,8,0,0,0,6,0,3*75cb8489

#BESTXYZA,UNKNOWN,0,68.5,FINESTEERING,1487,259142.500,00000000,d821,2945;SOL_COMPUTED,SINGLE,-3119514.8544,4086863.1703,3761998.7010,3.2197,2.8175,3.8088,SOL_COMPUTED,DOPPLER_VELOCITY,0.0124,0.0067,-0.0030,0.3848,0.3368,0.4552,"",0.150,0.000,0.000,8,8,0,0,0,6,0,3*3c79069d

#BESTXYZA,UNKNOWN,0,68.5,FINESTEERING,1487,259143.000,00000000,d821,2945;SOL_COMPUTED,SINGLE,-3119514.8085,4086862.4929,3761998.2870,3.2197,2.8164,3.8086,SOL_COMPUTED,DOPPLER_VELOCITY,0.0085,-0.0192,-0.0084,0.3848,0.3366,0.4552,"",0.150,0.000,0.000,8,8,0,0,0,6,0,3*64bd2175

#BESTXYZA,UNKNOWN,0,68.5,FINESTEERING,1487,259143.500,00000000,d821,2945;SOL_COMPUTED,SINGLE,-3119514.9839,4086863.3742,3761999.0258,3.2201,2.8164,3.8090,SOL_COMPUTED,DOPPLER_VELOCITY,-0.0032,-0.0107,-0.0029,0.3849,0.3366,0.4553,"",0.150,0.000,0.000,8,8,0,0,0,6,0,3*e0718cbd

#BESTXYZA,UNKNOWN,0,68.5,FINESTEERING,1487,259144.000,00000000,d821,2945;SOL_COMPUTED,SINGLE,-3119515.0022,4086862.9902,3761998.7951,3.2208,2.8168,3.8095,SOL_COMPUTED,DOPPLER_VELOCITY,0.0224,-0.0520,-0.0333,0.3850,0.3367,0.4553,"",0.150,0.000,0.000,8,8,0,0,0,6,0,3*32a0b76c

#BESTXYZA,UNKNOWN,0,70.0,FINESTEERING,1487,259144.500,00000000,d821,2945;SOL_COMPUTED,SINGLE,-3119514.8995,4086862.9433,3761998.8462,3.2209,2.8164,3.8096,SOL_COMPUTED,DOPPLER_VELOCITY,0.0044,0.0065,0.0124,0.3850,0.3366,0.4553,"",0.150,0.000,0.000,8,8,0,0,0,6,0,3*6180413a

#BESTXYZA,UNKNOWN,0,70.0,FINESTEERING,1487,259145.000,00000000,d821,2945;SOL_COMPUTED,SINGLE,-3119515.0550,4086863.2445,3761999.0341,3.2215,2.8167,3.8100,SOL_COMPUTED,DOPPLER_VELOCITY,-0.0134,0.0045,0.0097,0.3850,0.3367,0.4554,"",0.150,0.000,0.000,8,8,0,0,0,6,0,3*c10d46d9

#BESTXYZA,UNKNOWN,0,71.5,FINESTEERING,1487,259145.500,00000000,d821,2945;SOL_COMPUTED,SINGLE,-3119515.6087,4086863.5054,3761999.4160,3.2214,2.8169,3.8101,SOL_COMPUTED,DOPPLER_VELOCITY,-0.0011,-0.0056,0.0018,0.3850,0.3367,0.4554,"",0.150,0.000,0.000,8,8,0,0,0,6,0,3*93b495a3

#BESTXYZA,UNKNOWN,0,69.5,FINESTEERING,1487,259146.000,00000000,d821,2945;SOL_COMPUTED,SINGLE,-3119515.1994,4086863.0520,3761999.1166,3.2224,2.8183,3.8110,SOL_COMPUTED,DOPPLER_VELOCITY,0.0052,-0.0099,0.0049,0.3852,0.3369,0.4555,"",0.150,0.000,0.000,8,8,0,0,0,6,0,3*cd6a0ecf

#BESTXYZA,UNKNOWN,0,69.5,FINESTEERING,1487,259146.500,00000000,d821,2945;SOL_COMPUTED,SINGLE,-3119515.1219,4086863.2525,3761999.2008,3.2228,2.8186,3.8113,SOL_COMPUTED,DOPPLER_VELOCITY,-0.0107,0.0362,0.0228,0.3852,0.3369,0.4555,"",0.150,0.000,0.000,8,8,0,0,0,6,0,3*8e14c5e7

#BESTXYZA,UNKNOWN,0,68.5,FINESTEERING,1487,259147.000,00000000,d821,2945;SOL_COMPUTED,SINGLE,-3119514.6660,4086862.8285,3761998.6278,3.2227,2.8174,3.8112,SOL_COMPUTED,DOPPLER_VELOCITY,0.0143,-0.0014,0.0257,0.3852,0.3367,0.4555,"",0.150,0.000,0.000,8,8,0,0,0,6,0,3*2cdedb08

#BESTXYZA,UNKNOWN,0,68.5,FINESTEERING,1487,259147.500,00000000,d821,2945;SOL_COMPUTED,SINGLE,-3119514.9858,4086863.1176,3761998.8981,3.2229,2.8174,3.8115,SOL_COMPUTED,DOPPLER_VELOCITY,-0.0165,0.0061,0.0088,0.3852,0.3367,0.4556,"",0.150,0.000,0.000,8,8,0,0,0,6,0,3*1180180c

#BESTXYZA,UNKNOWN,0,68.5,FINESTEERING,1487,259148.000,00000000,d821,2945;SOL_COMPUTED,SINGLE,-3119515.0345,4086862.9142,3761998.8062,3.2232,2.8184,3.8119,SOL_COMPUTED,DOPPLER_VELOCITY,-0.0017,0.0230,0.0100,0.3852,0.3369,0.4556,"",0.150,0.000,0.000,8,8,0,0,0,6,0,3*463a6f91

#BESTXYZA,UNKNOWN,0,70.0,FINESTEERING,1487,259148.500,00000000,d821,2945;SOL_COMPUTED,SINGLE,-3119515.1268,4086863.1814,3761998.7772,3.2237,2.8183,3.8122,SOL_COMPUTED,DOPPLER_VELOCITY,-0.0181,0.0034,0.0068,0.3853,0.3368,0.4556,"",0.150,0.000,0.000,8,8,0,0,0,6,0,3*f5bc43d2

#BESTXYZA,UNKNOWN,0,70.0,FINESTEERING,1487,259149.000,00000000,d821,2945;SOL_COMPUTED,SINGLE,-3119514.8532,4086862.7586,3761998.4083,3.2243,2.8194,3.8128,SOL_COMPUTED,DOPPLER_VELOCITY,-0.0092,0.0113,0.0261,0.3854,0.3370,0.4557,"",0.150,0.000,0.000,8,8,0,0,0,6,0,3*c96de94a

#BESTXYZA,UNKNOWN,0,67.0,FINESTEERING,1487,259149.500,00000000,d821,2945;SOL_COMPUTED,SINGLE,-3119515.1816,4086863.0189,3761998.6889,3.2242,2.8186,3.8128,SOL_COMPUTED,DOPPLER_VELOCITY,0.0052,-0.0192,-0.0126,0.3854,0.3369,0.4557,"",0.150,0.000,0.000,8,8,0,0,0,6,0,3*2d8415ef

#BESTXYZA,UNKNOWN,0,67.0,FINESTEERING,1487,259150.000,00000000,d821,2945;SOL_COMPUTED,SINGLE,-3119515.0223,4086862.7836,3761998.6415,3.2245,2.8190,3.8131,SOL_COMPUTED,DOPPLER_VELOCITY,0.0262,-0.0394,-0.0268,0.3854,0.3369,0.4557,"",0.150,0.000,0.000,8,8,0,0,0,6,0,3*a1c2520e

#BESTXYZA,UNKNOWN,0,66.5,FINESTEERING,1487,259150.500,00000000,d821,2945;SOL_COMPUTED,SINGLE,-3119515.2036,4086863.0219,3761998.8979,3.2248,2.8192,3.8133,SOL_COMPUTED,DOPPLER_VELOCITY,0.0146,0.0036,-0.0096,0.3854,0.3370,0.4558,"",0.150,0.000,0.000,8,8,0,0,0,6,0,3*1045e556

#BESTXYZA,UNKNOWN,0,66.5,FINESTEERING,1487,259151.000,00000000,d821,2945;SOL_COMPUTED,SINGLE,-3119515.4232,4086863.0775,3761999.1797,3.2247,2.8175,3.8130,SOL_COMPUTED,DOPPLER_VELOCITY,-0.0126,0.0073,0.0044,0.3854,0.3368,0.4557,"",0.150,0.000,0.000,8,8,0,0,0,6,0,3*9e670e58

#BESTXYZA,UNKNOWN,0,66.5,FINESTEERING,1487,259151.500,00000000,d821,2945;SOL_COMPUTED,SINGLE,-3119515.0293,4086862.8381,3761998.8281,3.2252,2.8183,3.8136,SOL_COMPUTED,DOPPLER_VELOCITY,0.0116,-0.0102,-0.0153,0.3855,0.3369,0.4558,"",0.150,0.000,0.000,8,8,0,0,0,6,0,3*cb559793

#BESTXYZA,UNKNOWN,0,71.0,FINESTEERING,1487,259152.000,00000000,d821,2945;SOL_COMPUTED,SINGLE,-3119515.0324,4086863.0407,3761998.9101,3.2253,2.8173,3.8134,SOL_COMPUTED,DOPPLER_VELOCITY,-0.0036,0.0097,0.0062,0.3855,0.3367,0.4558,"",0.150,0.000,0.000,8,8,0,0,0,6,0,3*e230bf6c

#BESTXYZA,UNKNOWN,0,67.5,FINESTEERING,1487,259152.500,00000000,d821,2945;SOL_COMPUTED,SINGLE,-3119515.0434,4086862.8445,3761998.7364,3.2260,2.8185,3.8141,SOL_COMPUTED,DOPPLER_VELOCITY,-0.0296,0.0359,0.0166,0.3856,0.3369,0.4559,"",0.150,0.000,0.000,8,8,0,0,0,6,0,3*d949935a

#BESTXYZA,UNKNOWN,0,67.5,FINESTEERING,1487,259153.000,00000000,d821,2945;SOL_COMPUTED,SINGLE,-3119515.5753,4086863.1763,3761998.8648,3.2262,2.8192,3.8144,SOL_COMPUTED,DOPPLER_VELOCITY,0.0167,-0.0275,-0.0254,0.3856,0.3370,0.4559,"",0.150,0.000,0.000,8,8,0,0,0,6,0,3*278722fd

#BESTXYZA,UNKNOWN,0,67.5,FINESTEERING,1487,259153.500,00000000,d821,2945;SOL_COMPUTED,SINGLE,-3119515.2523,4086862.8523,3761998.8312,3.2264,2.8182,3.8144,SOL_COMPUTED,DOPPLER_VELOCITY,-0.0145,0.0384,0.0298,0.3856,0.3368,0.4559,"",0.150,0.000,0.000,8,8,0,0,0,6,0,3*3808956b

#BESTXYZA,UNKNOWN,0,67.5,FINESTEERING,1487,259154.000,00000000,d821,2945;SOL_COMPUTED,SINGLE,-3119515.1911,4086863.0207,3761998.9649,3.2264,2.8166,3.8142,SOL_COMPUTED,DOPPLER_VELOCITY,-0.0075,0.0154,0.0017,0.3856,0.3366,0.4559,"",0.150,0.000,0.000,8,8,0,0,0,6,0,3*5b223136

#BESTXYZA,UNKNOWN,0,71.0,FINESTEERING,1487,259154.500,00000000,d821,2945;SOL_COMPUTED,SINGLE,-3119515.2908,4086863.1401,3761998.9502,3.2271,2.8189,3.8150,SOL_COMPUTED,DOPPLER_VELOCITY,0.0075,-0.0198,-0.0277,0.3857,0.3369,0.4560,"",0.150,0.000,0.000,8,8,0,0,0,6,0,3*120b05de

#BESTXYZA,UNKNOWN,0,69.5,FINESTEERING,1487,259155.000,00000000,d821,2945;SOL_COMPUTED,SINGLE,-3119514.6670,4086862.4533,3761998.3379,3.2276,2.8188,3.8154,SOL_COMPUTED,DOPPLER_VELOCITY,0.0344,-0.0309,-0.0162,0.3858,0.3369,0.4560,"",0.150,0.000,0.000,8,8,0,0,0,6,0,3*e031c265

#BESTXYZA,UNKNOWN,0,69.5,FINESTEERING,1487,259155.500,00000000,d821,2945;SOL_COMPUTED,SINGLE,-3119515.1278,4086863.1694,3761998.9157,3.2276,2.8182,3.8154,SOL_COMPUTED,DOPPLER_VELOCITY,-0.0067,0.0164,0.0002,0.3858,0.3368,0.4560,"",0.150,0.000,0.000,8,8,0,0,0,6,0,3*e13e977b

#BESTXYZA,UNKNOWN,0,69.5,FINESTEERING,1487,259156.000,00000000,d821,2945;SOL_COMPUTED,SINGLE,-3119515.1442,4086863.1200,3761998.9968,3.2279,2.8177,3.8154,SOL_COMPUTED,DOPPLER_VELOCITY,-0.0203,-0.0028,0.0054,0.3858,0.3368,0.4560,"",0.150,0.000,0.000,8,8,0,0,0,6,0,3*2d8605bc

#BESTXYZA,UNKNOWN,0,71.0,FINESTEERING,1487,259156.500,00000000,d821,2945;SOL_COMPUTED,SINGLE,-3119515.1106,4086862.9571,3761998.8524,3.2281,2.8182,3.8157,SOL_COMPUTED,DOPPLER_VELOCITY,-0.0066,0.0106,0.0206,0.3858,0.3368,0.4561,"",0.150,0.000,0.000,8,8,0,0,0,6,0,3*0f171bea

#BESTXYZA,UNKNOWN,0,69.5,FINESTEERING,1487,259157.000,00000000,d821,2945;SOL_COMPUTED,SINGLE,-3119515.1117,4086863.1937,3761998.8559,3.2286,2.8185,3.8161,SOL_COMPUTED,DOPPLER_VELOCITY,-0.0027,0.0071,0.0078,0.3859,0.3369,0.4561,"",0.150,0.000,0.000,8,8,0,0,0,6,0,3*64c5bb8c

#BESTXYZA,UNKNOWN,0,69.5,FINESTEERING,1487,259157.500,00000000,d821,2945;SOL_COMPUTED,SINGLE,-3119514.9589,4086862.8659,3761999.0035,3.2289,2.8188,3.8164,SOL_COMPUTED,DOPPLER_VELOCITY,-0.0160,0.0124,0.0215,0.3859,0.3369,0.4562,"",0.150,0.000,0.000,8,8,0,0,0,6,0,3*7456b254

#BESTXYZA,UNKNOWN,0,69.5,FINESTEERING,1487,259158.000,00000000,d821,2945;SOL_COMPUTED,SINGLE,-3119515.1031,4086862.9154,3761999.0176,3.2289,2.8185,3.8164,SOL_COMPUTED,DOPPLER_VELOCITY,0.0228,0.0092,-0.0009,0.3859,0.3369,0.4561,"",0.150,0.000,0.000,8,8,0,0,0,6,0,3*e53872cb

#BESTXYZA,UNKNOWN,0,70.0,FINESTEERING,1487,259158.500,00000000,d821,2945;SOL_COMPUTED,SINGLE,-3119515.3264,4086863.1236,3761999.2114,3.2292,2.8188,3.8167,SOL_COMPUTED,DOPPLER_VELOCITY,-0.0063,0.0064,0.0116,0.3860,0.3369,0.4562,"",0.150,0.000,0.000,8,8,0,0,0,6,0,3*ffff5cda

#BESTXYZA,UNKNOWN,0,70.0,FINESTEERING,1487,259159.000,00000000,d821,2945;SOL_COMPUTED,SINGLE,-3119514.7446,4086862.6243,3761998.7349,3.2295,2.8192,3.8171,SOL_COMPUTED,DOPPLER_VELOCITY,0.0150,-0.0261,-0.0165,0.3860,0.3370,0.4562,"",0.150,0.000,0.000,8,8,0,0,0,6,0,3*7fdb32e7

#BESTXYZA,UNKNOWN,0,69.0,FINESTEERING,1487,259159.500,00000000,d821,2945;SOL_COMPUTED,SINGLE,-3119514.5565,4086862.2806,3761998.4522,3.2301,2.8200,3.8176,SOL_COMPUTED,DOPPLER_VELOCITY,0.0062,-0.0126,-0.0101,0.3861,0.3371,0.4563,"",0.150,0.000,0.000,8,8,0,0,0,6,0,3*90731c71

#BESTXYZA,UNKNOWN,0,69.0,FINESTEERING,1487,259160.000,00000000,d821,2945;SOL_COMPUTED,SINGLE,-3119514.2654,4086862.3112,3761998.7518,3.2303,2.8193,3.8176,SOL_COMPUTED,DOPPLER_VELOCITY,0.0152,0.0113,-0.0013,0.3861,0.3370,0.4563,"",0.150,0.000,0.000,8,8,0,0,0,6,0,3*9b0975d9

#BESTXYZA,UNKNOWN,0,65.5,FINESTEERING,1487,259160.500,00000000,d821,2945;SOL_COMPUTED,SINGLE,-3119514.0848,4086862.2406,3761998.4027,3.2310,2.8217,3.8185,SOL_COMPUTED,DOPPLER_VELOCITY,-0.0015,-0.0041,0.0043,0.3862,0.3373,0.4564,"",0.150,0.000,0.000,8,8,0,0,0,6,0,3*5ccc71d4

#BESTXYZA,UNKNOWN,0,65.5,FINESTEERING,1487,259161.000,00000000,d821,2945;SOL_COMPUTED,SINGLE,-3119514.4025,4086862.4976,3761998.6341,3.2313,2.8206,3.8186,SOL_COMPUTED,DOPPLER_VELOCITY,0.0178,0.0078,0.0154,0.3862,0.3371,0.4564,"",0.150,0.000,0.000,8,8,0,0,0,6,0,3*9bbce048

#BESTXYZA,UNKNOWN,0,65.5,FINESTEERING,1487,259161.500,00000000,d821,2945;SOL_COMPUTED,SINGLE,-3119514.6183,4086862.3937,3761998.4111,3.2319,2.8215,3.8191,SOL_COMPUTED,DOPPLER_VELOCITY,0.0301,-0.0228,-0.0298,0.3863,0.3372,0.4565,"",0.150,0.000,0.000,8,8,0,0,0,6,0,3*ffbbb1cb

#BESTXYZA,UNKNOWN,0,71.5,FINESTEERING,1487,259162.000,00000000,d821,2945;SOL_COMPUTED,SINGLE,-3119514.2991,4086862.1394,3761998.3177,3.2322,2.8213,3.8193,SOL_COMPUTED,DOPPLER_VELOCITY,-0.0136,0.0191,0.0131,0.3863,0.3372,0.4565,"",0.150,0.000,0.000,8,8,0,0,0,6,0,3*27985f17

#BESTXYZA,UNKNOWN,0,71.5,FINESTEERING,1487,259162.500,00000000,d821,2945;SOL_COMPUTED,SINGLE,-3119514.5147,4086862.6311,3761998.8751,3.2324,2.8199,3.8191,SOL_COMPUTED,DOPPLER_VELOCITY,0.0074,-0.0001,-0.0041,0.3863,0.3370,0.4565,"",0.150,0.000,0.000,8,8,0,0,0,6,0,3*00751ea8

#BESTXYZA,UNKNOWN,0,72.5,FINESTEERING,1487,259163.000,00000000,d821,2945;SOL_COMPUTED,SINGLE,-3119514.4173,4086862.7163,3761998.7805,3.2327,2.8202,3.8194,SOL_COMPUTED,DOPPLER_VELOCITY,-0.0203,0.0181,-0.0041,0.3864,0.3371,0.4565,"",0.150,0.000,0.000,8,8,0,0,0,6,0,3*6a6f8a07

#BESTXYZA,UNKNOWN,0,72.5,FINESTEERING,1487,259163.500,00000000,d821,2945;SOL_COMPUTED,SINGLE,-3119514.8742,4086862.7346,3761998.8705,3.2335,2.8216,3.8201,SOL_COMPUTED,DOPPLER_VELOCITY,0.0068,-0.0244,-0.0076,0.3865,0.3372,0.4566,"",0.150,0.000,0.000,8,8,0,0,0,6,0,3*11ff5d4e

#BESTXYZA,UNKNOWN,0,72.0,FINESTEERING,1487,259164.000,00000000,d821,2945;SOL_COMPUTED,SINGLE,-3119514.7371,4086862.3998,3761998.4263,3.2336,2.8194,3.8198,SOL_COMPUTED,DOPPLER_VELOCITY,-0.0366,0.0243,0.0142,0.3865,0.3370,0.4566,"",0.150,0.000,0.000,8,8,0,0,0,6,0,3*7cfc9333

#BESTXYZA,UNKNOWN,0,72.0,FINESTEERING,1487,259164.500,00000000,d821,2945;SOL_COMPUTED,SINGLE,-3119514.6286,4086862.2948,3761998.5273,3.2342,2.8209,3.8206,SOL_COMPUTED,DOPPLER_VELOCITY,0.0167,-0.0166,-0.0304,0.3866,0.3372,0.4566,"",0.150,0.000,0.000,8,8,0,0,0,6,0,3*519d7ecf

#BESTXYZA,UNKNOWN,0,69.0,FINESTEERING,1487,259165.000,00000000,d821,2945;SOL_COMPUTED,SINGLE,-3119515.0096,4086862.9309,3761999.0313,3.2349,2.8211,3.8210,SOL_COMPUTED,DOPPLER_VELOCITY,0.0044,-0.0131,-0.0069,0.3866,0.3372,0.4567,"",0.150,0.000,0.000,8,8,0,0,0,6,0,3*b2b686b5

#BESTXYZA,UNKNOWN,0,69.0,FINESTEERING,1487,259165.500,00000000,d821,2945;SOL_COMPUTED,SINGLE,-3119514.8703,4086862.9622,3761998.8317,3.2352,2.8222,3.8213,SOL_COMPUTED,DOPPLER_VELOCITY,-0.0238,0.0544,0.0304,0.3867,0.3373,0.4567,"",0.150,0.000,0.000,8,8,0,0,0,6,0,3*84731af4

#BESTXYZA,UNKNOWN,0,69.0,FINESTEERING,1487,259166.000,00000000,d821,2945;SOL_COMPUTED,SINGLE,-3119515.0702,4086863.4457,3761999.1539,3.2356,2.8218,3.8215,SOL_COMPUTED,DOPPLER_VELOCITY,-0.0129,0.0051,0.0195,0.3867,0.3373,0.4568,"",0.150,0.000,0.000,8,8,0,0,0,6,0,3*99b22de2

#BESTXYZA,UNKNOWN,0,72.0,FINESTEERING,1487,259166.500,00000000,d821,2945;SOL_COMPUTED,SINGLE,-3119515.2262,4086863.2585,3761998.8228,3.2364,2.8233,3.8223,SOL_COMPUTED,DOPPLER_VELOCITY,-0.0018,-0.0057,0.0052,0.3868,0.3374,0.4569,"",0.150,0.000,0.000,8,8,0,0,0,6,0,3*6f55d907

#BESTXYZA,UNKNOWN,0,69.0,FINESTEERING,1487,259167.000,00000000,d821,2945;SOL_COMPUTED,SINGLE,-3119514.6651,4086862.7078,3761998.6120,3.2367,2.8225,3.8223,SOL_COMPUTED,DOPPLER_VELOCITY,-0.0175,0.0160,-0.0016,0.3869,0.3373,0.4569,"",0.150,0.000,0.000,8,8,0,0,0,6,0,3*3aa93f5c

#BESTXYZA,UNKNOWN,0,69.0,FINESTEERING,1487,259167.500,00000000,d821,2945;SOL_COMPUTED,SINGLE,-3119514.5680,4086862.1974,3761998.2087,3.2374,2.8243,3.8231,SOL_COMPUTED,DOPPLER_VELOCITY,0.0343,-0.0450,-0.0430,0.3869,0.3376,0.4570,"",0.150,0.000,0.000,8,8,0,0,0,6,0,3*db4c0d7a

#BESTXYZA,UNKNOWN,0,69.0,FINESTEERING,1487,259168.000,00000000,d821,2945;SOL_COMPUTED,SINGLE,-3119514.6819,4086862.3291,3761998.5362,3.2375,2.8240,3.8232,SOL_COMPUTED,DOPPLER_VELOCITY,0.0289,-0.0338,-0.0268,0.3870,0.3375,0.4570,"",0.150,0.000,0.000,8,8,0,0,0,6,0,3*a682608a

#BESTXYZA,UNKNOWN,0,70.5,FINESTEERING,1487,259168.500,00000000,d821,2945;SOL_COMPUTED,SINGLE,-3119514.9028,4086862.5820,3761998.3543,3.2376,2.8230,3.8232,SOL_COMPUTED,DOPPLER_VELOCITY,-0.0022,0.0163,0.0186,0.3870,0.3374,0.4570,"",0.150,0.000,0.000,8,8,0,0,0,6,0,3*b4c7786d

#BESTXYZA,UNKNOWN,0,70.5,FINESTEERING,1487,259169.000,00000000,d821,2945;SOL_COMPUTED,SINGLE,-3119515.1813,4086862.9373,3761999.0275,3.2384,2.8257,3.8242,SOL_COMPUTED,DOPPLER_VELOCITY,0.0148,-0.0094,-0.0011,0.3871,0.3377,0.4571,"",0.150,0.000,0.000,8,8,0,0,0,6,0,3*e531ad35

#BESTXYZA,UNKNOWN,0,70.0,FINESTEERING,1487,259169.500,00000000,d821,2945;SOL_COMPUTED,SINGLE,-3119515.0809,4086862.9115,3761998.6898,3.2387,2.8260,3.8247,SOL_COMPUTED,DOPPLER_VELOCITY,0.0118,0.0099,-0.0087,0.3871,0.3378,0.4571,"",0.150,0.000,0.000,8,8,0,0,0,6,0,3*7e9fff55

#BESTXYZA,UNKNOWN,0,70.0,FINESTEERING,1487,259170.000,00000000,d821,2945;SOL_COMPUTED,SINGLE,-3119514.8258,4086862.4595,3761998.6670,3.2391,2.8262,3.8251,SOL_COMPUTED,DOPPLER_VELOCITY,-0.0111,-0.0014,-0.0037,0.3872,0.3378,0.4572,"",0.150,0.000,0.000,8,8,0,0,0,6,0,3*6273de0d

#BESTXYZA,UNKNOWN,0,65.5,FINESTEERING,1487,259170.500,00000000,d821,2945;SOL_COMPUTED,SINGLE,-3119514.8298,4086862.2745,3761998.6158,3.2390,2.8257,3.8250,SOL_COMPUTED,DOPPLER_VELOCITY,-0.0343,0.0183,0.0103,0.3871,0.3377,0.4572,"",0.150,0.000,0.000,8,8,0,0,0,6,0,3*05b5ffd3

#BESTXYZA,UNKNOWN,0,65.5,FINESTEERING,1487,259171.000,00000000,d821,2945;SOL_COMPUTED,SINGLE,-3119515.0259,4086862.3316,3761998.6364,3.2392,2.8254,3.8252,SOL_COMPUTED,DOPPLER_VELOCITY,0.0110,-0.0053,-0.0177,0.3872,0.3377,0.4572,"",0.150,0.000,0.000,8,8,0,0,0,6,0,3*58c68412

#BESTXYZA,UNKNOWN,0,65.5,FINESTEERING,1487,259171.500,00000000,d821,2945;SOL_COMPUTED,SINGLE,-3119514.9034,4086862.7309,3761998.5325,3.2392,2.8245,3.8251,SOL_COMPUTED,DOPPLER_VELOCITY,-0.0081,0.0158,0.0069,0.3872,0.3376,0.4572,"",0.150,0.000,0.000,8,8,0,0,0,6,0,3*7b196c39

#BESTXYZA,UNKNOWN,0,68.5,FINESTEERING,1487,259172.000,00000000,d821,2945;SOL_COMPUTED,SINGLE,-3119514.9133,4086862.9269,3761998.5725,3.2399,2.8269,3.8261,SOL_COMPUTED,DOPPLER_VELOCITY,0.0014,0.0120,0.0138,0.3872,0.3379,0.4573,"",0.150,0.000,0.000,8,8,0,0,0,6,0,3*ca1a7c03

#BESTXYZA,UNKNOWN,0,68.5,FINESTEERING,1487,259172.500,00000000,d821,2945;SOL_COMPUTED,SINGLE,-3119515.0600,4086862.8350,3761998.7921,3.2403,2.8263,3.8263,SOL_COMPUTED,DOPPLER_VELOCITY,0.0068,-0.0246,-0.0006,0.3873,0.3378,0.4573,"",0.150,0.000,0.000,8,8,0,0,0,6,0,3*638b2b5e

#BESTXYZA,UNKNOWN,0,68.5,FINESTEERING,1487,259173.000,00000000,d821,2945;SOL_COMPUTED,SINGLE,-3119515.1548,4086863.1747,3761999.1913,3.2404,2.8269,3.8266,SOL_COMPUTED,DOPPLER_VELOCITY,0.0171,-0.0383,-0.0266,0.3873,0.3379,0.4574,"",0.150,0.000,0.000,8,8,0,0,0,6,0,3*52798413

#BESTXYZA,UNKNOWN,0,68.5,FINESTEERING,1487,259173.500,00000000,d821,2945;SOL_COMPUTED,SINGLE,-3119515.0664,4086862.9695,3761999.0023,3.2408,2.8267,3.8268,SOL_COMPUTED,DOPPLER_VELOCITY,0.0115,0.0036,-0.0135,0.3874,0.3379,0.4574,"",0.150,0.000,0.000,8,8,0,0,0,6,0,3*749ec16e

#BESTXYZA,UNKNOWN,0,68.5,FINESTEERING,1487,259174.000,00000000,d821,2945;SOL_COMPUTED,SINGLE,-3119514.9445,4086862.8595,3761998.8466,3.2409,2.8255,3.8266,SOL_COMPUTED,DOPPLER_VELOCITY,0.0058,-0.0111,-0.0211,0.3874,0.3377,0.4574,"",0.150,0.000,0.000,8,8,0,0,0,6,0,3*32dbc090

#BESTXYZA,UNKNOWN,0,70.5,FINESTEERING,1487,259174.500,00000000,d821,2945;SOL_COMPUTED,SINGLE,-3119515.2857,4086863.0797,3761999.2707,3.2412,2.8245,3.8267,SOL_COMPUTED,DOPPLER_VELOCITY,-0.0096,0.0053,0.0012,0.3874,0.3376,0.4574,"",0.150,0.000,0.000,8,8,0,0,0,6,0,3*a946959d

#BESTXYZA,UNKNOWN,0,69.5,FINESTEERING,1487,259175.000,00000000,d821,2945;SOL_COMPUTED,SINGLE,-3119514.7540,4086862.5667,3761998.5805,3.2421,2.8268,3.8277,SOL_COMPUTED,DOPPLER_VELOCITY,-0.0069,0.0086,-0.0151,0.3875,0.3379,0.4575,"",0.150,0.000,0.000,8,8,0,0,0,6,0,3*c74431bb

#BESTXYZA,UNKNOWN,0,69.5,FINESTEERING,1487,259175.500,00000000,d821,2945;SOL_COMPUTED,SINGLE,-3119514.7466,4086862.9252,3761998.9253,3.2419,2.8250,3.8274,SOL_COMPUTED,DOPPLER_VELOCITY,-0.0069,0.0118,0.0048,0.3875,0.3377,0.4575,"",0.150,0.000,0.000,8,8,0,0,0,6,0,3*864edfbe

#BESTXYZA,UNKNOWN,0,68.5,FINESTEERING,1487,259176.000,00000000,d821,2945;SOL_COMPUTED,SINGLE,-3119514.6900,4086862.4491,3761998.4588,3.2424,2.8245,3.8275,SOL_COMPUTED,DOPPLER_VELOCITY,0.0113,-0.0135,-0.0245,0.3875,0.3376,0.4575,"",0.150,0.000,0.000,8,8,0,0,0,6,0,3*99a29832

#BESTXYZA,UNKNOWN,0,68.5,FINESTEERING,1487,259176.500,00000000,d821,2945;SOL_COMPUTED,SINGLE,-3119515.0524,4086862.7417,3761998.7955,3.2427,2.8243,3.8278,SOL_COMPUTED,DOPPLER_VELOCITY,-0.0071,-0.0002,-0.0095,0.3876,0.3376,0.4575,"",0.150,0.000,0.000,8,8,0,0,0,6,0,3*b449a70d

#BESTXYZA,UNKNOWN,0,68.5,FINESTEERING,1487,259177.000,00000000,d821,2945;SOL_COMPUTED,SINGLE,-3119515.3562,4086863.1084,3761999.0909,3.2428,2.8234,3.8277,SOL_COMPUTED,DOPPLER_VELOCITY,0.0374,-0.0255,-0.0136,0.3876,0.3375,0.4575,"",0.150,0.000,0.000,8,8,0,0,0,6,0,3*f540b489

#BESTXYZA,UNKNOWN,0,68.5,FINESTEERING,1487,259177.500,00000000,d821,2945;SOL_COMPUTED,SINGLE,-3119515.4341,4086863.3901,3761999.4658,3.2429,2.8225,3.8276,SOL_COMPUTED,DOPPLER_VELOCITY,0.0012,-0.0016,-0.0009,0.3876,0.3374,0.4575,"",0.150,0.000,0.000,8,8,0,0,0,6,0,3*983a3a1e

#BESTXYZA,UNKNOWN,0,68.5,FINESTEERING,1487,259178.000,00000000,d821,2945;SOL_COMPUTED,SINGLE,-3119515.4935,4086863.4691,3761999.3038,3.2433,2.8232,3.8280,SOL_COMPUTED,DOPPLER_VELOCITY,0.0211,-0.0193,-0.0408,0.3877,0.3374,0.4575,"",0.150,0.000,0.000,8,8,0,0,0,6,0,3*ce0e3f4f

#BESTXYZA,UNKNOWN,0,72.5,FINESTEERING,1487,259178.500,00000000,d821,2945;SOL_COMPUTED,SINGLE,-3119515.3793,4086863.4135,3761999.1948,3.2435,2.8225,3.8279,SOL_COMPUTED,DOPPLER_VELOCITY,0.0195,-0.0211,-0.0392,0.3877,0.3374,0.4575,"",0.150,0.000,0.000,8,8,0,0,0,6,0,3*825c5522

#BESTXYZA,UNKNOWN,0,72.5,FINESTEERING,1487,259179.000,00000000,d821,2945;SOL_COMPUTED,SINGLE,-3119514.6485,4086862.7146,3761998.6185,3.2436,2.8221,3.8280,SOL_COMPUTED,DOPPLER_VELOCITY,0.0146,-0.0136,-0.0257,0.3877,0.3373,0.4575,"",0.150,0.000,0.000,8,8,0,0,0,6,0,3*82bab9e8

#BESTXYZA,UNKNOWN,0,69.5,FINESTEERING,1487,259179.500,00000000,d821,2945;SOL_COMPUTED,SINGLE,-3119514.9247,4086862.8944,3761998.6469,3.2439,2.8218,3.8282,SOL_COMPUTED,DOPPLER_VELOCITY,0.0067,0.0097,0.0100,0.3877,0.3373,0.4576,"",0.150,0.000,0.000,8,8,0,0,0,6,0,3*f3475e28

#BESTXYZA,UNKNOWN,0,69.5,FINESTEERING,1487,259180.000,00000000,d821,2945;SOL_COMPUTED,SINGLE,-3119515.1683,4086862.9688,3761998.6433,3.2444,2.8227,3.8287,SOL_COMPUTED,DOPPLER_VELOCITY,0.0004,0.0549,0.0251,0.3878,0.3374,0.4576,"",0.150,0.000,0.000,8,8,0,0,0,6,0,3*fc495c18

#BESTXYZA,UNKNOWN,0,66.0,FINESTEERING,1487,259180.500,00000000,d821,2945;SOL_COMPUTED,SINGLE,-3119514.9828,4086862.6175,3761998.5076,3.2444,2.8224,3.8289,SOL_COMPUTED,DOPPLER_VELOCITY,-0.0071,0.0215,0.0127,0.3878,0.3373,0.4576,"",0.150,0.000,0.000,8,8,0,0,0,6,0,3*a933d780

#BESTXYZA,UNKNOWN,0,66.0,FINESTEERING,1487,259181.000,00000000,d821,2945;SOL_COMPUTED,SINGLE,-3119515.2268,4086862.8666,3761998.8397,3.2447,2.8221,3.8290,SOL_COMPUTED,DOPPLER_VELOCITY,0.0150,-0.0182,-0.0217,0.3878,0.3373,0.4577,"",0.150,0.000,0.000,8,8,0,0,0,6,0,3*fa8b1dc1

#BESTXYZA,UNKNOWN,0,66.0,FINESTEERING,1487,259181.500,00000000,d821,2945;SOL_COMPUTED,SINGLE,-3119515.4213,4086863.1959,3761998.9765,3.2453,2.8230,3.8295,SOL_COMPUTED,DOPPLER_VELOCITY,-0.0212,0.0060,-0.0013,0.3879,0.3374,0.4577,"",0.150,0.000,0.000,8,8,0,0,0,6,0,3*fce24d5e

#BESTXYZA,UNKNOWN,0,71.0,FINESTEERING,1487,259182.000,00000000,d821,2945;SOL_COMPUTED,SINGLE,-3119514.9313,4086862.5202,3761998.6192,3.2455,2.8229,3.8297,SOL_COMPUTED,DOPPLER_VELOCITY,0.0036,0.0029,-0.0066,0.3879,0.3374,0.4577,"",0.150,0.000,0.000,8,8,0,0,0,6,0,3*64d40b90

#BESTXYZA,UNKNOWN,0,66.5,FINESTEERING,1487,259182.500,00000000,d821,2945;SOL_COMPUTED,SINGLE,-3119515.2019,4086862.7133,3761998.8728,3.2459,2.8233,3.8302,SOL_COMPUTED,DOPPLER_VELOCITY,-0.0179,0.0105,0.0076,0.3880,0.3374,0.4578,"",0.150,0.000,0.000,8,8,0,0,0,6,0,3*c19aac58

