#GPSEPHEMA,COM1_1,16,87.0,SATTIME,1995,195150.000,00000800,1214,14392;4,195150.0,63,30,30,1995,1995,201600.0,2.656049998e+07,5.472727961e-09,2.208703057e+00,9.7907717573e-03,9.0866185453e-01,-3.360211849e-06,3.749504685e-06,3.18843750e+02,-6.33437500e+01,-3.911554813e-08,-1.378357410e-07,9.7950622555e-01,-2.260808457e-10,2.466258656e+00,-8.14319634e-09,30,201600.0,-1.955777407e-08,4.98481e-05,2.95586e-12,0.00000,TRUE,1.458581987e-04,4.00000000e+00*56141b5e
#GPSEPHEMA,COM1_1,15,87.0,SATTIME,2020,372060.000,00000800,1214,14392;7,372060.0,0,48,48,2020,2020,374400.0,2.656000025e+07,4.874488756e-09,-1.851037737e+00,1.2097911327e-02,-2.489227554e+00,4.086643457e-06,4.470348358e-06,2.87781250e+02,8.36875000e+01,1.396983862e-07,-1.266598701e-07,9.5718983304e-01,6.246688771e-10,-1.726062780e+00,-8.33749015e-09,48,374400.0,-1.117587090e-08,1.16926e-04,-6.70752e-12,0.00000,TRUE,1.458617169e-04,4.00000000e+00*1937290e
#GPSEPHEMA,COM1_1,14,87.0,SATTIME,2020,373500.000,00000800,1214,14392;30,373500.0,0,97,97,2020,2020,374400.0,2.656045913e+07,5.249147219e-09,-1.872840109e+00,3.6283872323e-03,-2.973947027e+00,3.928318620e-06,4.654750228e-06,2.81687500e+02,8.10937500e+01,3.911554813e-08,-8.754432201e-08,9.4273171418e-01,4.993065124e-10,-1.694271669e+00,-8.63607401e-09,97,374400.0,3.725290298e-09,1.83485e-05,-5.34328e-12,0.00000,TRUE,1.458583117e-04,7.84000000e+00*46444b37
#GPSEPHEMA,COM1_1,13,87.0,SATTIME,2020,362970.000,00000800,1214,14392;17,362970.0,0,7,7,2020,2020,367184.0,2.655980385e+07,3.916591713e-09,-7.1514841006e-02,1.2606551172e-02,-1.773800486e+00,-6.649643183e-07,1.204386353e-05,1.64125000e+02,-1.45625000e+01,-1.471489668e-07,1.024454832e-07,9.8358351868e-01,1.250052070e-11,4.0273810832e-01,-7.87389941e-09,7,367184.0,-1.117587090e-08,-5.10286e-05,4.32010e-12,0.00000,TRUE,1.458623768e-04,4.00000000e+00*db4bf991
#GPSEPHEMA,COM1_1,12,87.0,SATTIME,2020,365880.000,00000800,1214,14392;19,365880.0,0,41,41,2020,2020,367200.0,2.655965945e+07,3.853017637e-09,2.687361807e+00,9.6265038010e-03,1.291117552e+00,-7.171183825e-07,1.196004450e-05,1.55625000e+02,-1.34062500e+01,8.381903172e-08,-1.359730959e-07,9.8117995159e-01,-7.500312418e-12,4.4944401066e-01,-7.50566978e-09,41,367200.0,-1.536682248e-08,-3.98935e-04,3.52429e-12,0.00000,TRUE,1.458635027e-04,4.00000000e+00*38504143
#GPSEPHEMA,COM1_1,11,87.0,SATTIME,2020,370290.000,00000800,1214,14392;6,370290.0,0,8,8,2020,2020,374384.0,2.656064688e+07,4.581262257e-09,-9.3278781235e-01,9.6928596031e-04,-1.132094344e+00,2.678483725e-06,6.252899766e-06,2.65625000e+02,5.05937500e+01,1.490116119e-08,-2.235174179e-08,9.7199376378e-01,3.593006806e-10,1.395526275e+00,-8.18998400e-09,8,374384.0,4.656612873e-09,3.57946e-04,-5.34328e-12,0.00000,TRUE,1.458560973e-04,4.00000000e+00*0ad08daa
#GPSEPHEMA,COM1_1,10,87.0,SATTIME,2020,362310.000,00000800,1214,14392;23,362310.0,0,54,54,2020,2020,367200.0,2.656097608e+07,4.536260382e-09,-1.447623258e+00,1.2635933235e-02,-2.327070906e+00,1.134350896e-06,1.247785985e-05,1.23062500e+02,2.26875000e+01,2.924352884e-07,-5.960464478e-08,9.4392225593e-01,6.785996950e-11,-2.806051831e+00,-7.94068790e-09,54,367200.0,-2.002343535e-08,-2.09991e-04,7.95808e-13,0.00000,TRUE,1.458533407e-04,4.00000000e+00*16470902
#GPSEPHEMA,COM1_1,9,87.0,SATTIME,2020,365910.000,00000800,1214,14392;9,365910.0,0,54,54,2020,2020,367200.0,2.655906875e+07,4.314108271e-09,3.5987331099e-01,1.0682338616e-03,1.738370016e+00,6.128102541e-07,1.297518611e-05,1.22343750e+02,1.41875000e+01,-3.352761269e-08,-3.352761269e-08,9.5310667215e-01,6.071681481e-12,-2.803268660e+00,-7.94318801e-09,54,367200.0,9.313225746e-10,5.04145e-04,-2.27374e-12,0.00000,TRUE,1.458688300e-04,4.00000000e+00*fd44cbfb
#GPSEPHEMA,COM1_1,8,87.0,SATTIME,2020,363780.000,00000800,1214,14392;12,363780.0,0,45,45,2020,2020,367200.0,2.656132526e+07,4.174102440e-09,2.791435178e+00,7.0176156005e-03,1.023853342e+00,-4.248693585e-06,5.722045898e-06,2.78125000e+02,-7.96562500e+01,-6.705522537e-08,-1.639127731e-07,9.8542808722e-01,-4.714482091e-10,-6.3038616413e-01,-7.91604402e-09,45,367200.0,-1.257285476e-08,3.04001e-04,-2.72848e-12,0.00000,TRUE,1.458501025e-04,4.00000000e+00*124ecc2c
#GPSEPHEMA,COM1_1,7,87.0,SATTIME,2020,373500.000,00000800,1214,14392;2,373500.0,0,44,44,2020,2020,374400.0,2.655916158e+07,5.131642325e-09,-8.9768720695e-01,1.8175148871e-02,-1.827646527e+00,3.188848495e-06,6.562098861e-06,2.52812500e+02,5.72500000e+01,-1.695007086e-07,3.147870302e-07,9.5141122470e-01,3.225134340e-10,1.340141919e+00,-8.67071831e-09,44,374400.0,-2.048909664e-08,-1.35843e-05,-1.09139e-11,0.00000,TRUE,1.458688828e-04,4.00000000e+00*5f6cea37
#GPSEPHEMA,COM1_1,6,87.0,SATTIME,2020,373500.000,00000800,1214,14392;5,373500.0,0,71,71,2020,2020,374400.0,2.656150026e+07,5.065925302e-09,1.707707429e+00,5.6452323915e-03,6.9128201927e-01,-2.956017852e-06,5.787238479e-06,2.66281250e+02,-5.64687500e+01,-4.284083843e-08,-2.607703209e-08,9.4851762980e-01,-4.818057834e-10,2.423555416e+00,-8.46035241e-09,71,374400.0,-1.117587090e-08,-1.53622e-06,3.41061e-13,0.00000,TRUE,1.458495530e-04,4.00000000e+00*b29f057d
#GPSEPHEMA,COM1_1,5,87.0,SATTIME,2020,363780.000,00000800,1214,14392;25,363780.0,0,52,52,2020,2020,367200.0,2.655944058e+07,4.509473552e-09,2.384933825e+00,7.4721577112e-03,8.6048030381e-01,-4.203990102e-06,5.347654223e-06,2.81781250e+02,-7.90000000e+01,-9.685754776e-08,-1.490116119e-07,9.7294120951e-01,-3.896590880e-10,-6.9166838617e-01,-8.08712258e-09,52,367200.0,5.587935448e-09,-6.53128e-04,-5.68434e-12,0.00000,TRUE,1.458659622e-04,4.00000000e+00*42c0cfa6
#GPSEPHEMA,COM1_1,4,87.0,SATTIME,2020,373500.000,00000800,1214,14392;29,373500.0,0,44,44,2020,2020,374400.0,2.655992822e+07,3.714440436e-09,1.545438579e+00,7.6979212463e-04,1.629623708e+00,-7.506459951e-07,1.203082502e-05,1.59218750e+02,-1.10000000e+01,-2.793967724e-08,-7.450580597e-09,9.8492013280e-01,1.678641351e-11,4.1345258617e-01,-7.57102965e-09,44,374400.0,-1.024454832e-08,3.68421e-04,-7.50333e-12,0.00000,TRUE,1.458611502e-04,4.00000000e+00*0191c356
#GPSEPHEMA,COM1_1,3,87.0,SATTIME,2020,373500.000,00000800,1214,14392;13,373500.0,0,105,105,2020,2020,374400.0,2.656037036e+07,4.041954078e-09,-2.1548550411e-01,3.4244972048e-03,1.457658065e+00,1.799315214e-06,1.213885844e-05,1.51437500e+02,3.53125000e+01,-6.332993507e-08,4.656612873e-08,9.6868552815e-01,1.239337338e-10,-2.669819362e+00,-7.81889712e-09,105,374400.0,-1.117587090e-08,-8.83252e-05,7.95808e-13,0.00000,TRUE,1.458578356e-04,4.00000000e+00*3ff7331b
#GPSEPHEMA,COM1_1,2,87.0,SATTIME,2020,373500.000,00000800,1214,14392;15,373500.0,0,51,51,2020,2020,374400.0,2.655932007e+07,4.973421449e-09,6.7011250625e-02,1.0764998500e-02,7.0742652864e-01,3.147870302e-07,1.168437302e-05,1.37875000e+02,3.15625000e+00,4.842877388e-08,2.048909664e-07,9.2865324305e-01,-5.893102614e-11,-2.877113521e+00,-8.37320592e-09,51,374400.0,-1.071020961e-08,-3.44753e-04,1.02318e-12,0.00000,TRUE,1.458674189e-04,4.00000000e+00*463131e4
#GPSEPHEMA,COM1_1,1,87.0,SATTIME,2020,373500.000,00000800,1214,14392;21,373500.0,0,52,52,2020,2020,374384.0,2.655978246e+07,4.977707341e-09,-2.971320984e+00,2.4353078916e-02,-1.524247197e+00,3.580003977e-06,5.742534995e-06,2.56593750e+02,7.04687500e+01,3.203749657e-07,1.285225153e-07,9.4503219529e-01,3.803729869e-10,1.346194736e+00,-7.99640451e-09,52,374384.0,-1.024454832e-08,-3.30531e-04,6.02540e-12,0.00000,TRUE,1.458636141e-04,4.00000000e+00*b0790c51
#GPSEPHEMA,COM1_1,0,87.0,SATTIME,2020,373500.000,00000800,1214,14392;24,373500.0,0,165,165,2020,2020,374400.0,2.655986621e+07,5.249861535e-09,-8.3609920577e-01,7.2915299097e-03,5.3558326334e-01,4.172325134e-06,4.889443517e-06,2.73656250e+02,7.78437500e+01,1.378357410e-07,4.284083843e-08,9.4032574059e-01,4.343038048e-10,-1.787937921e+00,-8.62821654e-09,165,374400.0,2.793967724e-09,-5.59604e-05,-5.68434e-13,0.00000,TRUE,1.458631964e-04,4.00000000e+00*16f92255
#RANGEA,COM1_1,0,84.5,FINESTEERING,2020,374050.000,00000800,5103,14392;16,15,0,20633366.750,0.034,-108429132.764083,0.005,1233.215,50.6,7806.450,08109c04,15,0,20633363.802,0.136,-84490236.635069,0.005,960.948,43.7,7795.780,01303c0b,21,0,23551182.457,0.065,-123762316.180507,0.009,2567.795,44.8,3887.420,08109c24,21,0,23551178.787,0.291,-96438174.589356,0.011,2000.880,37.1,3675.880,01303c2b,24,0,23231874.610,0.082,-122084336.490201,0.012,3707.415,42.9,1278.040,18109c44,24,0,23231876.405,0.245,-95130653.952630,0.015,2888.895,38.6,1277.320,11303c4b,5,0,21403620.667,0.036,-112476819.241748,0.005,-1592.880,50.0,18218.699,08109c64,5,0,21403616.682,0.189,-87644265.317412,0.006,-1241.205,40.8,18210.279,01303c6b,2,0,23224331.925,0.062,-122044688.456855,0.009,-3393.185,45.2,21678.180,18109c84,2,0,23224328.672,0.339,-95099729.797409,0.012,-2644.045,35.8,21669.279,11303c8b,13,0,20445858.131,0.037,-107443765.712205,0.005,-1233.456,49.7,11978.410,18109d44,13,0,20445854.969,0.148,-83722432.976486,0.005,-961.134,43.0,11971.780,11303d4b,29,0,23478484.926,0.061,-123380271.330848,0.009,-2541.254,45.5,12016.620,18109d64,29,0,23478483.148,0.371,-96140465.526267,0.014,-1980.201,35.0,12015.920,11303d6b,30,0,23923233.061,0.070,-125717481.272967,0.012,-2380.016,44.2,11255.360,18109d84,30,0,23923231.768,0.487,-97961673.642709,0.020,-1854.555,32.6,11252.280,11303d8b*95f50e68
#BESTPOSA,COM1_1,0,84.5,FINESTEERING,2020,374050.000,00000800,b1f6,14392;SOL_COMPUTED,SINGLE,36.76912273995,126.93478345102,103.6652,23.3000,WGS84,1.4602,1.4048,3.4879,"",0.000,0.000,8,8,8,8,00,06,00,03*aa72761d
#BESTXYZA,COM1_1,0,84.5,FINESTEERING,2020,374050.000,00000800,fac1,14392;SOL_COMPUTED,SINGLE,-3073916.3831,4088899.9718,3796975.7380,2.1484,2.8306,1.9088,SOL_COMPUTED,DOPPLER_VELOCITY,-0.0112,-0.0183,0.0002,0.2568,0.3383,0.2281,"",0.000,0.000,0.000,8,8,8,8,0,06,00,03*08f02e60
#SATXYZ2A,COM1_1,0,84.5,FINESTEERING,2020,374050.000,00000800,7513,14392;8,GPS,15,-3958114.4924,21920607.2529,13932528.0446,-103351.305,-1.339,2.838,0.0,0.0,GPS,21,8176353.7569,14131311.7457,21757531.1400,-99086.126,-2.422,4.918,0.0,0.0,GPS,24,-13470724.6136,21448768.8596,-7582020.5930,-16773.379,-1.556,6.151,0.0,0.0,GPS,5,-21132097.4272,5283860.9705,15223648.5626,-461.090,-1.329,3.243,0.0,0.0,GPS,2,-20847216.9931,14375660.8938,-7041506.4221,-4054.928,1.065,6.597,0.0,0.0,GPS,13,-12852847.2164,11206654.1597,20248748.5361,-26475.351,-2.127,2.642,0.0,0.0,GPS,29,4441631.8181,26182089.2693,355363.4409,110453.298,0.329,6.866,0.0,0.0,GPS,30,-13734470.1139,-8511383.2996,21122362.5272,5502.505,-1.236,7.838,0.0,0.0*9d3cd424
#RANGEA,COM1_1,0,84.5,FINESTEERING,2020,374051.000,00000800,5103,14392;16,15,0,20633132.135,0.034,-108427899.859370,0.005,1232.696,50.6,7807.450,08109c04,15,0,20633129.195,0.132,-84489275.931250,0.006,960.544,43.9,7796.780,01303c0b,21,0,23550693.853,0.066,-123759748.553122,0.008,2567.510,44.8,3888.420,08109c24,21,0,23550690.190,0.265,-96436173.842868,0.011,2000.658,37.9,3676.880,01303c2b,24,0,23231169.156,0.083,-122080629.316048,0.012,3707.196,42.7,1279.040,18109c44,24,0,23231170.953,0.197,-95127765.243384,0.014,2888.724,40.5,1278.320,11303c4b,5,0,21403923.844,0.036,-112478412.473748,0.006,-1593.378,50.0,18219.699,08109c64,5,0,21403919.879,0.183,-87645506.796489,0.007,-1241.594,41.1,18211.279,01303c6b,2,0,23224977.680,0.063,-122048081.854558,0.010,-3393.429,45.1,21679.180,18109c84,2,0,23224974.435,0.291,-95102374.000086,0.011,-2644.235,37.1,21670.279,11303c8b,13,0,20446092.936,0.037,-107444999.559520,0.005,-1234.123,49.8,11979.410,18109d44,13,0,20446089.774,0.149,-83723394.415757,0.006,-961.654,42.9,11972.780,11303d4b,29,0,23478968.563,0.060,-123382812.823346,0.009,-2541.598,45.6,12017.620,18109d64,29,0,23478966.794,0.315,-96142445.912054,0.013,-1980.467,36.4,12016.920,11303d6b,30,0,23923686.056,0.071,-125719861.834964,0.010,-2380.798,44.0,11256.360,18109d84,30,0,23923684.789,0.478,-97963528.636410,0.018,-1855.163,32.8,11253.280,11303d8b*f8a48295
#BESTPOSA,COM1_1,0,84.5,FINESTEERING,2020,374051.000,00000800,b1f6,14392;SOL_COMPUTED,SINGLE,36.76912279156,126.93478347376,103.6557,23.3000,WGS84,1.4602,1.4047,3.4879,"",0.000,0.000,8,8,8,8,00,06,00,03*885fb7b7
#BESTXYZA,COM1_1,0,84.5,FINESTEERING,2020,374051.000,00000800,fac1,14392;SOL_COMPUTED,SINGLE,-3073916.3781,4088899.9618,3796975.7369,2.1485,2.8305,1.9087,SOL_COMPUTED,DOPPLER_VELOCITY,0.0067,-0.0045,-0.0194,0.2568,0.3383,0.2281,"",0.000,0.000,0.000,8,8,8,8,0,06,00,03*43f4c3c1
#SATXYZ2A,COM1_1,0,84.5,FINESTEERING,2020,374051.000,00000800,7513,14392;8,GPS,15,-3958977.2011,21918958.3087,13934878.1949,-103351.306,-1.340,2.838,0.0,0.0,GPS,21,8174517.6514,14133129.4004,21757026.7922,-99086.122,-2.421,4.917,0.0,0.0,GPS,24,-13471645.0387,21449204.5478,-7579075.3256,-16773.380,-1.555,6.149,0.0,0.0,GPS,5,-21133910.0657,5283113.6233,15221429.6567,-461.090,-1.329,3.243,0.0,0.0,GPS,2,-20846772.0484,14374732.4397,-7044500.2778,-4054.932,1.067,6.599,0.0,0.0,GPS,13,-12853206.8617,11204083.4246,20249938.1744,-26475.352,-2.128,2.642,0.0,0.0,GPS,29,4441436.6549,26182169.0028,352135.6383,110453.296,0.328,6.867,0.0,0.0,GPS,30,-13732448.3488,-8513146.0417,21122950.0301,5502.504,-1.236,7.840,0.0,0.0*72e9f7ea
#RANGEA,COM1_1,0,85.5,FINESTEERING,2020,374052.000,00000800,5103,14392;16,15,0,20632897.626,0.033,-108426667.516301,0.005,1232.144,50.6,7808.450,08109c04,15,0,20632894.701,0.129,-84488315.664190,0.005,960.113,44.1,7797.780,01303c0b,21,0,23550205.325,0.065,-123757181.337760,0.009,2566.970,44.8,3889.420,08109c24,21,0,23550201.664,0.271,-96434173.416462,0.012,2000.237,37.7,3677.880,01303c2b,24,0,23230463.745,0.082,-122076922.414847,0.012,3706.701,42.9,1280.040,18109c44,24,0,23230465.543,0.255,-95124876.752611,0.015,2888.340,38.2,1279.320,11303c4b,5,0,21404227.094,0.036,-112480006.092347,0.005,-1593.812,50.0,18220.699,08109c64,5,0,21404223.137,0.182,-87646748.578673,0.006,-1241.932,41.1,18212.279,01303c6b,2,0,23225623.500,0.063,-122051475.609235,0.009,-3393.795,45.1,21680.180,18109c84,2,0,23225620.255,0.271,-95105018.483898,0.011,-2644.519,37.7,21671.279,11303c8b,13,0,20446327.839,0.037,-107446233.951958,0.005,-1234.645,49.8,11980.410,18109d44,13,0,20446324.677,0.144,-83724356.281257,0.006,-962.060,43.2,11973.780,11303d4b,29,0,23479452.275,0.060,-123385354.719878,0.009,-2542.149,45.7,12018.620,18109d64,29,0,23479450.520,0.317,-96144426.608267,0.012,-1980.897,36.3,12017.920,11303d6b,30,0,23924139.148,0.072,-125722242.953858,0.010,-2381.452,44.0,11257.360,18109d84,30,0,23924137.955,0.446,-97965384.052084,0.019,-1855.674,33.4,11254.280,11303d8b*30711771
#BESTPOSA,COM1_1,0,85.5,FINESTEERING,2020,374052.000,00000800,b1f6,14392;SOL_COMPUTED,SINGLE,36.76912282194,126.93478353296,103.6472,23.3000,WGS84,1.4602,1.4047,3.4879,"",0.000,0.000,8,8,8,8,00,06,00,03*43afb28c
#BESTXYZA,COM1_1,0,85.5,FINESTEERING,2020,374052.000,00000800,fac1,14392;SOL_COMPUTED,SINGLE,-3073916.3770,4088899.9516,3796975.7345,2.1487,2.8305,1.9086,SOL_COMPUTED,DOPPLER_VELOCITY,-0.0238,0.0193,0.0073,0.2568,0.3383,0.2281,"",0.000,0.000,0.000,8,8,8,8,0,06,00,03*5384095d
#SATXYZ2A,COM1_1,0,85.5,FINESTEERING,2020,374052.000,00000800,7513,14392;8,GPS,15,-3959840.0844,21917309.1251,13937228.0388,-103351.306,-1.340,2.838,0.0,0.0,GPS,21,8172681.6925,14134947.1183,21756522.0135,-99086.118,-2.422,4.916,0.0,0.0,GPS,24,-13472565.1812,21449640.0216,-7576129.8946,-16773.381,-1.554,6.148,0.0,0.0,GPS,5,-21135722.4768,5282366.4563,15219210.4275,-461.090,-1.329,3.243,0.0,0.0,GPS,2,-20846326.8924,14373803.6816,-7047493.9788,-4054.937,1.069,6.601,0.0,0.0,GPS,13,-12853566.6743,11201512.5609,20251127.3776,-26475.352,-2.128,2.642,0.0,0.0,GPS,29,4441241.4324,26182248.3469,348907.8282,110453.294,0.328,6.869,0.0,0.0,GPS,30,-13730426.6229,-8514908.9435,21123537.0854,5502.502,-1.240,7.842,0.0,0.0*23ea1fe5
#RANGEA,COM1_1,0,84.0,FINESTEERING,2020,374053.000,00000800,5103,14392;16,15,0,20632663.186,0.033,-108425435.527770,0.005,1231.908,50.7,7809.450,08109c04,15,0,20632660.270,0.130,-84487355.674544,0.005,959.929,44.1,7798.780,01303c0b,21,0,23549716.826,0.066,-123754614.306067,0.009,2567.044,44.8,3890.420,08109c24,21,0,23549713.187,0.256,-96432173.132137,0.012,2000.295,38.2,3678.880,01303c2b,24,0,23229758.352,0.080,-122073215.572196,0.012,3706.941,43.1,1281.040,18109c44,24,0,23229760.171,0.221,-95121988.310494,0.015,2888.528,39.5,1280.320,11303c4b,5,0,21404530.381,0.036,-112481599.887536,0.005,-1593.706,50.0,18221.699,08109c64,5,0,21404526.436,0.182,-87647990.497568,0.006,-1241.849,41.1,18213.279,01303c6b,2,0,23226269.355,0.062,-122054869.528701,0.009,-3393.764,45.3,21681.180,18109c84,2,0,23226266.108,0.282,-95107663.097649,0.011,-2644.493,37.4,21672.279,11303c8b,13,0,20446562.814,0.037,-107447468.682471,0.006,-1234.820,49.8,11981.410,18109d44,13,0,20446559.646,0.144,-83725318.409189,0.006,-962.197,43.2,11974.780,11303d4b,29,0,23479936.024,0.059,-123387896.787560,0.008,-2542.108,45.7,12019.620,18109d64,29,0,23479934.257,0.335,-96146407.441723,0.012,-1980.864,35.8,12018.920,11303d6b,30,0,23924592.322,0.071,-125724624.430396,0.010,-2381.610,44.0,11258.360,18109d84,30,0,23924591.188,0.445,-97967239.754411,0.019,-1855.798,33.4,11255.280,11303d8b*607ec3d6
#BESTPOSA,COM1_1,0,84.0,FINESTEERING,2020,374053.000,00000800,b1f6,14392;SOL_COMPUTED,SINGLE,36.76912290105,126.93478352808,103.6361,23.3000,WGS84,1.4602,1.4047,3.4879,"",0.000,0.000,8,8,8,8,00,06,00,03*17aae2da
#BESTXYZA,COM1_1,0,84.0,FINESTEERING,2020,374053.000,00000800,fac1,14392;SOL_COMPUTED,SINGLE,-3073916.3682,4088899.9405,3796975.7349,2.1488,2.8304,1.9084,SOL_COMPUTED,DOPPLER_VELOCITY,-0.0151,0.0019,-0.0060,0.2568,0.3383,0.2281,"",0.000,0.000,0.000,8,8,8,8,0,06,00,03*9bb18ae4
#SATXYZ2A,COM1_1,0,84.0,FINESTEERING,2020,374053.000,00000800,7513,14392;8,GPS,15,-3960703.1423,21915659.7023,13939577.5764,-103351.307,-1.340,2.837,0.0,0.0,GPS,21,8170845.8804,14136764.8991,21756016.8040,-99086.114,-2.422,4.916,0.0,0.0,GPS,24,-13473485.0414,21450075.2810,-7573184.3002,-16773.381,-1.555,6.146,0.0,0.0,GPS,5,-21137534.6603,5281619.4696,15216990.8750,-461.090,-1.329,3.244,0.0,0.0,GPS,2,-20845881.5251,14372874.6194,-7050487.5250,-4054.941,1.069,6.604,0.0,0.0,GPS,13,-12853926.6540,11198941.5685,20252316.1458,-26475.352,-2.128,2.642,0.0,0.0,GPS,29,4441046.1506,26182327.3016,345680.0107,110453.292,0.325,6.870,0.0,0.0,GPS,30,-13728404.9361,-8516672.0050,21124123.6930,5502.501,-1.240,7.844,0.0,0.0*2adb0938
#RANGEA,COM1_1,0,84.0,FINESTEERING,2020,374054.000,00000800,5103,14392;16,15,0,20632428.834,0.033,-108424204.006667,0.005,1231.088,50.7,7810.450,08109c04,15,0,20632425.926,0.126,-84486396.050272,0.005,959.291,44.3,7799.780,01303c0b,21,0,23549228.392,0.065,-123752047.583503,0.010,2566.288,44.9,3891.420,08109c24,21,0,23549224.748,0.244,-96430173.088037,0.012,1999.706,38.6,3679.880,01303c2b,24,0,23229053.004,0.082,-122069508.922084,0.011,3706.333,42.9,1282.040,18109c44,24,0,23229054.813,0.264,-95119100.016079,0.015,2888.054,37.9,1281.320,11303c4b,5,0,21404833.722,0.036,-112483193.984505,0.005,-1594.529,50.1,18222.699,08109c64,5,0,21404829.791,0.172,-87649232.650299,0.007,-1242.490,41.6,18214.279,01303c6b,2,0,23226915.257,0.062,-122058263.713891,0.009,-3394.655,45.3,21682.180,18109c84,2,0,23226912.041,0.289,-95110307.920741,0.011,-2645.187,37.1,21673.279,11303c8b,13,0,20446797.879,0.037,-107448703.869098,0.005,-1235.625,49.9,11982.410,18109d44,13,0,20446794.704,0.143,-83726280.894263,0.006,-962.823,43.2,11975.780,11303d4b,29,0,23480419.831,0.059,-123390439.153142,0.008,-2542.868,45.7,12020.620,18109d64,29,0,23480418.048,0.309,-96148388.500967,0.012,-1981.457,36.6,12019.920,11303d6b,30,0,23925045.586,0.071,-125727006.375577,0.010,-2382.417,44.1,11259.360,18109d84,30,0,23925044.527,0.419,-97969095.802483,0.019,-1856.429,33.9,11256.280,11303d8b*6bebae27
#BESTPOSA,COM1_1,0,84.0,FINESTEERING,2020,374054.000,00000800,b1f6,14392;SOL_COMPUTED,SINGLE,36.76912296354,126.93478355162,103.6311,23.3000,WGS84,1.4603,1.4046,3.4878,"",0.000,0.000,8,8,8,8,00,06,00,03*2dd3bc94
#BESTXYZA,COM1_1,0,84.0,FINESTEERING,2020,374054.000,00000800,fac1,14392;SOL_COMPUTED,SINGLE,-3073916.3649,4088899.9327,3796975.7374,2.1489,2.8303,1.9083,SOL_COMPUTED,DOPPLER_VELOCITY,-0.0134,0.0167,0.0174,0.2568,0.3383,0.2281,"",0.000,0.000,0.000,8,8,8,8,0,06,00,03*fa2409f6
#SATXYZ2A,COM1_1,0,84.0,FINESTEERING,2020,374054.000,00000800,7513,14392;8,GPS,15,-3961566.3747,21914010.0403,13941926.8076,-103351.308,-1.341,2.837,0.0,0.0,GPS,21,8169010.2151,14138582.7430,21755511.1637,-99086.109,-2.422,4.915,0.0,0.0,GPS,24,-13474404.6190,21450510.3259,-7570238.5424,-16773.382,-1.558,6.144,0.0,0.0,GPS,5,-21139346.6164,5280872.6631,15214770.9994,-461.090,-1.329,3.244,0.0,0.0,GPS,2,-20845435.9465,14371945.2531,-7053480.9164,-4054.945,1.068,6.606,0.0,0.0,GPS,13,-12854286.8010,11196370.4477,20253504.4788,-26475.352,-2.128,2.642,0.0,0.0,GPS,29,4440850.8094,26182405.8668,342452.1858,110453.289,0.324,6.872,0.0,0.0,GPS,30,-13726383.2886,-8518435.2262,21124709.8529,5502.500,-1.242,7.846,0.0,0.0*9d4cdf69
#RANGEA,COM1_1,0,84.5,FINESTEERING,2020,374055.000,00000800,5103,14392;16,15,0,20632194.597,0.033,-108422973.134902,0.006,1230.793,50.7,7811.450,08109c04,15,0,20632191.703,0.129,-84485436.931297,0.006,959.061,44.1,7800.780,01303c0b,21,0,23548740.054,0.065,-123749481.350907,0.010,2566.152,44.8,3892.420,08109c24,21,0,23548736.413,0.263,-96428173.432405,0.012,1999.601,38.0,3680.880,01303c2b,24,0,23228347.702,0.084,-122065802.604068,0.011,3706.229,42.7,1283.040,18109c44,24,0,23228349.553,0.230,-95116211.974101,0.014,2887.972,39.1,1282.320,11303c4b,5,0,21405137.150,0.036,-112484788.553841,0.005,-1594.573,50.0,18223.699,08109c64,5,0,21405133.231,0.184,-87650475.174004,0.006,-1242.524,41.0,18215.279,01303c6b,2,0,23227561.238,0.063,-122061658.343888,0.008,-3394.703,45.1,21683.180,18109c84,2,0,23227558.032,0.270,-95112953.084715,0.010,-2645.225,37.7,21674.279,11303c8b,13,0,20447033.066,0.037,-107449939.694934,0.005,-1235.929,49.8,11983.410,18109d44,13,0,20447029.887,0.143,-83727243.878051,0.006,-963.061,43.2,11976.780,11303d4b,29,0,23480903.722,0.059,-123392981.990479,0.010,-2542.892,45.8,12021.620,18109d64,29,0,23480901.950,0.342,-96150369.934123,0.012,-1981.475,35.7,12020.920,11303d6b,30,0,23925498.976,0.072,-125729388.964082,0.010,-2382.774,44.0,11260.360,18109d84,30,0,23925497.967,0.357,-97970952.364627,0.018,-1856.707,35.3,11257.280,11303d8b*a3548366
#BESTPOSA,COM1_1,0,84.5,FINESTEERING,2020,374055.000,00000800,b1f6,14392;SOL_COMPUTED,SINGLE,36.76912298158,126.93478352291,103.6184,23.3000,WGS84,1.4603,1.4046,3.4878,"",0.000,0.000,8,8,8,8,00,06,00,03*4b87ea62
#BESTXYZA,COM1_1,0,84.5,FINESTEERING,2020,374055.000,00000800,fac1,14392;SOL_COMPUTED,SINGLE,-3073916.3560,4088899.9252,3796975.7315,2.1489,2.8303,1.9082,SOL_COMPUTED,DOPPLER_VELOCITY,-0.0131,0.0200,0.0174,0.2568,0.3383,0.2281,"",0.000,0.000,0.000,8,8,8,8,0,06,00,03*20809aac
#SATXYZ2A,COM1_1,0,84.5,FINESTEERING,2020,374055.000,00000800,7513,14392;8,GPS,15,-3962429.7817,21912360.1391,13944275.7323,-103351.309,-1.342,2.837,0.0,0.0,GPS,21,8167174.6966,14140400.6497,21755005.0925,-99086.105,-2.408,4.914,0.0,0.0,GPS,24,-13475323.9143,21450945.1563,-7567292.6212,-16773.383,-1.560,6.142,0.0,0.0,GPS,5,-21141158.3448,5280126.0367,15212550.8005,-461.090,-1.329,3.244,0.0,0.0,GPS,2,-20844990.1567,14371015.5828,-7056474.1529,-4054.950,1.067,6.608,0.0,0.0,GPS,13,-12854647.1151,11193799.1984,20254692.3766,-26475.352,-2.127,2.642,0.0,0.0,GPS,29,4440655.4088,26182484.0425,339224.3537,110453.287,0.326,6.873,0.0,0.0,GPS,30,-13724361.6804,-8520198.6070,21125295.5651,5502.498,-1.237,7.848,0.0,0.0*5e146ebe
#RANGEA,COM1_1,0,84.5,FINESTEERING,2020,374056.000,00000800,5103,14392;16,15,0,20631960.422,0.033,-108421742.560738,0.006,1230.419,50.7,7812.450,08109c04,15,0,20631957.537,0.133,-84484478.040520,0.006,958.769,43.9,7801.780,01303c0b,21,0,23548251.742,0.064,-123746915.233155,0.009,2565.951,44.9,3893.420,08109c24,21,0,23548248.066,0.277,-96426173.863185,0.012,1999.445,37.5,3681.880,01303c2b,24,0,23227642.415,0.082,-122062096.326503,0.012,3706.309,42.9,1284.040,18109c44,24,0,23227644.270,0.228,-95113323.966227,0.014,2888.035,39.2,1283.320,11303c4b,5,0,21405440.603,0.036,-112486383.242892,0.005,-1594.758,50.1,18224.699,08109c64,5,0,21405436.697,0.178,-87651717.786158,0.007,-1242.669,41.3,18216.279,01303c6b,2,0,23228207.244,0.061,-122065053.058102,0.008,-3394.846,45.4,21684.180,18109c84,2,0,23228204.058,0.308,-95115598.308680,0.010,-2645.339,36.6,21675.279,11303c8b,13,0,20447268.300,0.037,-107451175.795867,0.005,-1236.234,49.8,11984.410,18109d44,13,0,20447265.111,0.146,-83728207.071417,0.006,-963.299,43.1,11977.780,11303d4b,29,0,23481387.656,0.059,-123395524.963876,0.011,-2542.950,45.7,12022.620,18109d64,29,0,23481385.880,0.370,-96152351.465332,0.014,-1981.522,35.0,12021.920,11303d6b,30,0,23925952.415,0.072,-125731771.842723,0.011,-2383.148,44.0,11261.360,18109d84,30,0,23925951.418,0.477,-97972809.142396,0.020,-1857.003,32.8,11258.280,11303d8b*9d81abd0
#BESTPOSA,COM1_1,0,84.5,FINESTEERING,2020,374056.000,00000800,b1f6,14392;SOL_COMPUTED,SINGLE,36.76912300127,126.93478364010,103.6193,23.3000,WGS84,1.4603,1.4046,3.4877,"",0.000,0.000,8,8,8,8,00,06,00,03*ba123138
#BESTXYZA,COM1_1,0,84.5,FINESTEERING,2020,374056.000,00000800,fac1,14392;SOL_COMPUTED,SINGLE,-3073916.3640,4088899.9184,3796975.7337,2.1491,2.8302,1.9081,SOL_COMPUTED,DOPPLER_VELOCITY,-0.0087,0.0248,0.0034,0.2569,0.3383,0.2281,"",0.000,0.000,0.000,8,8,8,8,0,06,00,03*a34ab376
#SATXYZ2A,COM1_1,0,84.5,FINESTEERING,2020,374056.000,00000800,7513,14392;8,GPS,15,-3963293.3634,21910709.9988,13946624.3505,-103351.310,-1.342,2.837,0.0,0.0,GPS,21,8165339.3250,14142218.6194,21754498.5905,-99086.101,-2.411,4.913,0.0,0.0,GPS,24,-13476242.9271,21451379.7721,-7564346.5369,-16773.383,-1.559,6.140,0.0,0.0,GPS,5,-21142969.8455,5279379.5905,15210330.2786,-461.090,-1.330,3.244,0.0,0.0,GPS,2,-20844544.1558,14370085.6083,-7059467.2345,-4054.954,1.072,6.610,0.0,0.0,GPS,13,-12855007.5964,11191227.8208,20255879.8392,-26475.352,-2.128,2.643,0.0,0.0,GPS,29,4440459.9486,26182561.8289,335996.5143,110453.285,0.326,6.875,0.0,0.0,GPS,30,-13722340.1116,-8521962.1474,21125880.8297,5502.497,-1.237,7.850,0.0,0.0*921d0f5c
#RANGEA,COM1_1,0,84.5,FINESTEERING,2020,374057.000,00000800,5103,14392;16,15,0,20631726.313,0.033,-108420512.320136,0.005,1230.025,50.7,7813.450,08109c04,15,0,20631723.444,0.123,-84483519.408794,0.006,958.461,44.6,7802.780,01303c0b,21,0,23547763.456,0.065,-123744349.303315,0.010,2565.774,44.8,3894.420,08109c24,21,0,23547759.800,0.243,-96424174.434070,0.012,1999.306,38.6,3682.880,01303c2b,24,0,23226937.141,0.081,-122058390.122153,0.011,3705.948,43.0,1285.040,18109c44,24,0,23226938.976,0.194,-95110436.015753,0.014,2887.753,40.6,1284.320,11303c4b,5,0,21405744.093,0.036,-112487978.108922,0.005,-1595.001,50.1,18225.699,08109c64,5,0,21405740.206,0.168,-87652960.536113,0.006,-1242.859,41.8,18217.279,01303c6b,2,0,23228853.272,0.062,-122068447.905507,0.010,-3394.893,45.3,21685.180,18109c84,2,0,23228850.089,0.282,-95118243.636933,0.011,-2645.375,37.3,21676.279,11303c8b,13,0,20447503.601,0.037,-107452412.230386,0.005,-1236.651,49.8,11985.410,18109d44,13,0,20447500.401,0.146,-83729170.524703,0.006,-963.625,43.1,11978.780,11303d4b,29,0,23481871.600,0.059,-123398068.095427,0.011,-2543.289,45.8,12023.620,18109d64,29,0,23481869.831,0.376,-96154333.118657,0.013,-1981.787,34.9,12022.920,11303d6b,30,0,23926405.929,0.074,-125734155.084885,0.012,-2383.591,43.8,11262.360,18109d84,30,0,23926404.932,0.425,-97974666.210089,0.021,-1857.346,33.8,11259.280,11303d8b*2642107e
#BESTPOSA,COM1_1,0,84.5,FINESTEERING,2020,374057.000,00000800,b1f6,14392;SOL_COMPUTED,SINGLE,36.76912261776,126.93478363012,103.5912,23.3000,WGS84,1.4601,1.4045,3.4877,"",0.000,0.000,8,8,8,8,00,06,00,03*758f8f96
#BESTXYZA,COM1_1,0,84.5,FINESTEERING,2020,374057.000,00000800,fac1,14392;SOL_COMPUTED,SINGLE,-3073916.3651,4088899.9213,3796975.6828,2.1492,2.8302,1.9079,SOL_COMPUTED,DOPPLER_VELOCITY,-0.0101,0.0153,0.0108,0.2569,0.3383,0.2280,"",0.000,0.000,0.000,8,8,8,8,0,06,00,03*d21a27fe
#SATXYZ2A,COM1_1,0,84.5,FINESTEERING,2020,374057.000,00000800,7513,14392;8,GPS,15,-3964157.1197,21909059.6195,13948972.6621,-103351.310,-1.342,2.837,0.0,0.0,GPS,21,8163504.1002,14144036.6520,21753991.6576,-99086.097,-2.412,4.912,0.0,0.0,GPS,24,-13477161.6575,21451814.1732,-7561400.2893,-16773.384,-1.417,6.139,0.0,0.0,GPS,5,-21144781.1185,5278633.3244,15208109.4335,-461.089,-1.329,3.245,0.0,0.0,GPS,2,-20844097.9437,14369155.3297,-7062460.1611,-4054.958,1.075,6.612,0.0,0.0,GPS,13,-12855368.2450,11188656.3148,20257066.8667,-26475.352,-2.127,2.643,0.0,0.0,GPS,29,4440264.4289,26182639.2258,332768.6678,110453.283,0.328,6.877,0.0,0.0,GPS,30,-13720318.5821,-8523725.8474,21126465.6465,5502.495,-1.233,7.852,0.0,0.0*ac5cf568
#RANGEA,COM1_1,0,84.5,FINESTEERING,2020,374058.000,00000800,5103,14392;16,15,0,20631492.381,0.033,-108419283.007378,0.005,1229.261,50.7,7814.450,08109c04,15,0,20631489.524,0.129,-84482561.505186,0.006,957.866,44.1,7803.780,01303c0b,21,0,23547275.325,0.065,-123741784.135945,0.009,2565.346,44.8,3895.420,08109c24,21,0,23547271.693,0.255,-96422175.601959,0.011,1998.972,38.2,3683.880,01303c2b,24,0,23226231.988,0.081,-122054684.558411,0.012,3705.642,42.9,1286.040,18109c44,24,0,23226233.826,0.212,-95107548.566295,0.013,2887.515,39.9,1285.320,11303c4b,5,0,21406047.719,0.036,-112489573.722070,0.005,-1595.640,50.0,18226.699,08109c64,5,0,21406043.845,0.183,-87654203.870749,0.007,-1243.357,41.1,18218.279,01303c6b,2,0,23229499.432,0.061,-122071843.485635,0.009,-3395.411,45.4,21686.180,18109c84,2,0,23229496.255,0.272,-95120889.541481,0.011,-2645.779,37.7,21677.279,11303c8b,13,0,20447739.072,0.037,-107453649.568032,0.005,-1237.302,49.8,11986.410,18109d44,13,0,20447735.871,0.142,-83730134.682960,0.005,-964.131,43.3,11979.780,11303d4b,29,0,23482355.694,0.059,-123400611.983725,0.009,-2543.858,45.8,12024.620,18109d64,29,0,23482353.925,0.306,-96156315.369303,0.013,-1982.229,36.7,12023.920,11303d6b,30,0,23926859.609,0.074,-125736539.215958,0.011,-2384.048,43.8,11263.360,18109d84,30,0,23926858.621,0.360,-97976523.989885,0.021,-1857.698,35.2,11260.280,11303d8b*5266e425
#BESTPOSA,COM1_1,0,84.5,FINESTEERING,2020,374058.000,00000800,b1f6,14392;SOL_COMPUTED,SINGLE,36.76912262226,126.93478370837,103.5824,23.3000,WGS84,1.4602,1.4045,3.4877,"",0.000,0.000,8,8,8,8,00,06,00,03*33db71ed
#BESTXYZA,COM1_1,0,84.5,FINESTEERING,2020,374058.000,00000800,fac1,14392;SOL_COMPUTED,SINGLE,-3073916.3663,4088899.9112,3796975.6779,2.1493,2.8301,1.9078,SOL_COMPUTED,DOPPLER_VELOCITY,0.0198,-0.0295,-0.0068,0.2569,0.3383,0.2280,"",0.000,0.000,0.000,8,8,8,8,0,06,00,03*696c8127
#SATXYZ2A,COM1_1,0,84.5,FINESTEERING,2020,374058.000,00000800,7513,14392;8,GPS,15,-3965021.0507,21907409.0011,13951320.6671,-103351.311,-1.341,2.837,0.0,0.0,GPS,21,8161669.0224,14145854.7473,21753484.2940,-99086.093,-2.411,4.912,0.0,0.0,GPS,24,-13478080.1055,21452248.3597,-7558453.8785,-16773.385,-1.417,6.137,0.0,0.0,GPS,5,-21146592.1638,5277887.2385,15205888.2655,-461.089,-1.328,3.245,0.0,0.0,GPS,2,-20843651.5205,14368224.7470,-7065452.9326,-4054.962,1.077,6.614,0.0,0.0,GPS,13,-12855729.0608,11186084.6806,20258253.4588,-26475.352,-2.126,2.643,0.0,0.0,GPS,29,4440068.8496,26182716.2334,329540.8142,110453.280,0.331,6.878,0.0,0.0,GPS,30,-13718297.0922,-8525489.7069,21127050.0155,5502.494,-1.231,7.854,0.0,0.0*1c8c4fb7
#RANGEA,COM1_1,0,84.5,FINESTEERING,2020,374059.000,00000800,5103,14392;16,15,0,20631258.512,0.033,-108418054.030900,0.005,1229.154,50.7,7815.450,08109c04,15,0,20631255.664,0.127,-84481603.861013,0.006,957.783,44.3,7804.780,01303c0b,21,0,23546787.224,0.066,-123739219.163792,0.010,2565.102,44.7,3896.420,08109c24,21,0,23546783.600,0.280,-96420176.917275,0.013,1998.780,37.4,3684.880,01303c2b,24,0,23225526.855,0.082,-122050979.077840,0.011,3705.684,42.9,1287.040,18109c44,24,0,23225528.682,0.197,-95104661.185160,0.014,2887.549,40.5,1286.320,11303c4b,5,0,21406351.384,0.036,-112491169.517476,0.005,-1595.607,50.0,18227.699,08109c64,5,0,21406347.529,0.174,-87655447.342927,0.007,-1243.332,41.6,18219.279,01303c6b,2,0,23230145.618,0.062,-122075239.204875,0.009,-3395.471,45.3,21687.180,18109c84,2,0,23230142.441,0.261,-95123535.554530,0.011,-2645.824,38.0,21678.279,11303c8b,13,0,20447974.612,0.037,-107454887.245457,0.004,-1237.513,49.8,11987.410,18109d44,13,0,20447971.401,0.142,-83731099.105492,0.005,-964.296,43.3,11980.780,11303d4b,29,0,23482839.820,0.058,-123403156.054681,0.008,-2543.862,45.9,12025.620,18109d64,29,0,23482838.072,0.311,-96158297.762027,0.012,-1982.232,36.6,12024.920,11303d6b,30,0,23927313.370,0.074,-125738923.738171,0.011,-2384.323,43.8,11264.360,18109d84,30,0,23927312.378,0.423,-97978382.066287,0.020,-1857.911,33.9,11261.280,11303d8b*d435c781
#BESTPOSA,COM1_1,0,84.5,FINESTEERING,2020,374059.000,00000800,b1f6,14392;SOL_COMPUTED,SINGLE,36.76912260519,126.93478370187,103.5831,23.3000,WGS84,1.4602,1.4045,3.4877,"",0.000,0.000,8,8,8,8,00,06,00,03*7708d1ce
#BESTXYZA,COM1_1,0,84.5,FINESTEERING,2020,374059.000,00000800,fac1,14392;SOL_COMPUTED,SINGLE,-3073916.3668,4088899.9129,3796975.6768,2.1494,2.8301,1.9077,SOL_COMPUTED,DOPPLER_VELOCITY,-0.0112,0.0085,0.0091,0.2569,0.3383,0.2280,"",0.000,0.000,0.000,8,8,8,8,0,06,00,03*4e497911
#SATXYZ2A,COM1_1,0,84.5,FINESTEERING,2020,374059.000,00000800,7513,14392;8,GPS,15,-3965885.1564,21905758.1438,13953668.3655,-103351.312,-1.342,2.836,0.0,0.0,GPS,21,8159834.0915,14147672.9054,21752976.4995,-99086.089,-2.410,4.911,0.0,0.0,GPS,24,-13478998.2712,21452682.3314,-7555507.3048,-16773.385,-1.418,6.135,0.0,0.0,GPS,5,-21148402.9812,5277141.3326,15203666.7745,-461.089,-1.328,3.245,0.0,0.0,GPS,2,-20843204.8863,14367293.8602,-7068445.5490,-4054.967,1.078,6.617,0.0,0.0,GPS,13,-12856090.0439,11183512.9182,20259439.6157,-26475.352,-2.126,2.643,0.0,0.0,GPS,29,4439873.2105,26182792.8515,326312.9536,110453.278,0.331,6.880,0.0,0.0,GPS,30,-13716275.6418,-8527253.7260,21127633.9369,5502.492,-1.237,7.856,0.0,0.0*9a1fec10
#RANGEA,COM1_1,0,84.5,FINESTEERING,2020,374060.000,00000800,5103,14392;16,15,0,20631024.708,0.033,-108416825.393927,0.006,1228.483,50.7,7816.450,08109c04,15,0,20631021.874,0.129,-84480646.480233,0.006,957.260,44.1,7805.780,01303c0b,21,0,23546299.160,0.066,-123736654.366957,0.009,2564.647,44.7,3897.420,08109c24,21,0,23546295.551,0.246,-96418178.372184,0.011,1998.425,38.6,3685.880,01303c2b,24,0,23224821.716,0.082,-122047273.633197,0.013,3705.162,42.9,1288.040,18109c44,24,0,23224823.568,0.201,-95101773.821565,0.015,2887.140,40.3,1287.320,11303c4b,5,0,21406655.077,0.036,-112492765.476033,0.006,-1596.095,50.0,18228.699,08109c64,5,0,21406651.247,0.171,-87656690.942366,0.007,-1243.713,41.7,18220.279,01303c6b,2,0,23230791.838,0.062,-122078635.052455,0.009,-3396.012,45.3,21688.180,18109c84,2,0,23230788.649,0.346,-95126181.668496,0.012,-2646.247,35.6,21679.279,11303c8b,13,0,20448210.215,0.037,-107456125.246352,0.005,-1238.214,49.8,11988.410,18109d44,13,0,20448206.996,0.142,-83732063.782377,0.005,-964.842,43.3,11981.780,11303d4b,29,0,23483323.965,0.058,-123405700.276677,0.010,-2544.344,45.9,12026.620,18109d64,29,0,23483322.252,0.297,-96160280.268645,0.012,-1982.608,36.9,12025.920,11303d6b,30,0,23927767.190,0.074,-125741308.581261,0.010,-2384.899,43.7,11265.360,18109d84,30,0,23927766.212,0.474,-97980240.385091,0.019,-1858.361,32.8,11262.280,11303d8b*00235ec2
#BESTPOSA,COM1_1,0,84.5,FINESTEERING,2020,374060.000,00000800,b1f6,14392;SOL_COMPUTED,SINGLE,36.76912257448,126.93478365949,103.5747,23.3000,WGS84,1.4602,1.4045,3.4876,"",0.000,0.000,8,8,8,8,00,06,00,03*7167a60d
#BESTXYZA,COM1_1,0,84.5,FINESTEERING,2020,374060.000,00000800,fac1,14392;SOL_COMPUTED,SINGLE,-3073916.3610,4088899.9115,3796975.6691,2.1496,2.8300,1.9076,SOL_COMPUTED,DOPPLER_VELOCITY,0.0078,-0.0114,0.0148,0.2569,0.3382,0.2280,"",0.000,0.000,0.000,8,8,8,8,0,06,00,03*0e315aa6
#SATXYZ2A,COM1_1,0,84.5,FINESTEERING,2020,374060.000,00000800,7513,14392;8,GPS,15,-3966749.4368,21904107.0476,13956015.7571,-103351.313,-1.342,2.836,0.0,0.0,GPS,21,8157999.3077,14149491.1263,21752468.2743,-99086.084,-2.409,4.910,0.0,0.0,GPS,24,-13479916.1545,21453116.0884,-7552560.5680,-16773.386,-1.421,6.133,0.0,0.0,GPS,5,-21150213.5708,5276395.6069,15201444.9605,-461.089,-1.326,3.245,0.0,0.0,GPS,2,-20842758.0412,14366362.6691,-7071438.0101,-4054.971,1.079,6.619,0.0,0.0,GPS,13,-12856451.1943,11180941.0277,20260625.3373,-26475.352,-2.125,2.643,0.0,0.0,GPS,29,4439677.5118,26182869.0803,323085.0860,110453.276,0.331,6.881,0.0,0.0,GPS,30,-13714254.2309,-8529017.9045,21128217.4104,5502.491,-1.240,7.858,0.0,0.0*0885ef2e
#RANGEA,COM1_1,0,83.5,FINESTEERING,2020,374061.000,00000800,5103,14392;16,15,0,20630790.992,0.033,-108415597.233353,0.006,1227.882,50.7,7817.450,08109c04,15,0,20630788.173,0.126,-84479689.470031,0.007,956.791,44.3,7806.780,01303c0b,21,0,23545811.155,0.065,-123734089.867188,0.009,2564.373,44.8,3898.420,08109c24,21,0,23545807.537,0.249,-96416180.057925,0.011,1998.212,38.4,3686.880,01303c2b,24,0,23224116.624,0.082,-122043568.364365,0.012,3705.188,42.8,1289.040,18109c44,24,0,23224118.490,0.216,-95098886.600090,0.015,2887.161,39.7,1288.320,11303c4b,5,0,21406958.828,0.036,-112494361.727380,0.005,-1596.405,50.0,18229.699,08109c64,5,0,21406955.006,0.169,-87657934.771669,0.006,-1243.954,41.8,18221.279,01303c6b,2,0,23231438.099,0.061,-122082031.169408,0.009,-3396.334,45.4,21689.180,18109c84,2,0,23231434.933,0.283,-95128827.983309,0.012,-2646.499,37.3,21680.279,11303c8b,13,0,20448445.906,0.036,-107457363.699542,0.005,-1238.790,49.9,11989.410,18109d44,13,0,20448442.676,0.139,-83733028.811158,0.005,-965.291,43.5,11982.780,11303d4b,29,0,23483808.189,0.057,-123408244.819323,0.008,-2544.887,46.0,12027.620,18109d64,29,0,23483806.449,0.302,-96162263.023505,0.011,-1983.033,36.8,12026.920,11303d6b,30,0,23928221.086,0.073,-125743693.883069,0.012,-2385.664,43.8,11266.360,18109d84,30,0,23928220.159,0.375,-97982099.057970,0.020,-1858.959,34.9,11263.280,11303d8b*a0d6ecdb
#BESTPOSA,COM1_1,0,83.5,FINESTEERING,2020,374061.000,00000800,b1f6,14392;SOL_COMPUTED,SINGLE,36.76912259194,126.93478376078,103.5617,23.3000,WGS84,1.4603,1.4044,3.4876,"",0.000,0.000,8,8,8,8,00,06,00,03*78b44cb1
#BESTXYZA,COM1_1,0,83.5,FINESTEERING,2020,374061.000,00000800,fac1,14392;SOL_COMPUTED,SINGLE,-3073916.3613,4088899.8968,3796975.6629,2.1497,2.8299,1.9075,SOL_COMPUTED,DOPPLER_VELOCITY,-0.0074,0.0020,0.0061,0.2569,0.3382,0.2280,"",0.000,0.000,0.000,8,8,8,8,0,06,00,03*73f5c4eb
#SATXYZ2A,COM1_1,0,83.5,FINESTEERING,2020,374061.000,00000800,7513,14392;8,GPS,15,-3967613.8919,21902455.7125,13958362.8419,-103351.313,-1.341,2.836,0.0,0.0,GPS,21,8156164.6708,14151309.4097,21751959.6183,-99086.080,-2.408,4.909,0.0,0.0,GPS,24,-13480833.7555,21453549.6305,-7549613.6682,-16773.386,-1.419,6.131,0.0,0.0,GPS,5,-21152023.9324,5275650.0611,15199222.8237,-461.089,-1.324,3.246,0.0,0.0,GPS,2,-20842310.9851,14365431.1739,-7074430.3160,-4054.975,1.079,6.621,0.0,0.0,GPS,13,-12856812.5119,11178369.0092,20261810.6236,-26475.352,-2.126,2.643,0.0,0.0,GPS,29,4439481.7533,26182944.9196,319857.2116,110453.274,0.332,6.883,0.0,0.0,GPS,30,-13712232.8597,-8530782.2425,21128800.4362,5502.489,-1.240,7.860,0.0,0.0*9b2f0b02
#RANGEA,COM1_1,0,83.5,FINESTEERING,2020,374062.000,00000800,5103,14392;16,15,0,20630557.384,0.033,-108414369.640580,0.006,1227.386,50.8,7818.450,08109c04,15,0,20630554.582,0.108,-84478732.903765,0.006,956.405,45.8,7807.780,01303c0b,21,0,23545323.215,0.065,-123731525.777272,0.009,2564.002,44.9,3899.420,08109c24,21,0,23545319.603,0.212,-96414182.068883,0.011,1997.923,39.9,3687.880,01303c2b,24,0,23223411.581,0.082,-122039863.386794,0.013,3705.050,42.9,1290.040,18109c44,24,0,23223413.461,0.190,-95095999.604284,0.015,2887.054,40.8,1289.320,11303c4b,5,0,21407262.653,0.036,-112495958.379081,0.005,-1596.651,50.0,18230.699,08109c64,5,0,21407258.849,0.141,-87659178.914973,0.007,-1244.145,43.4,18222.279,01303c6b,2,0,23232084.441,0.062,-122085427.659253,0.009,-3396.496,45.3,21690.180,18109c84,2,0,23232081.236,0.201,-95131474.594310,0.011,-2646.625,40.3,21681.279,11303c8b,13,0,20448681.693,0.037,-107458602.710074,0.005,-1239.091,49.9,11990.410,18109d44,13,0,20448678.455,0.113,-83733994.274480,0.006,-965.525,45.3,11983.780,11303d4b,29,0,23484292.485,0.057,-123410789.724610,0.009,-2545.137,46.0,12028.620,18109d64,29,0,23484290.741,0.233,-96164246.062135,0.012,-1983.228,39.0,12027.920,11303d6b,30,0,23928675.086,0.073,-125746079.769658,0.011,-2385.982,43.8,11267.360,18109d84,30,0,23928674.209,0.347,-97983958.181685,0.020,-1859.209,35.6,11264.280,11303d8b*a871f929
#BESTPOSA,COM1_1,0,83.5,FINESTEERING,2020,374062.000,00000800,b1f6,14392;SOL_COMPUTED,SINGLE,36.76912267590,126.93478380778,103.5467,23.3000,WGS84,1.4603,1.4044,3.4875,"",0.000,0.000,8,8,8,8,00,06,00,03*66215ded
#BESTXYZA,COM1_1,0,83.5,FINESTEERING,2020,374062.000,00000800,fac1,14392;SOL_COMPUTED,SINGLE,-3073916.3541,4088899.8802,3796975.6614,2.1498,2.8299,1.9074,SOL_COMPUTED,DOPPLER_VELOCITY,-0.0215,-0.0080,0.0022,0.2569,0.3382,0.2280,"",0.000,0.000,0.000,8,8,8,8,0,06,00,03*462a8aa9
#SATXYZ2A,COM1_1,0,83.5,FINESTEERING,2020,374062.000,00000800,7513,14392;8,GPS,15,-3968478.5218,21900804.1387,13960709.6200,-103351.314,-1.340,2.836,0.0,0.0,GPS,21,8154330.1810,14153127.7558,21751450.5315,-99086.076,-2.407,4.908,0.0,0.0,GPS,24,-13481751.0741,21453982.9578,-7546666.6056,-16773.387,-1.419,6.130,0.0,0.0,GPS,5,-21153834.0660,5274904.6954,15197000.3641,-461.089,-1.323,3.246,0.0,0.0,GPS,2,-20841863.7181,14364499.3745,-7077422.4665,-4054.980,1.083,6.623,0.0,0.0,GPS,13,-12857173.9968,11175796.8626,20262995.4746,-26475.353,-2.126,2.643,0.0,0.0,GPS,29,4439285.9350,26183020.3696,316629.3304,110453.271,0.335,6.884,0.0,0.0,GPS,30,-13710211.5282,-8532546.7398,21129383.0142,5502.488,-1.238,7.862,0.0,0.0*9f01ca36
#RANGEA,COM1_1,0,83.5,FINESTEERING,2020,374063.000,00000800,5103,14392;16,15,0,20630323.817,0.033,-108413142.256436,0.005,1227.225,50.7,7819.450,08109c04,15,0,20630321.026,0.099,-84477776.503852,0.007,956.280,46.5,7808.780,01303c0b,21,0,23544835.297,0.065,-123728961.758124,0.009,2563.937,44.8,3900.420,08109c24,21,0,23544831.691,0.208,-96412184.128758,0.011,1997.872,40.0,3688.880,01303c2b,24,0,23222706.536,0.082,-122036158.348698,0.013,3705.163,42.9,1291.040,18109c44,24,0,23222708.433,0.170,-95093112.572642,0.016,2887.144,41.8,1290.320,11303c4b,5,0,21407566.492,0.036,-112497555.078957,0.006,-1596.821,50.0,18231.699,08109c64,5,0,21407562.700,0.134,-87660423.097200,0.007,-1244.278,43.8,18223.279,01303c6b,2,0,23232730.777,0.061,-122088824.151124,0.009,-3396.541,45.4,21691.180,18109c84,2,0,23232727.587,0.224,-95134121.212405,0.012,-2646.658,39.4,21682.279,11303c8b,13,0,20448917.525,0.037,-107459841.936667,0.005,-1239.447,49.9,11991.410,18109d44,13,0,20448914.284,0.110,-83734959.908983,0.006,-965.802,45.6,11984.780,11303d4b,29,0,23484776.788,0.056,-123413334.704173,0.008,-2545.136,46.1,12029.620,18109d64,29,0,23484775.028,0.253,-96166229.159736,0.012,-1983.226,38.3,12028.920,11303d6b,30,0,23929129.146,0.073,-125748465.874429,0.012,-2386.309,43.9,11268.360,18109d84,30,0,23929128.289,0.329,-97985817.478090,0.020,-1859.463,36.0,11265.280,11303d8b*d510b27d
#BESTPOSA,COM1_1,0,83.5,FINESTEERING,2020,374063.000,00000800,b1f6,14392;SOL_COMPUTED,SINGLE,36.76912267804,126.93478385077,103.5418,23.3000,WGS84,1.4603,1.4044,3.4875,"",0.000,0.000,8,8,8,8,00,06,00,03*9bfac8f1
#BESTXYZA,COM1_1,0,83.5,FINESTEERING,2020,374063.000,00000800,fac1,14392;SOL_COMPUTED,SINGLE,-3073916.3547,4088899.8747,3796975.6586,2.1499,2.8298,1.9073,SOL_COMPUTED,DOPPLER_VELOCITY,-0.0051,0.0042,-0.0123,0.2570,0.3382,0.2280,"",0.000,0.000,0.000,8,8,8,8,0,06,00,03*9bfb82d3
#SATXYZ2A,COM1_1,0,83.5,FINESTEERING,2020,374063.000,00000800,7513,14392;8,GPS,15,-3969343.3264,21899152.3261,13963056.0911,-103351.315,-1.340,2.836,0.0,0.0,GPS,21,8152495.8384,14154946.1645,21750941.0139,-99086.072,-2.408,4.908,0.0,0.0,GPS,24,-13482668.1105,21454416.0701,-7543719.3801,-16773.388,-1.419,6.128,0.0,0.0,GPS,5,-21155643.9716,5274159.5097,15194777.5817,-461.088,-1.323,3.246,0.0,0.0,GPS,2,-20841416.2403,14363567.2708,-7080414.4617,-4054.984,1.085,6.625,0.0,0.0,GPS,13,-12857535.6491,11173224.5882,20264179.8901,-26475.353,-2.126,2.644,0.0,0.0,GPS,29,4439090.0567,26183095.4302,313401.4424,110453.269,0.336,6.886,0.0,0.0,GPS,30,-13708190.2365,-8534311.3965,21129965.1444,5502.486,-1.235,7.863,0.0,0.0*659e0bf1
#RANGEA,COM1_1,0,85.5,FINESTEERING,2020,374064.000,00000800,5103,14392;16,15,0,20630090.350,0.033,-108411915.380450,0.005,1226.477,50.7,7820.450,08109c04,15,0,20630087.576,0.103,-84476820.499750,0.006,955.697,46.1,7809.780,01303c0b,21,0,23544347.437,0.065,-123726398.065823,0.010,2563.426,44.8,3901.420,08109c24,21,0,23544343.859,0.204,-96410186.447045,0.012,1997.474,40.2,3689.880,01303c2b,24,0,23222001.542,0.082,-122032453.555980,0.012,3704.408,42.9,1292.040,18109c44,24,0,23222003.432,0.169,-95090225.727398,0.015,2886.555,41.8,1291.320,11303c4b,5,0,21407870.394,0.036,-112499152.104949,0.005,-1597.418,50.0,18232.699,08109c64,5,0,21407866.612,0.143,-87661667.533093,0.006,-1244.743,43.2,18224.279,01303c6b,2,0,23233377.177,0.061,-122092220.952725,0.010,-3397.176,45.5,21692.180,18109c84,2,0,23233373.985,0.218,-95136768.070437,0.012,-2647.153,39.6,21683.279,11303c8b,13,0,20449153.446,0.037,-107461081.644397,0.005,-1240.100,49.8,11992.410,18109d44,13,0,20449150.200,0.111,-83735925.918568,0.006,-966.310,45.5,11985.780,11303d4b,29,0,23485261.143,0.057,-123415879.986909,0.008,-2545.348,46.1,12030.620,18109d64,29,0,23485259.380,0.280,-96168212.500318,0.012,-1983.390,37.4,12029.920,11303d6b,30,0,23929583.295,0.074,-125750852.468125,0.011,-2386.859,43.7,11269.360,18109d84,30,0,23929582.441,0.301,-97987677.174248,0.020,-1859.889,36.8,11266.280,11303d8b*c7799914
#BESTPOSA,COM1_1,0,85.5,FINESTEERING,2020,374064.000,00000800,b1f6,14392;SOL_COMPUTED,SINGLE,36.76912279273,126.93478381986,103.5246,23.3000,WGS84,1.4603,1.4043,3.4875,"",0.000,0.000,8,8,8,8,00,06,00,03*d5798245
#BESTXYZA,COM1_1,0,85.5,FINESTEERING,2020,374064.000,00000800,fac1,14392;SOL_COMPUTED,SINGLE,-3073916.3396,4088899.8592,3796975.6585,2.1500,2.8297,1.9072,SOL_COMPUTED,DOPPLER_VELOCITY,0.0449,-0.0231,-0.0072,0.2570,0.3382,0.2279,"",0.000,0.000,0.000,8,8,8,8,0,06,00,03*bd63b0f9
#SATXYZ2A,COM1_1,0,85.5,FINESTEERING,2020,374064.000,00000800,7513,14392;8,GPS,15,-3970208.3059,21897500.2748,13965402.2553,-103351.316,-1.341,2.836,0.0,0.0,GPS,21,8150661.6428,14156764.6356,21750431.0656,-99086.068,-2.407,4.907,0.0,0.0,GPS,24,-13483584.8645,21454848.9674,-7540771.9919,-16773.388,-1.423,6.126,0.0,0.0,GPS,5,-21157453.6491,5273414.5040,15192554.4765,-461.088,-1.323,3.246,0.0,0.0,GPS,2,-20840968.5517,14362634.8629,-7083406.3013,-4054.988,1.084,6.627,0.0,0.0,GPS,13,-12857897.4686,11170652.1859,20265363.8703,-26475.353,-2.127,2.644,0.0,0.0,GPS,29,4438894.1186,26183170.1015,310173.5477,110453.267,0.338,6.888,0.0,0.0,GPS,30,-13706168.9845,-8536076.2126,21130546.8268,5502.485,-1.233,7.865,0.0,0.0*a050d38e
#RANGEA,COM1_1,0,85.0,FINESTEERING,2020,374065.000,00000800,5103,14392;16,15,0,20629856.976,0.033,-108410689.005414,0.005,1226.285,50.7,7821.450,08109c04,15,0,20629854.216,0.098,-84475864.882799,0.006,955.547,46.6,7810.780,01303c0b,21,0,23543859.637,0.066,-123723834.720544,0.010,2563.235,44.8,3902.420,08109c24,21,0,23543856.073,0.205,-96408189.037943,0.012,1997.327,40.1,3690.880,01303c2b,24,0,23221296.563,0.084,-122028748.954924,0.013,3704.810,42.7,1293.040,18109c44,24,0,23221298.458,0.174,-95087339.019257,0.016,2886.865,41.6,1292.320,11303c4b,5,0,21408174.352,0.037,-112500749.450246,0.006,-1597.467,49.9,18233.699,08109c64,5,0,21408170.590,0.139,-87662912.217875,0.007,-1244.780,43.5,18225.279,01303c6b,2,0,23234023.629,0.061,-122095618.038892,0.008,-3397.164,45.4,21693.180,18109c84,2,0,23234020.436,0.224,-95139415.147154,0.012,-2647.144,39.3,21684.279,11303c8b,13,0,20449389.467,0.037,-107462321.841773,0.005,-1240.352,49.8,11993.410,18109d44,13,0,20449386.211,0.110,-83736892.307521,0.006,-966.506,45.6,11986.780,11303d4b,29,0,23485745.569,0.056,-123418425.629048,0.008,-2545.595,46.1,12031.620,18109d64,29,0,23485743.799,0.236,-96170196.119039,0.012,-1983.582,38.9,12030.920,11303d6b,30,0,23930037.542,0.074,-125753239.590485,0.011,-2387.221,43.7,11270.360,18109d84,30,0,23930036.726,0.305,-97989537.266391,0.019,-1860.173,36.7,11267.280,11303d8b*a9f4fcce
#BESTPOSA,COM1_1,0,85.0,FINESTEERING,2020,374065.000,00000800,b1f6,14392;SOL_COMPUTED,SINGLE,36.76912279526,126.93478383187,103.5114,23.3000,WGS84,1.4604,1.4043,3.4875,"",0.000,0.000,8,8,8,8,00,06,00,03*9f71da18
#BESTXYZA,COM1_1,0,85.0,FINESTEERING,2020,374065.000,00000800,fac1,14392;SOL_COMPUTED,SINGLE,-3073916.3340,4088899.8500,3796975.6508,2.1502,2.8297,1.9071,SOL_COMPUTED,DOPPLER_VELOCITY,0.0030,0.0102,-0.0165,0.2570,0.3382,0.2279,"",0.000,0.000,0.000,8,8,8,8,0,06,00,03*d697feed
#SATXYZ2A,COM1_1,0,85.0,FINESTEERING,2020,374065.000,00000800,7513,14392;8,GPS,15,-3971073.4601,21895847.9849,13967748.1126,-103351.317,-1.343,2.836,0.0,0.0,GPS,21,8148827.5944,14158583.1693,21749920.6866,-99086.064,-2.407,4.906,0.0,0.0,GPS,24,-13484501.3363,21455281.6498,-7537824.4411,-16773.389,-1.426,6.124,0.0,0.0,GPS,5,-21159263.0985,5272669.6783,15190331.0487,-461.088,-1.323,3.246,0.0,0.0,GPS,2,-20840520.6524,14361702.1507,-7086397.9854,-4054.993,1.085,6.629,0.0,0.0,GPS,13,-12858259.4555,11168079.6558,20266547.4151,-26475.353,-2.129,2.644,0.0,0.0,GPS,29,4438698.1204,26183244.3834,306945.6465,110453.265,0.336,6.889,0.0,0.0,GPS,30,-13704147.7724,-8537841.1880,21131128.0614,5502.483,-1.237,7.867,0.0,0.0*0e07bfa8
#RANGEA,COM1_1,0,85.0,FINESTEERING,2020,374066.000,00000800,5103,14392;16,15,0,20629623.681,0.033,-108409463.028626,0.006,1225.437,50.6,7822.450,08109c04,15,0,20629620.932,0.103,-84474909.576021,0.007,954.887,46.1,7811.780,01303c0b,21,0,23543371.899,0.065,-123721271.623345,0.009,2562.642,44.8,3903.420,08109c24,21,0,23543368.364,0.203,-96406191.827603,0.011,1996.866,40.2,3691.880,01303c2b,24,0,23220591.624,0.083,-122025044.494817,0.012,3703.978,42.8,1294.040,18109c44,24,0,23220593.511,0.184,-95084452.429448,0.017,2886.219,41.1,1293.320,11303c4b,5,0,21408478.356,0.036,-112502347.042495,0.006,-1597.973,49.9,18234.699,08109c64,5,0,21408474.613,0.139,-87664157.093906,0.007,-1245.175,43.5,18226.279,01303c6b,2,0,23234670.128,0.061,-122099015.328711,0.009,-3397.796,45.4,21694.180,18109c84,2,0,23234666.950,0.238,-95142062.381105,0.012,-2647.636,38.8,21685.279,11303c8b,13,0,20449625.558,0.037,-107463562.428500,0.005,-1241.131,49.8,11994.410,18109d44,13,0,20449622.294,0.116,-83737858.998742,0.006,-967.114,45.1,11987.780,11303d4b,29,0,23486230.051,0.057,-123420971.485417,0.008,-2546.333,46.1,12032.620,18109d64,29,0,23486228.241,0.276,-96172179.904853,0.011,-1984.156,37.6,12031.920,11303d6b,30,0,23930491.866,0.074,-125755627.100943,0.012,-2387.813,43.7,11271.360,18109d84,30,0,23930491.090,0.316,-97991397.655771,0.019,-1860.636,36.4,11268.280,11303d8b*5f7b0b51
#BESTPOSA,COM1_1,0,85.0,FINESTEERING,2020,374066.000,00000800,b1f6,14392;SOL_COMPUTED,SINGLE,36.76912281947,126.93478392434,103.5132,23.3000,WGS84,1.4604,1.4043,3.4874,"",0.000,0.000,8,8,8,8,00,06,00,03*72f13b5a
#BESTXYZA,COM1_1,0,85.0,FINESTEERING,2020,374066.000,00000800,fac1,14392;SOL_COMPUTED,SINGLE,-3073916.3405,4088899.8449,3796975.6541,2.1503,2.8296,1.9070,SOL_COMPUTED,DOPPLER_VELOCITY,0.0077,-0.0309,0.0052,0.2570,0.3382,0.2279,"",0.000,0.000,0.000,8,8,8,8,0,06,00,03*ea43f37d
#SATXYZ2A,COM1_1,0,85.0,FINESTEERING,2020,374066.000,00000800,7513,14392;8,GPS,15,-3971938.7892,21894195.4564,13970093.6628,-103351.317,-1.343,2.835,0.0,0.0,GPS,21,8146993.6933,14160401.7653,21749409.8768,-99086.059,-2.408,4.905,0.0,0.0,GPS,24,-13485417.5258,21455714.1170,-7534876.7275,-16773.390,-1.424,6.123,0.0,0.0,GPS,5,-21161072.3196,5271925.0325,15188107.2982,-461.088,-1.323,3.247,0.0,0.0,GPS,2,-20840072.5424,14360769.1343,-7089389.5139,-4054.997,1.086,6.632,0.0,0.0,GPS,13,-12858621.6097,11165506.9980,20267730.5244,-26475.353,-2.129,2.644,0.0,0.0,GPS,29,4438502.0622,26183318.2760,303717.7387,110453.262,0.336,6.891,0.0,0.0,GPS,30,-13702126.6002,-8539606.3226,21131708.8481,5502.482,-1.236,7.869,0.0,0.0*c1747a52
#RANGEA,COM1_1,0,84.0,FINESTEERING,2020,374067.000,00000800,5103,14392;16,15,0,20629390.434,0.033,-108408237.326068,0.006,1225.721,50.7,7823.450,08109c04,15,0,20629387.697,0.102,-84473954.484359,0.007,955.108,46.2,7812.780,01303c0b,21,0,23542884.168,0.065,-123718708.626721,0.009,2563.165,44.8,3904.420,08109c24,21,0,23542880.688,0.248,-96404194.688596,0.012,1997.273,38.5,3692.880,01303c2b,24,0,23219886.668,0.082,-122021340.008736,0.012,3704.654,42.9,1295.040,18109c44,24,0,23219888.552,0.161,-95081565.825585,0.016,2886.747,42.2,1294.320,11303c4b,5,0,21408782.387,0.036,-112503944.760657,0.005,-1597.629,49.9,18235.699,08109c64,5,0,21408778.663,0.139,-87665402.067783,0.006,-1244.907,43.5,18227.279,01303c6b,2,0,23235316.627,0.061,-122102412.687581,0.011,-3397.275,45.5,21695.180,18109c84,2,0,23235313.460,0.219,-95144709.670618,0.013,-2647.230,39.6,21686.279,11303c8b,13,0,20449861.699,0.036,-107464803.273280,0.005,-1240.851,49.9,11995.410,18109d44,13,0,20449858.427,0.110,-83738825.890810,0.005,-966.896,45.6,11988.780,11303d4b,29,0,23486714.541,0.057,-123423517.434607,0.008,-2545.871,46.1,12033.620,18109d64,29,0,23486712.736,0.303,-96174163.766658,0.011,-1983.794,36.8,12032.920,11303d6b,30,0,23930946.236,0.075,-125758014.889813,0.013,-2387.874,43.6,11272.360,18109d84,30,0,23930945.531,0.370,-97993258.266240,0.020,-1860.682,35.0,11269.280,11303d8b*706c26b2
#BESTPOSA,COM1_1,0,84.0,FINESTEERING,2020,374067.000,00000800,b1f6,14392;SOL_COMPUTED,SINGLE,36.76912282496,126.93478396575,103.4943,23.3000,WGS84,1.4604,1.4043,3.4874,"",0.000,0.000,8,8,8,8,00,06,00,03*eeefd8a8
#BESTXYZA,COM1_1,0,84.0,FINESTEERING,2020,374067.000,00000800,fac1,14392;SOL_COMPUTED,SINGLE,-3073916.3341,4088899.8303,3796975.6432,2.1504,2.8296,1.9068,SOL_COMPUTED,DOPPLER_VELOCITY,0.0070,0.0090,0.0014,0.2570,0.3382,0.2279,"",0.000,0.000,0.000,8,8,8,8,0,06,00,03*af07d442
#SATXYZ2A,COM1_1,0,84.0,FINESTEERING,2020,374067.000,00000800,7513,14392;8,GPS,15,-3972804.2931,21892542.6894,13972438.9059,-103351.318,-1.342,2.835,0.0,0.0,GPS,21,8145159.9393,14162220.4237,21748898.6363,-99086.055,-2.411,4.904,0.0,0.0,GPS,24,-13486333.4331,21456146.3691,-7531928.8515,-16773.390,-1.424,6.121,0.0,0.0,GPS,5,-21162881.3125,5271180.5667,15185883.2251,-461.088,-1.323,3.247,0.0,0.0,GPS,2,-20839624.2218,14359835.8135,-7092380.8867,-4055.001,1.088,6.634,0.0,0.0,GPS,13,-12858983.9313,11162934.2126,20268913.1982,-26475.353,-2.129,2.644,0.0,0.0,GPS,29,4438305.9439,26183391.7792,300489.8244,110453.260,0.335,6.892,0.0,0.0,GPS,30,-13700105.4680,-8541371.6165,21132289.1870,5502.480,-1.233,7.871,0.0,0.0*e5e952a2
#RANGEA,COM1_1,0,84.0,FINESTEERING,2020,374068.000,00000800,5103,14392;16,15,0,20629157.244,0.033,-108407011.894872,0.006,1225.301,50.7,7824.450,08109c04,15,0,20629154.518,0.103,-84472999.605160,0.007,954.781,46.1,7813.780,01303c0b,21,0,23542396.462,0.065,-123716145.750277,0.009,2562.712,44.9,3905.420,08109c24,21,0,23542392.992,0.219,-96402197.635822,0.012,1996.918,39.6,3693.880,01303c2b,24,0,23219181.747,0.079,-122017635.551171,0.012,3704.305,43.1,1296.040,18109c44,24,0,23219183.580,0.188,-95078679.235894,0.016,2886.474,40.9,1295.320,11303c4b,5,0,21409086.432,0.036,-112505542.573474,0.005,-1597.963,49.9,18236.699,08109c64,5,0,21409082.728,0.141,-87666647.114280,0.006,-1245.167,43.4,18228.279,01303c6b,2,0,23235963.142,0.061,-122105810.113290,0.010,-3397.610,45.4,21696.180,18109c84,2,0,23235959.984,0.244,-95147357.007417,0.013,-2647.492,38.6,21687.279,11303c8b,13,0,20450097.891,0.036,-107466044.377745,0.004,-1241.310,49.9,11996.410,18109d44,13,0,20450094.610,0.111,-83739792.985604,0.005,-967.253,45.4,11989.780,11303d4b,29,0,23487199.049,0.057,-123426063.489085,0.008,-2546.175,46.1,12034.620,18109d64,29,0,23487197.263,0.274,-96176147.698841,0.012,-1984.033,37.6,12033.920,11303d6b,30,0,23931400.654,0.074,-125760402.930096,0.014,-2388.223,43.7,11273.360,18109d84,30,0,23931399.990,0.337,-97995119.077038,0.020,-1860.954,35.8,11270.280,11303d8b*cc4e0bfe
#BESTPOSA,COM1_1,0,84.0,FINESTEERING,2020,374068.000,00000800,b1f6,14392;SOL_COMPUTED,SINGLE,36.76912296232,126.93478403011,103.4747,23.3000,WGS84,1.4604,1.4042,3.4873,"",0.000,0.000,8,8,8,8,00,06,00,03*b957eaa3
#BESTXYZA,COM1_1,0,84.0,FINESTEERING,2020,374068.000,00000800,fac1,14392;SOL_COMPUTED,SINGLE,-3073916.3238,4088899.8069,3796975.6437,2.1505,2.8295,1.9067,SOL_COMPUTED,DOPPLER_VELOCITY,0.0003,0.0102,0.0146,0.2570,0.3382,0.2279,"",0.000,0.000,0.000,8,8,8,8,0,06,00,03*615bfa8e
#SATXYZ2A,COM1_1,0,84.0,FINESTEERING,2020,374068.000,00000800,7513,14392;8,GPS,15,-3973669.9719,21890889.6839,13974783.8419,-103351.319,-1.343,2.835,0.0,0.0,GPS,21,8143326.3327,14164039.1445,21748386.9651,-99086.051,-2.412,4.903,0.0,0.0,GPS,24,-13487249.0581,21456578.4060,-7528980.8129,-16773.391,-1.428,6.119,0.0,0.0,GPS,5,-21164690.0771,5270436.2807,15183658.8295,-461.088,-1.322,3.247,0.0,0.0,GPS,2,-20839175.6905,14358902.1885,-7095372.1037,-4055.006,1.089,6.636,0.0,0.0,GPS,13,-12859346.4202,11160361.2995,20270095.4365,-26475.353,-2.129,2.644,0.0,0.0,GPS,29,4438109.7655,26183464.8932,297261.9038,110453.258,0.333,6.894,0.0,0.0,GPS,30,-13698084.3758,-8543137.0695,21132869.0780,5502.479,-1.232,7.873,0.0,0.0*f193e8b3
#RANGEA,COM1_1,0,84.5,FINESTEERING,2020,374069.000,00000800,5103,14392;16,15,0,20628924.170,0.033,-108405787.081803,0.005,1224.381,50.6,7825.450,08109c04,15,0,20628921.455,0.104,-84472045.207122,0.006,954.065,46.0,7814.780,01303c0b,21,0,23541908.831,0.065,-123713583.329257,0.008,2562.047,44.8,3906.420,08109c24,21,0,23541905.411,0.195,-96400200.946119,0.011,1996.401,40.6,3694.880,01303c2b,24,0,23218476.883,0.081,-122013931.416821,0.012,3703.722,43.0,1297.040,18109c44,24,0,23218478.692,0.162,-95075792.900284,0.015,2886.021,42.1,1296.320,11303c4b,5,0,21409390.561,0.036,-112507140.839701,0.005,-1598.671,49.9,18237.699,08109c64,5,0,21409386.874,0.138,-87667892.516801,0.006,-1245.718,43.6,18229.279,01303c6b,2,0,23236609.739,0.062,-122109207.955554,0.010,-3398.028,45.4,21697.180,18109c84,2,0,23236606.591,0.209,-95150004.682041,0.013,-2647.816,40.0,21688.279,11303c8b,13,0,20450334.194,0.036,-107467286.092593,0.005,-1242.119,49.9,11997.410,18109d44,13,0,20450330.902,0.115,-83740760.555746,0.005,-967.885,45.1,11990.780,11303d4b,29,0,23487683.642,0.057,-123428610.000966,0.008,-2546.908,46.0,12035.620,18109d64,29,0,23487681.862,0.232,-96178131.993012,0.012,-1984.604,39.0,12034.920,11303d6b,30,0,23931855.204,0.074,-125762791.629292,0.011,-2389.309,43.7,11274.360,18109d84,30,0,23931854.605,0.312,-97996980.415064,0.019,-1861.797,36.5,11271.280,11303d8b*ab000aff
#BESTPOSA,COM1_1,0,84.5,FINESTEERING,2020,374069.000,00000800,b1f6,14392;SOL_COMPUTED,SINGLE,36.76912308224,126.93478400635,103.4600,23.3000,WGS84,1.4605,1.4042,3.4873,"",0.000,0.000,8,8,8,8,00,06,00,03*58702545
#BESTXYZA,COM1_1,0,84.5,FINESTEERING,2020,374069.000,00000800,fac1,14392;SOL_COMPUTED,SINGLE,-3073916.3102,4088899.7924,3796975.6456,2.1506,2.8294,1.9066,SOL_COMPUTED,DOPPLER_VELOCITY,-0.0157,0.0238,0.0048,0.2571,0.3382,0.2279,"",0.000,0.000,0.000,8,8,8,8,0,06,00,03*0de6dc04
#SATXYZ2A,COM1_1,0,84.5,FINESTEERING,2020,374069.000,00000800,7513,14392;8,GPS,15,-3974535.8256,21889236.4400,13977128.4707,-103351.320,-1.344,2.835,0.0,0.0,GPS,21,8141492.8734,14165857.9275,21747874.8632,-99086.047,-2.409,4.903,0.0,0.0,GPS,24,-13488164.4010,21457010.2278,-7526032.6119,-16773.391,-1.428,6.117,0.0,0.0,GPS,5,-21166498.6133,5269692.1746,15181434.1114,-461.087,-1.321,3.247,0.0,0.0,GPS,2,-20838726.9488,14357968.2591,-7098363.1649,-4055.010,1.092,6.638,0.0,0.0,GPS,13,-12859709.0766,11157788.2590,20271277.2393,-26475.353,-2.129,2.644,0.0,0.0,GPS,29,4437913.5268,26183537.6177,294033.9768,110453.256,0.336,6.896,0.0,0.0,GPS,30,-13696063.3237,-8544902.6818,21133448.5211,5502.477,-1.232,7.875,0.0,0.0*dc991e9c
