#GPSEPHEMA,COM1_1,9,71.5,SATTIME,2020,376020.000,00000000,1214,12778;2,376020.0,0,62,62,2020,2020,381600.0,2.655915997e+07,5.167000941e-09,1.5254487571e-01,1.8175241887e-02,-1.827621599e+00,2.982094884e-06,6.863847375e-06,2.46562500e+02,5.49062500e+01,-2.067536116e-07,8.754432201e-08,9.5141348198e-01,3.375140588e-10,1.340078618e+00,-8.76679374e-09,62,381600.0,-2.048909664e-08,-1.36630e-05,-1.09139e-11,0.00000,TRUE,1.458689314e-04,4.00000000e+00*e05f4af3
#GPSEPHEMA,COM1_1,8,67.0,SATTIME,2000,357810.000,00000000,1214,12778;4,357810.0,63,9,9,2000,2000,360000.0,2.656060905e+07,5.260576267e-09,1.417854111e+00,9.8525658250e-03,9.2140883322e-01,-6.947666407e-07,8.555129170e-06,2.25500000e+02,-1.22812500e+01,-1.415610313e-07,1.303851604e-08,9.7900880415e-01,-2.803688213e-10,1.838585807e+00,-7.93568770e-09,9,360000.0,-1.955777407e-08,5.96531e-05,3.18323e-12,0.00000,TRUE,1.458570882e-04,4.00000000e+00*813129cd
#GPSEPHEMA,COM1_1,7,67.0,SATTIME,2020,376020.000,00000000,1214,12778;5,376020.0,0,72,72,2020,2020,381600.0,2.656149727e+07,5.091283501e-09,2.757835477e+00,5.6454004953e-03,6.9127086305e-01,-3.088265657e-06,5.664303899e-06,2.64718750e+02,-5.73125000e+01,1.862645149e-08,-4.842877388e-08,9.4851444649e-01,-4.757341019e-10,2.423494629e+00,-8.40142138e-09,72,381600.0,-1.117587090e-08,-1.53342e-06,3.41061e-13,0.00000,TRUE,1.458496030e-04,4.00000000e+00*ac5abd8b
#GPSEPHEMA,COM1_1,6,67.0,SATTIME,2020,376020.000,00000000,1214,12778;13,376020.0,0,106,106,2020,2020,381600.0,2.656041713e+07,3.944092859e-09,8.3457881110e-01,3.4268902382e-03,1.457767654e+00,1.750886440e-06,1.290813088e-05,1.33531250e+02,3.38750000e+01,-2.048909664e-08,-5.774199963e-08,9.6868601384e-01,3.357282701e-11,-2.669875238e+00,-7.83354058e-09,106,381600.0,-1.117587090e-08,-8.83196e-05,7.95808e-13,0.00000,TRUE,1.458573525e-04,4.00000000e+00*70cf4c99
#GPSEPHEMA,COM1_1,5,67.0,SATTIME,2020,376020.000,00000000,1214,12778;15,376020.0,0,52,52,2020,2020,381600.0,2.655936395e+07,4.888417908e-09,1.117089404e+00,1.0766466963e-02,7.0759225093e-01,3.557652235e-07,1.274049282e-05,1.19562500e+02,2.53125000e+00,-1.825392246e-07,1.862645149e-08,9.2865216342e-01,-2.875119760e-10,-2.877172192e+00,-8.28534512e-09,52,381600.0,-1.071020961e-08,-3.44745e-04,1.02318e-12,0.00000,TRUE,1.458669724e-04,4.00000000e+00*a3f46ede
#GPSEPHEMA,COM1_1,4,67.0,SATTIME,2020,376050.000,00000000,1214,12778;21,376050.0,0,53,53,2020,2020,381600.0,2.655980430e+07,4.939848622e-09,-1.918741495e+00,2.4352147710e-02,-1.524276042e+00,3.505498171e-06,5.891546607e-06,2.54750000e+02,6.20625000e+01,2.980232239e-07,4.116445780e-07,9.4503455059e-01,3.428714248e-10,1.346137299e+00,-8.13069582e-09,53,381600.0,-1.024454832e-08,-3.30487e-04,6.02540e-12,0.00000,TRUE,1.458633963e-04,4.00000000e+00*dbb2402e
#GPSEPHEMA,COM1_1,3,67.0,SATTIME,2020,376020.000,00000000,1214,12778;24,376020.0,0,166,166,2020,2020,381600.0,2.655986059e+07,5.261647740e-09,2.1405922335e-01,7.2913578479e-03,5.3564054975e-01,4.308298230e-06,5.222856998e-06,2.69500000e+02,8.15312500e+01,4.470348358e-08,7.450580597e-08,9.4032856841e-01,4.253748614e-10,-1.788000359e+00,-8.69000483e-09,166,381600.0,2.793967724e-09,-5.59646e-05,-5.68434e-13,0.00000,TRUE,1.458632545e-04,4.00000000e+00*4d3a8066
#GPSEPHEMA,COM1_1,2,67.0,SATTIME,2020,376020.000,00000000,1214,12778;29,376020.0,0,45,45,2020,2020,381600.0,2.655990209e+07,3.851946163e-09,2.597050148e+00,7.7061564662e-04,1.628213562e+00,-1.035630703e-06,1.202896237e-05,1.57656250e+02,-2.10625000e+01,1.862645149e-08,-9.126961231e-08,9.8492011671e-01,6.321691895e-11,4.1339754972e-01,-7.64103257e-09,45,381600.0,-1.024454832e-08,3.68367e-04,-7.50333e-12,0.00000,TRUE,1.458615029e-04,4.00000000e+00*4629fe62
#GPSEPHEMA,COM1_1,1,67.0,SATTIME,2020,376020.000,00000000,1214,12778;30,376020.0,0,63,63,2020,2020,381584.0,2.656044045e+07,5.202002399e-09,-8.2525208075e-01,3.6281789653e-03,-2.973688750e+00,4.420056939e-06,4.116445780e-06,2.86656250e+02,8.59062500e+01,1.005828381e-07,-4.842877388e-08,9.4273520909e-01,4.768055752e-10,-1.694333604e+00,-8.66643242e-09,63,381584.0,3.725290298e-09,1.83098e-05,-5.34328e-12,0.00000,TRUE,1.458584184e-04,4.00000000e+00*a2d44680
#GPSEPHEMA,COM1_1,0,67.0,SATTIME,2020,376050.000,00000000,1214,12778;20,376050.0,0,39,39,2020,2020,381600.0,2.656028875e+07,5.501300580e-09,-2.9190818365e-01,4.3110455154e-03,2.113545753e+00,-2.590939403e-06,5.003064871e-06,2.69968750e+02,-5.09062500e+01,-9.685754776e-08,-1.154839993e-07,9.2902864392e-01,-3.950164540e-10,2.333401875e+00,-8.69321925e-09,39,381600.0,-8.381903172e-09,5.16436e-04,5.68434e-13,0.00000,TRUE,1.458599672e-04,4.00000000e+00*0b00bfeb
#RANGEA,COM1_1,0,71.0,FINESTEERING,2020,376360.000,00000000,5103,12778;9,29,0,24685505.800,0.152,-129723070.060182,0.085,-2842.854,37.5,527.310,08009c04,20,0,23670468.561,0.076,-124389151.448963,0.037,3108.854,43.4,603.780,18009c24,15,0,20308889.125,0.031,-106723921.833467,0.036,263.541,51.4,610.050,08009c64,5,0,22240156.902,0.038,-116872797.087444,0.036,-2208.042,49.7,624.240,18009c84,21,0,22593398.132,0.045,-118729089.382905,0.036,1727.385,48.0,604.900,08009ca4,2,0,24801093.793,0.075,-130330486.952842,0.037,-3695.853,43.6,526.510,18009cc4,24,0,21723630.357,0.050,-114158300.135038,0.038,3065.359,47.1,528.340,08009ce4,30,0,25160266.567,0.106,-132218032.683267,0.062,-3165.078,40.7,528.210,08009d44,13,0,21177459.873,0.037,-111288291.515949,0.036,-2028.486,49.8,523.780,18009d64*a97ed199
#SATXYZ2A,COM1_1,0,71.0,FINESTEERING,2020,376360.000,00000000,7513,12778;9,GPS,29,3726581.8457,25359440.3593,-6980555.2456,110448.120,10.336,15.237,0.0,0.0,GPS,20,12892226.2632,14042175.8066,18414035.8305,154827.838,8.171,7.860,0.0,0.0,GPS,15,-6445465.9789,17589238.5781,18447458.0316,-103352.892,3.551,2.628,0.0,0.0,GPS,5,-24611156.2269,3983092.5959,9341294.4100,-460.420,4.891,4.030,0.0,0.0,GPS,21,4387608.4815,18393023.6920,19472162.1909,-99076.604,4.974,3.723,0.0,0.0,GPS,2,-19361868.3140,11399825.6421,-13411843.0435,-4065.494,9.669,24.711,0.0,0.0,GPS,24,-14888800.6780,21790292.5868,-475745.6645,-16775.067,4.857,3.716,0.0,0.0,GPS,30,-9273603.6856,-12927857.5260,21270038.9718,5498.882,8.116,21.945,0.0,0.0,GPS,13,-14140981.1942,5063464.4165,21795138.5879,-26475.630,4.013,3.125,0.0,0.0*41cf6da2
#BESTPOSA,COM1_1,0,71.0,FINESTEERING,2020,376360.000,00000000,7145,12778;SOL_COMPUTED,SINGLE,36.76913567986,126.93477666364,98.6703,23.3000,WGS84,0.6465,0.6329,1.1800,"",0.000,0.000,9,7,7,7,0,12,00,01*483379db
#BESTXYZA,COM1_1,0,71.0,FINESTEERING,2020,376360.000,00000000,bde7,12778;SOL_COMPUTED,SINGLE,-3073912.9778,4088896.4506,3796973.8984,0.8097,0.9429,0.8163,SOL_COMPUTED,SINGLE,6.8253e-10,4.1384e-10,0.0000,0.0011,0.0011,0.0011,"",0.150,0.000,0.000,9,7,7,7,0,12,00,01*580089f9
#RANGEA,COM1_1,0,69.0,FINESTEERING,2020,376361.000,00000000,5103,12778;9,29,0,24686046.490,0.155,-129725911.432214,0.098,-2840.666,37.3,528.310,08009c04,20,0,23669876.807,0.076,-124386041.834381,0.038,3109.483,43.5,604.780,18009c24,15,0,20308838.890,0.031,-106723657.852931,0.036,264.072,51.4,611.050,08009c64,5,0,22240577.016,0.038,-116875004.788724,0.036,-2207.487,49.7,625.240,18009c84,21,0,22593069.354,0.045,-118727361.698171,0.037,1727.882,48.1,605.900,08009ca4,2,0,24801797.056,0.074,-130334182.573879,0.039,-3694.985,43.8,527.510,18009cc4,24,0,21723046.973,0.050,-114155234.444839,0.037,3066.087,47.1,529.340,08009ce4,30,0,25160868.813,0.104,-132221197.459422,0.049,-3164.386,40.8,529.210,08009d44,13,0,21177845.824,0.037,-111290319.647844,0.036,-2027.455,49.8,524.780,18009d64*d86d12cd
#SATXYZ2A,COM1_1,0,69.0,FINESTEERING,2020,376361.000,00000000,7513,12778;9,GPS,29,3726114.1980,25358668.6217,-6983618.6368,110448.118,10.337,15.245,0.0,0.0,GPS,20,12889851.8200,14042311.6617,18415573.3308,154827.838,8.170,7.858,0.0,0.0,GPS,15,-6446763.6645,17587189.9923,18448978.6026,-103352.892,3.551,2.628,0.0,0.0,GPS,5,-24612315.9984,3982685.2220,9338468.7172,-460.419,4.892,4.030,0.0,0.0,GPS,21,4386185.7978,18394847.7592,19470703.9132,-99076.600,4.974,3.722,0.0,0.0,GPS,2,-19361075.1649,11398175.4748,-13414308.9066,-4065.499,9.670,24.738,0.0,0.0,GPS,24,-14889132.7914,21790116.0861,-472597.3498,-16775.068,4.857,3.715,0.0,0.0,GPS,30,-9271804.9777,-12929878.6461,21269577.0418,5498.880,8.116,21.963,0.0,0.0,GPS,13,-14141735.4941,5060776.9355,21795274.4916,-26475.630,4.013,3.125,0.0,0.0*7a1d2de4
#BESTPOSA,COM1_1,0,69.0,FINESTEERING,2020,376361.000,00000000,7145,12778;SOL_COMPUTED,SINGLE,36.76913569419,126.93477665341,98.6745,23.3000,WGS84,0.6449,0.6315,1.1774,"",0.000,0.000,9,7,7,7,0,12,00,01*7699fde9
#BESTXYZA,COM1_1,0,69.0,FINESTEERING,2020,376361.000,00000000,bde7,12778;SOL_COMPUTED,SINGLE,-3073912.9786,4088896.4531,3796973.9022,0.8079,0.9407,0.8144,SOL_COMPUTED,SINGLE,0.0000,0.0000,0.0000,0.0011,0.0011,0.0011,"",0.150,0.000,0.000,9,7,7,7,0,12,00,01*cde9064a
#RANGEA,COM1_1,0,69.0,FINESTEERING,2020,376362.000,00000000,5103,12778;9,29,0,24686587.490,0.152,-129728754.348709,0.101,-2845.053,37.5,529.310,08009c04,20,0,23669285.354,0.076,-124382933.737909,0.085,3105.371,43.4,605.780,18009c24,15,0,20308789.018,0.031,-106723395.784902,0.037,259.360,51.4,612.050,08009c64,5,0,22240997.463,0.037,-116877214.267650,0.038,-2212.193,49.7,626.240,18009c84,21,0,22592740.951,0.045,-118725635.978332,0.038,1723.003,48.0,606.900,08009ca4,2,0,24802500.593,0.074,-130337879.724115,0.090,-3699.476,43.7,528.510,18009cc4,24,0,21722463.955,0.050,-114152170.660583,0.038,3061.161,47.1,530.340,08009ce4,30,0,25161471.376,0.109,-132224363.966028,0.043,-3168.678,40.4,530.210,08009d44,13,0,21178232.105,0.037,-111292349.569003,0.037,-2032.405,49.7,525.780,18009d64*9256eb69
#SATXYZ2A,COM1_1,0,69.0,FINESTEERING,2020,376362.000,00000000,7513,12778;9,GPS,29,3725646.3783,25357896.5479,-6986681.8796,110448.116,10.338,15.253,0.0,0.0,GPS,20,12887477.1892,14042447.6373,18417110.4369,154827.838,8.168,7.855,0.0,0.0,GPS,15,-6448061.5417,17585141.3036,18450498.7690,-103352.893,3.551,2.628,0.0,0.0,GPS,5,-24613475.4403,3982277.9543,9335642.8271,-460.419,4.892,4.030,0.0,0.0,GPS,21,4384763.3159,18396671.7651,19469245.2474,-99076.596,4.973,3.722,0.0,0.0,GPS,2,-19360281.9287,11396524.9989,-13416774.4713,-4065.503,9.671,24.765,0.0,0.0,GPS,24,-14889464.6869,21789939.2774,-469449.0248,-16775.069,4.856,3.714,0.0,0.0,GPS,30,-9270006.4167,-12931899.8223,21269114.6594,5498.879,8.116,21.980,0.0,0.0,GPS,13,-14142489.9573,5058089.4827,21795409.9268,-26475.630,4.013,3.125,0.0,0.0*45513aa3
#BESTPOSA,COM1_1,0,69.0,FINESTEERING,2020,376362.000,00000000,7145,12778;SOL_COMPUTED,SINGLE,36.76913569419,126.93477665341,98.6745,23.3000,WGS84,0.6449,0.6314,1.1774,"",0.000,0.000,9,7,7,7,0,12,00,01*c9ca9117
#BESTXYZA,COM1_1,0,69.0,FINESTEERING,2020,376362.000,00000000,bde7,12778;SOL_COMPUTED,SINGLE,-3073912.9786,4088896.4531,3796973.9022,0.8079,0.9407,0.8144,SOL_COMPUTED,SINGLE,0.0000,0.0000,0.0000,0.0011,0.0011,0.0011,"",0.150,0.000,0.000,9,7,7,7,0,12,00,01*7595619b
#RANGEA,COM1_1,0,71.5,FINESTEERING,2020,376363.000,00000000,5103,12778;9,29,0,24687128.817,0.147,-129731598.921377,0.096,-2842.069,37.8,530.310,08009c04,20,0,23668694.230,0.075,-124379827.330499,0.059,3108.723,43.7,606.780,18009c24,15,0,20308739.536,0.030,-106723135.763849,0.036,262.425,51.5,613.050,08009c64,5,0,22241418.281,0.037,-116879425.664880,0.077,-2208.974,49.8,627.240,18009c84,21,0,22592412.943,0.044,-118723912.355586,0.037,1725.954,48.2,607.900,08009ca4,2,0,24803204.464,0.073,-130341578.572370,0.062,-3696.570,43.8,529.510,18009cc4,24,0,21721881.319,0.050,-114149108.930458,0.037,3064.151,47.2,531.340,08009ce4,30,0,25162074.300,0.106,-132227532.393073,0.083,-3166.098,40.6,531.210,08009d44,13,0,21178618.757,0.037,-111294381.416992,0.036,-2029.361,49.8,526.780,18009d64*748994b0
#SATXYZ2A,COM1_1,0,71.5,FINESTEERING,2020,376363.000,00000000,7513,12778;9,GPS,29,3725178.3866,25357124.1381,-6989744.9737,110448.114,10.339,15.261,0.0,0.0,GPS,20,12885102.3710,14042583.7332,18418647.1487,154827.838,8.167,7.853,0.0,0.0,GPS,15,-6449359.6106,17583092.5121,18452018.5306,-103352.894,3.551,2.628,0.0,0.0,GPS,5,-24614634.5526,3981870.7928,9332816.7398,-460.419,4.892,4.031,0.0,0.0,GPS,21,4383341.0360,18398495.7097,19467786.1935,-99076.592,4.972,3.722,0.0,0.0,GPS,2,-19359488.6055,11394874.2143,-13419239.7374,-4065.508,9.671,24.792,0.0,0.0,GPS,24,-14889796.3647,21789762.1606,-466300.6896,-16775.070,4.855,3.714,0.0,0.0,GPS,30,-9268208.0026,-12933921.0546,21268651.8246,5498.877,8.116,21.998,0.0,0.0,GPS,13,-14143244.5837,5055402.0582,21795544.8936,-26475.630,4.013,3.126,0.0,0.0*aceab923
#BESTPOSA,COM1_1,0,71.5,FINESTEERING,2020,376363.000,00000000,7145,12778;SOL_COMPUTED,SINGLE,36.76913570878,126.93477664347,98.6789,23.3000,WGS84,0.6434,0.6300,1.1748,"",0.000,0.000,9,9,9,9,0,12,00,01*c0343f1a
#BESTXYZA,COM1_1,0,71.5,FINESTEERING,2020,376363.000,00000000,bde7,12778;SOL_COMPUTED,SINGLE,-3073912.9794,4088896.4557,3796973.9061,0.8062,0.9386,0.8125,SOL_COMPUTED,SINGLE,0.0000,0.0000,0.0000,0.0011,0.0011,0.0011,"",0.150,0.000,0.000,9,9,9,9,0,12,00,01*d0bb393c
#RANGEA,COM1_1,0,70.0,FINESTEERING,2020,376364.000,00000000,5103,12778;9,29,0,24687669.608,0.157,-129734440.834567,0.064,-2842.792,37.2,531.310,08009c04,20,0,23668102.587,0.076,-124376718.262435,0.042,3107.657,43.6,607.780,18009c24,15,0,20308689.621,0.031,-106722873.467334,0.030,260.694,51.4,614.050,08009c64,5,0,22241838.639,0.037,-116881634.660005,0.051,-2210.380,49.7,628.240,18009c84,21,0,22592084.513,0.045,-118722186.519908,0.031,1724.329,48.1,608.900,08009ca4,2,0,24803907.833,0.074,-130345274.760166,0.044,-3697.179,43.8,530.510,18009cc4,24,0,21721298.263,0.050,-114146044.954961,0.030,3062.576,47.1,532.340,08009ce4,30,0,25162676.799,0.108,-132230698.416316,0.081,-3167.627,40.4,532.210,08009d44,13,0,21179004.947,0.037,-111296410.862110,0.030,-2030.652,49.8,527.780,18009d64*ad1f2364
#SATXYZ2A,COM1_1,0,70.0,FINESTEERING,2020,376364.000,00000000,7513,12778;9,GPS,29,3724710.2228,25356351.3922,-6992807.9192,110448.112,10.340,15.269,0.0,0.0,GPS,20,12882727.3653,14042719.9496,18420183.4660,154827.838,8.165,7.850,0.0,0.0,GPS,15,-6450657.8712,17581043.6178,18453537.8876,-103352.895,3.550,2.628,0.0,0.0,GPS,5,-24615793.3352,3981463.7373,9329990.4554,-460.418,4.892,4.031,0.0,0.0,GPS,21,4381918.9580,18400319.5927,19466326.7515,-99076.589,4.972,3.721,0.0,0.0,GPS,2,-19358695.1954,11393223.1211,-13421704.7049,-4065.513,9.672,24.819,0.0,0.0,GPS,24,-14890127.8247,21789584.7358,-463152.3443,-16775.070,4.854,3.713,0.0,0.0,GPS,30,-9266409.7356,-12935942.3428,21268188.5375,5498.876,8.116,22.016,0.0,0.0,GPS,13,-14143999.3733,5052714.6620,21795679.3919,-26475.630,4.013,3.126,0.0,0.0*24deb8ca
#BESTPOSA,COM1_1,0,70.0,FINESTEERING,2020,376364.000,00000000,7145,12778;SOL_COMPUTED,SINGLE,36.76913570878,126.93477664347,98.6789,23.3000,WGS84,0.6434,0.6300,1.1748,"",0.000,0.000,9,7,7,7,0,12,00,01*ffcb8ceb
#BESTXYZA,COM1_1,0,70.0,FINESTEERING,2020,376364.000,00000000,bde7,12778;SOL_COMPUTED,SINGLE,-3073912.9794,4088896.4557,3796973.9061,0.8062,0.9386,0.8125,SOL_COMPUTED,SINGLE,0.0000,0.0000,0.0000,0.0011,0.0011,0.0011,"",0.150,0.000,0.000,9,7,7,7,0,12,00,01*0b8efb8f
#RANGEA,COM1_1,0,70.0,FINESTEERING,2020,376365.000,00000000,5103,12778;9,29,0,24688210.649,0.154,-129737284.053476,0.098,-2843.528,37.4,532.310,08009c04,20,0,23667511.202,0.074,-124373610.528901,0.035,3107.755,43.8,608.780,18009c24,15,0,20308640.025,0.031,-106722612.847400,0.030,260.596,51.4,615.050,08009c64,5,0,22242259.298,0.037,-116883845.202112,0.039,-2210.515,49.7,629.240,18009c84,21,0,22591756.417,0.045,-118720462.410390,0.031,1724.023,48.1,609.900,08009ca4,2,0,24804611.449,0.075,-130348972.268793,0.037,-3697.346,43.7,531.510,18009cc4,24,0,21720715.523,0.050,-114142982.678836,0.030,3062.148,47.1,533.340,08009ce4,30,0,25163279.569,0.109,-132233865.920564,0.087,-3167.371,40.4,533.210,08009d44,13,0,21179391.431,0.037,-111298441.861797,0.030,-2031.112,49.8,528.780,18009d64*7ed7190b
#SATXYZ2A,COM1_1,0,70.0,FINESTEERING,2020,376365.000,00000000,7513,12778;9,GPS,29,3724241.8869,25355578.3103,-6995870.7159,110448.109,10.341,15.277,0.0,0.0,GPS,20,12880352.1722,14042856.2864,18421719.3891,154827.838,8.164,7.848,0.0,0.0,GPS,15,-6451956.3234,17578994.6209,18455056.8397,-103352.895,3.550,2.628,0.0,0.0,GPS,5,-24616951.7882,3981056.7879,9327163.9738,-460.418,4.892,4.032,0.0,0.0,GPS,21,4380497.0820,18402143.4143,19464866.9215,-99076.585,4.971,3.721,0.0,0.0,GPS,2,-19357901.6983,11391571.7193,-13424169.3738,-4065.518,9.673,24.846,0.0,0.0,GPS,24,-14890459.0670,21789407.0027,-460003.9890,-16775.071,4.853,3.713,0.0,0.0,GPS,30,-9264611.6155,-12937963.6871,21267724.7980,5498.874,8.116,22.034,0.0,0.0,GPS,13,-14144754.3261,5050027.2942,21795813.4218,-26475.630,4.013,3.126,0.0,0.0*5723cbaf
#BESTPOSA,COM1_1,0,70.0,FINESTEERING,2020,376365.000,00000000,7145,12778;SOL_COMPUTED,SINGLE,36.76913570878,126.93477664347,98.6789,23.3000,WGS84,0.6434,0.6300,1.1748,"",0.000,0.000,9,7,7,7,0,12,00,01*433d2924
#BESTXYZA,COM1_1,0,70.0,FINESTEERING,2020,376365.000,00000000,bde7,12778;SOL_COMPUTED,SINGLE,-3073912.9794,4088896.4557,3796973.9061,0.8062,0.9386,0.8125,SOL_COMPUTED,SINGLE,6.7062e-10,5.0830e-10,0.0000,0.0011,0.0011,0.0011,"",0.150,0.000,0.000,9,7,7,7,0,12,00,01*e6acb29e
#RANGEA,COM1_1,0,70.5,FINESTEERING,2020,376366.000,00000000,5103,12778;9,29,0,24688751.256,0.151,-129740124.927610,0.068,-2841.192,37.6,533.310,08009c04,20,0,23666919.388,0.074,-124370500.536607,0.038,3108.819,43.7,609.780,18009c24,15,0,20308590.073,0.031,-106722350.335561,0.036,261.277,51.4,616.050,08009c64,5,0,22242679.567,0.037,-116886053.718378,0.039,-2209.513,49.7,630.240,18009c84,21,0,22591427.968,0.045,-118718736.463437,0.036,1724.784,48.1,610.900,08009ca4,2,0,24805314.644,0.074,-130352667.523225,0.039,-3696.076,43.7,532.510,18009cc4,24,0,21720132.426,0.050,-114139918.506885,0.090,3063.059,47.1,534.340,08009ce4,30,0,25163881.932,0.108,-132237031.389280,0.061,-3166.208,40.4,534.210,08009d44,13,0,21179777.539,0.037,-111300470.836439,0.036,-2029.952,49.8,529.780,18009d64*14401262
#SATXYZ2A,COM1_1,0,70.5,FINESTEERING,2020,376366.000,00000000,7513,12778;9,GPS,29,3723773.3788,25354804.8924,-6998933.3639,110448.107,10.342,15.285,0.0,0.0,GPS,20,12877976.7918,14042992.7438,18423254.9176,154827.838,8.162,7.846,0.0,0.0,GPS,15,-6453254.9673,17576945.5212,18456575.3871,-103352.896,3.550,2.628,0.0,0.0,GPS,5,-24618109.9114,3980649.9445,9324337.2952,-460.418,4.893,4.032,0.0,0.0,GPS,21,4379075.4079,18403967.1743,19463406.7034,-99076.581,4.971,3.721,0.0,0.0,GPS,2,-19357108.1144,11389920.0090,-13426633.7440,-4065.522,9.674,24.873,0.0,0.0,GPS,24,-14890790.0917,21789228.9615,-456855.6237,-16775.072,4.852,3.712,0.0,0.0,GPS,30,-9262813.6425,-12939985.0873,21267260.6062,5498.872,8.116,22.052,0.0,0.0,GPS,13,-14145509.4422,5047339.9548,21795946.9833,-26475.630,4.013,3.127,0.0,0.0*67b9f3d9
#BESTPOSA,COM1_1,0,70.5,FINESTEERING,2020,376366.000,00000000,7145,12778;SOL_COMPUTED,SINGLE,36.76913572294,126.93477663269,98.6833,23.3000,WGS84,0.6419,0.6286,1.1723,"",0.000,0.000,9,7,7,7,0,12,00,01*f82d777a
#BESTXYZA,COM1_1,0,70.5,FINESTEERING,2020,376366.000,00000000,bde7,12778;SOL_COMPUTED,SINGLE,-3073912.9801,4088896.4583,3796973.9100,0.8045,0.9366,0.8106,SOL_COMPUTED,SINGLE,0.0000,0.0000,0.0000,0.0011,0.0011,0.0011,"",0.150,0.000,0.000,9,7,7,7,0,12,00,01*27de7932
#RANGEA,COM1_1,0,70.0,FINESTEERING,2020,376367.000,00000000,5103,12778;9,29,0,24689292.701,0.151,-129742970.114627,0.098,-2847.491,37.6,534.310,08009c04,20,0,23666328.385,0.074,-124367394.814100,0.102,3103.469,43.8,610.780,18009c24,15,0,20308541.004,0.031,-106722092.492818,0.096,255.555,51.4,617.050,08009c64,5,0,22243100.709,0.037,-116888266.786800,0.043,-2215.310,49.7,631.240,18009c84,21,0,22591100.419,0.044,-118717015.245819,0.042,1718.700,48.2,611.900,08009ca4,2,0,24806018.660,0.075,-130356367.066018,0.092,-3701.556,43.7,533.510,18009cc4,24,0,21719550.221,0.051,-114136859.010736,0.116,3057.046,47.0,535.340,08009ce4,30,0,25164485.147,0.111,-132240201.324214,0.093,-3172.008,40.3,535.210,08009d44,13,0,21180164.515,0.037,-111302504.364139,0.103,-2035.710,49.8,530.780,18009d64*1fd5d909
#SATXYZ2A,COM1_1,0,70.0,FINESTEERING,2020,376367.000,00000000,7513,12778;9,GPS,29,3723304.6986,25354031.1386,-7001995.8631,110448.105,10.343,15.293,0.0,0.0,GPS,20,12875601.2241,14043129.3216,18424790.0518,154827.838,8.161,7.843,0.0,0.0,GPS,15,-6454553.8028,17574896.3190,18458093.5296,-103352.897,3.550,2.628,0.0,0.0,GPS,5,-24619267.7049,3980243.2070,9321510.4196,-460.417,4.893,4.033,0.0,0.0,GPS,21,4377653.9359,18405790.8727,19461946.0973,-99076.577,4.970,3.720,0.0,0.0,GPS,2,-19356314.4436,11388267.9900,-13429097.8154,-4065.527,9.674,24.900,0.0,0.0,GPS,24,-14891120.8987,21789050.6122,-453707.2485,-16775.073,4.851,3.711,0.0,0.0,GPS,30,-9261015.8166,-12942006.5433,21266795.9620,5498.871,8.115,22.070,0.0,0.0,GPS,13,-14146264.7214,5044652.6440,21796080.0763,-26475.631,4.014,3.127,0.0,0.0*13de26cb
#BESTPOSA,COM1_1,0,70.0,FINESTEERING,2020,376367.000,00000000,7145,12778;SOL_COMPUTED,SINGLE,36.76913572294,126.93477663269,98.6833,23.3000,WGS84,0.6419,0.6286,1.1723,"",0.000,0.000,9,7,7,7,0,12,00,01*279e3e81
#BESTXYZA,COM1_1,0,70.0,FINESTEERING,2020,376367.000,00000000,bde7,12778;SOL_COMPUTED,SINGLE,-3073912.9801,4088896.4583,3796973.9100,0.8045,0.9366,0.8106,SOL_COMPUTED,SINGLE,0.0000,0.0000,0.0000,0.0011,0.0011,0.0011,"",0.150,0.000,0.000,9,7,7,7,0,12,00,01*e09c83ae
#RANGEA,COM1_1,0,70.0,FINESTEERING,2020,376368.000,00000000,5103,12778;9,29,0,24689833.896,0.147,-129745813.936332,0.106,-2843.387,37.8,535.310,08009c04,20,0,23665737.140,0.075,-124364287.763318,0.090,3106.980,43.7,611.780,18009c24,15,0,20308491.758,0.031,-106721833.696517,0.067,258.919,51.4,618.050,08009c64,5,0,22243521.637,0.037,-116890478.756332,0.071,-2211.658,49.8,632.240,18009c84,21,0,22590772.698,0.044,-118715293.112636,0.074,1722.361,48.1,612.900,08009ca4,2,0,24806722.416,0.075,-130360065.285663,0.083,-3697.966,43.6,534.510,18009cc4,24,0,21718967.835,0.050,-114133798.557014,0.077,3060.864,47.1,536.340,08009ce4,30,0,25165088.182,0.110,-132243370.222736,0.107,-3168.852,40.3,536.210,08009d44,13,0,21180551.274,0.037,-111304536.783676,0.071,-2031.943,49.8,531.780,18009d64*0d2aca5c
#SATXYZ2A,COM1_1,0,70.0,FINESTEERING,2020,376368.000,00000000,7513,12778;9,GPS,29,3722835.8461,25353257.0489,-7005058.2133,110448.103,10.344,15.301,0.0,0.0,GPS,20,12873225.4692,14043266.0200,18426324.7914,154827.838,8.159,7.841,0.0,0.0,GPS,15,-6455852.8299,17572847.0143,18459611.2673,-103352.897,3.550,2.628,0.0,0.0,GPS,5,-24620425.1686,3979836.5755,9318683.3471,-460.417,4.893,4.033,0.0,0.0,GPS,21,4376232.6658,18407614.5093,19460485.1032,-99076.573,4.970,3.720,0.0,0.0,GPS,2,-19355520.6862,11386615.6626,-13431561.5880,-4065.532,9.675,24.928,0.0,0.0,GPS,24,-14891451.4882,21788871.9546,-450558.8635,-16775.074,4.850,3.711,0.0,0.0,GPS,30,-9259218.1379,-12944028.0551,21266330.8655,5498.869,8.115,22.088,0.0,0.0,GPS,13,-14147020.1638,5041965.3617,21796212.7008,-26475.631,4.014,3.127,0.0,0.0*64fb2135
#BESTPOSA,COM1_1,0,70.0,FINESTEERING,2020,376368.000,00000000,7145,12778;SOL_COMPUTED,SINGLE,36.76913573755,126.93477662145,98.6878,23.3000,WGS84,0.6404,0.6272,1.1698,"",0.000,0.000,9,9,9,9,0,12,00,01*91c130c4
#BESTXYZA,COM1_1,0,70.0,FINESTEERING,2020,376368.000,00000000,bde7,12778;SOL_COMPUTED,SINGLE,-3073912.9809,4088896.4610,3796973.9140,0.8028,0.9345,0.8088,SOL_COMPUTED,SINGLE,0.0000,0.0000,0.0000,0.0011,0.0011,0.0011,"",0.150,0.000,0.000,9,9,9,9,0,12,00,01*14f9a49f
#RANGEA,COM1_1,0,70.5,FINESTEERING,2020,376369.000,00000000,5103,12778;9,29,0,24690375.231,0.141,-129748658.558595,0.087,-2845.012,38.1,536.310,08009c04,20,0,23665146.058,0.073,-124361181.579358,0.075,3105.177,43.8,612.780,18009c24,15,0,20308442.741,0.031,-106721576.128704,0.075,256.391,51.4,619.050,08009c64,5,0,22243942.773,0.037,-116892691.819795,0.101,-2214.171,49.8,633.240,18009c84,21,0,22590445.228,0.045,-118713572.258195,0.109,1719.705,48.1,613.900,08009ca4,2,0,24807426.340,0.076,-130363764.373443,0.076,-3699.716,43.6,535.510,18009cc4,24,0,21718385.679,0.050,-114130739.302759,0.074,3058.379,47.1,537.340,08009ce4,30,0,25165691.411,0.109,-132246540.141788,0.075,-3170.550,40.4,537.210,08009d44,13,0,21180938.241,0.037,-111306570.313068,0.074,-2034.776,49.9,532.780,18009d64*a781979b
#SATXYZ2A,COM1_1,0,70.5,FINESTEERING,2020,376369.000,00000000,7513,12778;9,GPS,29,3722366.8214,25352482.6233,-7008120.4146,110448.100,10.345,15.309,0.0,0.0,GPS,20,12870849.5271,14043402.8389,18427859.1365,154827.838,8.158,7.838,0.0,0.0,GPS,15,-6457152.0487,17570797.6071,18461128.6001,-103352.898,3.549,2.628,0.0,0.0,GPS,5,-24621582.3025,3979430.0499,9315856.0777,-460.417,4.893,4.034,0.0,0.0,GPS,21,4374811.5977,18409438.0843,19459023.7212,-99076.569,4.969,3.720,0.0,0.0,GPS,2,-19354726.8421,11384963.0265,-13434025.0617,-4065.537,9.676,24.955,0.0,0.0,GPS,24,-14891781.8601,21788692.9887,-447410.4687,-16775.074,4.849,3.710,0.0,0.0,GPS,30,-9257420.6063,-12946049.6226,21265865.3167,5498.868,8.115,22.106,0.0,0.0,GPS,13,-14147775.7693,5039278.1081,21796344.8569,-26475.631,4.014,3.128,0.0,0.0*8c8b788b
#BESTPOSA,COM1_1,0,70.5,FINESTEERING,2020,376369.000,00000000,7145,12778;SOL_COMPUTED,SINGLE,36.76913573755,126.93477662145,98.6878,23.3000,WGS84,0.6404,0.6272,1.1698,"",0.000,0.000,9,7,7,7,0,12,00,01*4c5a090a
#BESTXYZA,COM1_1,0,70.5,FINESTEERING,2020,376369.000,00000000,bde7,12778;SOL_COMPUTED,SINGLE,-3073912.9809,4088896.4610,3796973.9140,0.8028,0.9345,0.8088,SOL_COMPUTED,SINGLE,0.0000,0.0000,0.0000,0.0011,0.0011,0.0011,"",0.150,0.000,0.000,9,7,7,7,0,12,00,01*d1932e36
#RANGEA,COM1_1,0,70.0,FINESTEERING,2020,376370.000,00000000,5103,12778;9,29,0,24690915.719,0.139,-129751498.687314,0.120,-2841.810,38.3,537.310,08009c04,20,0,23664554.112,0.074,-124358070.871854,0.081,3108.102,43.8,613.780,18009c24,15,0,20308392.939,0.031,-106721314.418746,0.071,258.791,51.4,620.050,08009c64,5,0,22244363.102,0.037,-116894900.615318,0.068,-2211.525,49.8,634.240,18009c84,21,0,22590116.983,0.044,-118711847.328838,0.072,1722.063,48.3,614.900,08009ca4,2,0,24808129.406,0.076,-130367458.943078,0.073,-3696.880,43.5,536.510,18009cc4,24,0,21717802.738,0.051,-114127675.932563,0.074,3060.740,47.1,538.340,08009ce4,30,0,25166293.823,0.109,-132249705.754960,0.075,-3168.024,40.3,538.210,08009d44,13,0,21181324.387,0.037,-111308599.562526,0.071,-2031.833,49.9,533.780,18009d64*dba76ace
#SATXYZ2A,COM1_1,0,70.0,FINESTEERING,2020,376370.000,00000000,7513,12778;9,GPS,29,3721897.6243,25351707.8619,-7011182.4668,110448.098,10.346,15.317,0.0,0.0,GPS,20,12868473.3979,14043539.7785,18429393.0871,154827.838,8.156,7.836,0.0,0.0,GPS,15,-6458451.4592,17568748.0976,18462645.5280,-103352.899,3.549,2.628,0.0,0.0,GPS,5,-24622739.1066,3979023.6301,9313028.6116,-460.416,4.893,4.034,0.0,0.0,GPS,21,4373390.7317,18411261.5974,19457561.9513,-99076.565,4.969,3.720,0.0,0.0,GPS,2,-19353932.9113,11383310.0820,-13436488.2365,-4065.542,9.676,24.982,0.0,0.0,GPS,24,-14892112.0145,21788513.7145,-444262.0642,-16775.075,4.849,3.710,0.0,0.0,GPS,30,-9255623.2219,-12948071.2459,21265399.3156,5498.866,8.115,22.124,0.0,0.0,GPS,13,-14148531.5380,5036590.8832,21796476.5446,-26475.631,4.014,3.128,0.0,0.0*8735793a
#BESTPOSA,COM1_1,0,70.0,FINESTEERING,2020,376370.000,00000000,7145,12778;SOL_COMPUTED,SINGLE,36.76913573755,126.93477662145,98.6878,23.3000,WGS84,0.6404,0.6272,1.1698,"",0.000,0.000,9,7,7,7,0,12,00,01*7f6c54ca
#BESTXYZA,COM1_1,0,70.0,FINESTEERING,2020,376370.000,00000000,bde7,12778;SOL_COMPUTED,SINGLE,-3073912.9809,4088896.4610,3796973.9140,0.8029,0.9345,0.8088,SOL_COMPUTED,SINGLE,6.0864e-10,5.8715e-10,0.0000,0.0011,0.0011,0.0011,"",0.150,0.000,0.000,9,7,7,7,0,12,00,01*920a15d0
#RANGEA,COM1_1,0,68.0,FINESTEERING,2020,376371.000,00000000,5103,12778;9,29,0,24691456.599,0.134,-129754340.771564,0.090,-2841.881,38.6,538.310,08009c04,20,0,23663962.548,0.074,-124354962.201944,0.055,3108.920,43.8,614.780,18009c24,15,0,20308343.589,0.031,-106721055.089862,0.049,259.311,51.4,621.050,08009c64,5,0,22244783.863,0.037,-116897111.662851,0.047,-2210.976,49.8,635.240,18009c84,21,0,22589789.188,0.044,-118710124.813997,0.050,1722.530,48.2,615.900,08009ca4,2,0,24808832.844,0.076,-130371155.523340,0.051,-3695.923,43.6,537.510,18009cc4,24,0,21717220.240,0.050,-114124614.907470,0.050,3061.082,47.1,539.340,08009ce4,30,0,25166896.629,0.114,-132252873.586439,0.051,-3167.419,40.0,539.210,08009d44,13,0,21181710.973,0.036,-111310631.055936,0.049,-2031.380,49.9,534.780,18009d64*1af5b4b5
#SATXYZ2A,COM1_1,0,68.0,FINESTEERING,2020,376371.000,00000000,7513,12778;9,GPS,29,3721428.2548,25350932.7647,-7014244.3700,110448.096,10.346,15.325,0.0,0.0,GPS,20,12866097.0816,14043676.8386,18430926.6431,154827.838,8.155,7.833,0.0,0.0,GPS,15,-6459751.0612,17566698.4857,18464162.0509,-103352.899,3.549,2.628,0.0,0.0,GPS,5,-24623895.5808,3978617.3161,9310200.9486,-460.416,4.894,4.035,0.0,0.0,GPS,21,4371970.0677,18413085.0487,19456099.7934,-99076.561,4.968,3.719,0.0,0.0,GPS,2,-19353138.8940,11381656.8289,-13438951.1123,-4065.546,9.677,25.010,0.0,0.0,GPS,24,-14892441.9515,21788334.1321,-441113.6501,-16775.076,4.848,3.709,0.0,0.0,GPS,30,-9253825.9847,-12950092.9248,21264932.8622,5498.864,8.115,22.142,0.0,0.0,GPS,13,-14149287.4698,5033903.6871,21796607.7638,-26475.631,4.014,3.128,0.0,0.0*a21a07aa
#BESTPOSA,COM1_1,0,68.0,FINESTEERING,2020,376371.000,00000000,7145,12778;SOL_COMPUTED,SINGLE,36.76913575233,126.93477661038,98.6924,23.3000,WGS84,0.6390,0.6258,1.1673,"",0.000,0.000,9,7,7,7,0,12,00,01*2d08b455
#BESTXYZA,COM1_1,0,68.0,FINESTEERING,2020,376371.000,00000000,bde7,12778;SOL_COMPUTED,SINGLE,-3073912.9818,4088896.4638,3796973.9181,0.8012,0.9325,0.8069,SOL_COMPUTED,SINGLE,0.0000,0.0000,0.0000,0.0011,0.0011,0.0011,"",0.150,0.000,0.000,9,7,7,7,0,12,00,01*22782e1b
#RANGEA,COM1_1,0,68.0,FINESTEERING,2020,376372.000,00000000,5103,12778;9,29,0,24691997.333,0.132,-129757182.102867,0.062,-2842.783,38.7,539.310,08009c04,20,0,23663370.835,0.074,-124351852.790920,0.041,3108.067,43.8,615.780,18009c24,15,0,20308294.176,0.031,-106720795.409456,0.037,258.373,51.4,622.050,08009c64,5,0,22245204.533,0.037,-116899322.231265,0.037,-2211.874,49.9,636.240,18009c84,21,0,22589461.345,0.044,-118708402.007680,0.037,1721.506,48.3,616.900,08009ca4,2,0,24809536.147,0.075,-130374851.398469,0.038,-3696.749,43.6,538.510,18009cc4,24,0,21716637.689,0.051,-114121553.570325,0.039,3059.758,47.0,540.340,08009ce4,30,0,25167499.347,0.113,-132256040.926502,0.072,-3168.914,40.1,540.210,08009d44,13,0,21182097.465,0.037,-111312662.076970,0.037,-2032.216,49.8,535.780,18009d64*fdefe9d7
#SATXYZ2A,COM1_1,0,68.0,FINESTEERING,2020,376372.000,00000000,7513,12778;9,GPS,29,3720958.7130,25350157.3317,-7017306.1239,110448.094,10.347,15.333,0.0,0.0,GPS,20,12863720.5783,14043814.0194,18432459.8045,154827.837,8.154,7.831,0.0,0.0,GPS,15,-6461050.8549,17564648.7715,18465678.1688,-103352.900,3.549,2.628,0.0,0.0,GPS,5,-24625051.7250,3978211.1079,9307373.0890,-460.416,4.894,4.035,0.0,0.0,GPS,21,4370549.6057,18414908.4381,19454637.2477,-99076.557,4.968,3.719,0.0,0.0,GPS,2,-19352344.7901,11380003.2673,-13441413.6890,-4065.551,9.678,25.037,0.0,0.0,GPS,24,-14892771.6710,21788154.2413,-437965.2264,-16775.077,4.847,3.708,0.0,0.0,GPS,30,-9252028.8948,-12952114.6593,21264465.9565,5498.863,8.115,22.161,0.0,0.0,GPS,13,-14150043.5646,5031216.5199,21796738.5145,-26475.631,4.014,3.128,0.0,0.0*32dddbe7
#BESTPOSA,COM1_1,0,68.0,FINESTEERING,2020,376372.000,00000000,7145,12778;SOL_COMPUTED,SINGLE,36.76913575233,126.93477661038,98.6924,23.3000,WGS84,0.6390,0.6259,1.1673,"",0.000,0.000,9,7,7,7,0,12,00,01*925bd8ab
#BESTXYZA,COM1_1,0,68.0,FINESTEERING,2020,376372.000,00000000,bde7,12778;SOL_COMPUTED,SINGLE,-3073912.9818,4088896.4638,3796973.9181,0.8012,0.9325,0.8069,SOL_COMPUTED,SINGLE,0.0000,0.0000,0.0000,0.0011,0.0011,0.0011,"",0.150,0.000,0.000,9,7,7,7,0,12,00,01*9a0449ca
#RANGEA,COM1_1,0,71.5,FINESTEERING,2020,376373.000,00000000,5103,12778;9,29,0,24692538.408,0.132,-129760025.280061,0.047,-2843.010,38.7,540.310,08009c04,20,0,23662779.476,0.075,-124348745.228399,0.037,3107.911,43.7,616.780,18009c24,15,0,20308245.175,0.031,-106720537.926122,0.035,257.596,51.4,623.050,08009c64,5,0,22245625.591,0.037,-116901534.865405,0.035,-2212.490,49.9,637.240,18009c84,21,0,22589133.936,0.044,-118706681.468847,0.035,1720.629,48.3,617.900,08009ca4,2,0,24810239.796,0.076,-130378549.121562,0.035,-3697.338,43.5,539.510,18009cc4,24,0,21716055.553,0.050,-114118494.449127,0.036,3059.293,47.1,541.340,08009ce4,30,0,25168102.459,0.112,-132259210.347330,0.108,-3169.553,40.1,541.210,08009d44,13,0,21182484.349,0.036,-111314695.161388,0.035,-2032.779,50.0,536.780,18009d64*3318ab6e
#SATXYZ2A,COM1_1,0,71.5,FINESTEERING,2020,376373.000,00000000,7513,12778;9,GPS,29,3720488.9987,25349381.5630,-7020367.7286,110448.091,10.348,15.341,0.0,0.0,GPS,20,12861343.8881,14043951.3208,18433992.5712,154827.837,8.152,7.829,0.0,0.0,GPS,15,-6462350.8401,17562598.9551,18467193.8817,-103352.901,3.548,2.628,0.0,0.0,GPS,5,-24626207.5394,3977805.0054,9304545.0328,-460.415,4.894,4.036,0.0,0.0,GPS,21,4369129.3458,18416731.7655,19453174.3142,-99076.553,4.967,3.719,0.0,0.0,GPS,2,-19351550.5998,11378349.3973,-13443875.9667,-4065.556,9.679,25.065,0.0,0.0,GPS,24,-14893101.1732,21787974.0421,-434816.7932,-16775.078,4.846,3.708,0.0,0.0,GPS,30,-9250231.9522,-12954136.4493,21263998.5985,5498.861,8.115,22.179,0.0,0.0,GPS,13,-14150799.8226,5028529.3815,21796868.7968,-26475.631,4.014,3.129,0.0,0.0*919ef094
#BESTPOSA,COM1_1,0,71.5,FINESTEERING,2020,376373.000,00000000,7145,12778;SOL_COMPUTED,SINGLE,36.76913576806,126.93477659961,98.6971,23.3000,WGS84,0.6375,0.6245,1.1648,"",0.000,0.000,9,9,9,9,0,12,00,01*e2f09817
#BESTXYZA,COM1_1,0,71.5,FINESTEERING,2020,376373.000,00000000,bde7,12778;SOL_COMPUTED,SINGLE,-3073912.9826,4088896.4666,3796973.9223,0.7995,0.9304,0.8051,SOL_COMPUTED,SINGLE,0.0000,0.0000,0.0000,0.0011,0.0011,0.0011,"",0.150,0.000,0.000,9,9,9,9,0,12,00,01*c715fab2
#RANGEA,COM1_1,0,71.0,FINESTEERING,2020,376374.000,00000000,5103,12778;9,29,0,24693079.483,0.127,-129762868.414812,0.040,-2844.753,39.0,541.310,08009c04,20,0,23662188.135,0.073,-124345637.702983,0.035,3105.497,43.8,617.780,18009c24,15,0,20308196.260,0.031,-106720280.866628,0.032,255.055,51.4,624.050,08009c64,5,0,22246046.707,0.037,-116903747.787927,0.031,-2214.811,49.9,638.240,18009c84,21,0,22588806.617,0.043,-118704961.394790,0.031,1717.990,48.4,618.900,08009ca4,2,0,24810943.460,0.075,-130382246.875291,0.033,-3699.676,43.6,540.510,18009cc4,24,0,21715473.502,0.050,-114115435.745799,0.031,3056.859,47.1,542.340,08009ce4,30,0,25168705.608,0.114,-132262379.942392,0.071,-3171.380,40.0,542.210,08009d44,13,0,21182871.291,0.036,-111316728.535262,0.032,-2035.172,50.0,537.780,18009d64*26b01325
#SATXYZ2A,COM1_1,0,71.0,FINESTEERING,2020,376374.000,00000000,7513,12778;9,GPS,29,3720019.1119,25348605.4587,-7023429.1841,110448.089,10.349,15.349,0.0,0.0,GPS,20,12858967.0109,14044088.7429,18435524.9432,154827.837,8.151,7.826,0.0,0.0,GPS,15,-6463651.0170,17560549.0366,18468709.1895,-103352.902,3.548,2.627,0.0,0.0,GPS,5,-24627363.0237,3977399.0085,9301716.7800,-460.415,4.894,4.036,0.0,0.0,GPS,21,4367709.2879,18418555.0309,19451710.9929,-99076.549,4.966,3.718,0.0,0.0,GPS,2,-19350756.3231,11376695.2188,-13446337.9452,-4065.561,9.679,25.092,0.0,0.0,GPS,24,-14893430.4579,21787793.5345,-431668.3506,-16775.078,4.845,3.707,0.0,0.0,GPS,30,-9248435.1570,-12956158.2948,21263530.7882,5498.860,8.114,22.197,0.0,0.0,GPS,13,-14151556.2436,5025842.2722,21796998.6106,-26475.631,4.014,3.129,0.0,0.0*a0ec7ed0
#BESTPOSA,COM1_1,0,71.0,FINESTEERING,2020,376374.000,00000000,7145,12778;SOL_COMPUTED,SINGLE,36.76913576806,126.93477659961,98.6971,23.3000,WGS84,0.6375,0.6245,1.1648,"",0.000,0.000,9,7,7,7,0,12,00,01*03be71f9
#BESTXYZA,COM1_1,0,71.0,FINESTEERING,2020,376374.000,00000000,bde7,12778;SOL_COMPUTED,SINGLE,-3073912.9826,4088896.4666,3796973.9223,0.7995,0.9304,0.8051,SOL_COMPUTED,SINGLE,0.0000,0.0000,0.0000,0.0011,0.0011,0.0011,"",0.150,0.000,0.000,9,7,7,7,0,12,00,01*a9f6b9f8
#RANGEA,COM1_1,0,71.0,FINESTEERING,2020,376375.000,00000000,5103,12778;9,29,0,24693620.373,0.130,-129765710.602361,0.108,-2841.617,38.8,542.310,08009c04,20,0,23661596.612,0.076,-124342529.240903,0.083,3109.277,43.5,618.780,18009c24,15,0,20308147.233,0.031,-106720023.224727,0.030,258.430,51.4,625.050,08009c64,5,0,22246467.685,0.037,-116905960.004287,0.030,-2211.417,49.8,639.240,18009c84,21,0,22588479.196,0.044,-118703240.799390,0.030,1721.381,48.2,619.900,08009ca4,2,0,24811646.949,0.077,-130385943.686487,0.031,-3695.963,43.4,541.510,18009cc4,24,0,21714891.344,0.051,-114112376.474788,0.031,3059.995,47.0,543.340,08009ce4,30,0,25169308.628,0.115,-132265548.855211,0.050,-3167.945,40.0,543.210,08009d44,13,0,21183258.091,0.036,-111318761.190147,0.031,-2031.781,49.9,538.780,18009d64*41d1b921
#SATXYZ2A,COM1_1,0,71.0,FINESTEERING,2020,376375.000,00000000,7513,12778;9,GPS,29,3719549.0526,25347829.0187,-7026490.4901,110448.087,10.350,15.357,0.0,0.0,GPS,20,12856589.9470,14044226.2857,18437056.9205,154827.837,8.149,7.824,0.0,0.0,GPS,15,-6464951.3854,17558499.0161,18470224.0922,-103352.902,3.548,2.627,0.0,0.0,GPS,5,-24628518.1781,3976993.1173,9298888.3308,-460.415,4.894,4.037,0.0,0.0,GPS,21,4366289.4322,18420378.2342,19450247.2838,-99076.545,4.966,3.718,0.0,0.0,GPS,2,-19349961.9601,11375040.7318,-13448799.6245,-4065.565,9.680,25.120,0.0,0.0,GPS,24,-14893759.5254,21787612.7185,-428519.8986,-16775.079,4.844,3.707,0.0,0.0,GPS,30,-9246638.5092,-12958180.1956,21263062.5257,5498.858,8.114,22.215,0.0,0.0,GPS,13,-14152312.8277,5023155.1920,21797127.9559,-26475.631,4.015,3.129,0.0,0.0*ff087d7d
#BESTPOSA,COM1_1,0,71.0,FINESTEERING,2020,376375.000,00000000,7145,12778;SOL_COMPUTED,SINGLE,36.76913576806,126.93477659961,98.6971,23.3000,WGS84,0.6375,0.6245,1.1648,"",0.000,0.000,9,7,7,7,0,12,00,01*bf48d436
#BESTXYZA,COM1_1,0,71.0,FINESTEERING,2020,376375.000,00000000,bde7,12778;SOL_COMPUTED,SINGLE,-3073912.9826,4088896.4666,3796973.9223,0.7995,0.9304,0.8051,SOL_COMPUTED,SINGLE,6.1153e-10,5.2786e-10,0.0000,0.0011,0.0011,0.0011,"",0.150,0.000,0.000,9,7,7,7,0,12,00,01*d00f96d7
#RANGEA,COM1_1,0,71.0,FINESTEERING,2020,376376.000,00000000,5103,12778;9,29,0,24694161.641,0.131,-129768554.822820,0.072,-2844.196,38.8,543.310,08009c04,20,0,23661005.492,0.075,-124339422.796367,0.057,3106.600,43.7,619.780,18009c24,15,0,20308098.662,0.031,-106719767.979391,0.033,255.142,51.4,626.050,08009c64,5,0,22246889.098,0.037,-116908174.488336,0.032,-2214.437,49.8,640.240,18009c84,21,0,22588152.238,0.044,-118701522.665031,0.032,1717.968,48.2,620.900,08009ca4,2,0,24812350.807,0.077,-130389642.514467,0.034,-3698.546,43.4,542.510,18009cc4,24,0,21714309.642,0.051,-114109319.616109,0.032,3056.973,47.0,544.340,08009ce4,30,0,25169912.086,0.114,-132268720.024230,0.095,-3171.627,40.0,544.210,08009d44,13,0,21183645.324,0.036,-111320796.120330,0.032,-2034.685,50.0,539.780,18009d64*4221b20c
#SATXYZ2A,COM1_1,0,71.0,FINESTEERING,2020,376376.000,00000000,7513,12778;9,GPS,29,3719078.8207,25347052.2431,-7029551.6467,110448.085,10.351,15.365,0.0,0.0,GPS,20,12854212.6962,14044363.9493,18438588.5031,154827.837,8.148,7.821,0.0,0.0,GPS,15,-6466251.9455,17556448.8935,18471738.5899,-103352.903,3.548,2.627,0.0,0.0,GPS,5,-24629673.0024,3976587.3317,9296059.6850,-460.414,4.895,4.037,0.0,0.0,GPS,21,4364869.7785,18422201.3754,19448783.1869,-99076.541,4.965,3.718,0.0,0.0,GPS,2,-19349167.5108,11373385.9364,-13451261.0046,-4065.570,9.681,25.148,0.0,0.0,GPS,24,-14894088.3756,21787431.5940,-425371.4374,-16775.080,4.843,3.706,0.0,0.0,GPS,30,-9244842.0088,-12960202.1519,21262593.8110,5498.856,8.114,22.233,0.0,0.0,GPS,13,-14153069.5748,5020468.1408,21797256.8328,-26475.632,4.015,3.130,0.0,0.0*9e22b57e
#BESTPOSA,COM1_1,0,71.0,FINESTEERING,2020,376376.000,00000000,7145,12778;SOL_COMPUTED,SINGLE,36.76913578447,126.93477658971,98.7018,23.3000,WGS84,0.6360,0.6231,1.1624,"",0.000,0.000,9,7,7,7,0,12,00,01*88d0bf8e
#BESTXYZA,COM1_1,0,71.0,FINESTEERING,2020,376376.000,00000000,bde7,12778;SOL_COMPUTED,SINGLE,-3073912.9835,4088896.4692,3796973.9265,0.7979,0.9284,0.8033,SOL_COMPUTED,SINGLE,0.0000,0.0000,0.0000,0.0011,0.0011,0.0011,"",0.150,0.000,0.000,9,7,7,7,0,12,00,01*dab9911e
#RANGEA,COM1_1,0,71.5,FINESTEERING,2020,376377.000,00000000,5103,12778;9,29,0,24694702.955,0.128,-129771399.327632,0.107,-2847.137,38.9,544.310,08009c04,20,0,23660414.430,0.075,-124336316.732603,0.045,3104.173,43.6,620.780,18009c24,15,0,20308050.231,0.031,-106719513.470806,0.034,252.289,51.4,627.050,08009c64,5,0,22247310.622,0.037,-116910389.571960,0.034,-2217.354,49.9,641.240,18009c84,21,0,22587825.436,0.044,-118699805.309585,0.034,1715.014,48.1,621.900,08009ca4,2,0,24813054.753,0.076,-130393341.712222,0.036,-3701.401,43.4,543.510,18009cc4,24,0,21713728.079,0.050,-114106263.495485,0.034,3053.806,47.1,545.340,08009ce4,30,0,25170515.636,0.116,-132271891.689144,0.071,-3173.668,39.8,545.210,08009d44,13,0,21184032.681,0.036,-111322831.658367,0.034,-2037.916,49.9,540.780,18009d64*c5001468
#SATXYZ2A,COM1_1,0,71.5,FINESTEERING,2020,376377.000,00000000,7513,12778;9,GPS,29,3718608.4162,25346275.1320,-7032612.6539,110448.083,10.352,15.373,0.0,0.0,GPS,20,12851835.2587,14044501.7336,18440119.6908,154827.837,8.146,7.819,0.0,0.0,GPS,15,-6467552.6971,17554398.6689,18473252.6823,-103352.904,3.548,2.627,0.0,0.0,GPS,5,-24630827.4967,3976181.6516,9293230.8429,-460.414,4.895,4.038,0.0,0.0,GPS,21,4363450.3269,18424024.4543,19447318.7023,-99076.537,4.965,3.717,0.0,0.0,GPS,2,-19348372.9752,11371730.8325,-13453722.0853,-4065.575,9.682,25.176,0.0,0.0,GPS,24,-14894417.0086,21787250.1610,-422222.9669,-16775.081,4.842,3.705,0.0,0.0,GPS,30,-9243045.6558,-12962224.1635,21262124.6440,5498.855,8.114,22.252,0.0,0.0,GPS,13,-14153826.4850,5017781.1189,21797385.2411,-26475.632,4.015,3.130,0.0,0.0*d0b37cc4
#BESTPOSA,COM1_1,0,71.5,FINESTEERING,2020,376377.000,00000000,7145,12778;SOL_COMPUTED,SINGLE,36.76913578447,126.93477658971,98.7018,23.3000,WGS84,0.6360,0.6231,1.1624,"",0.000,0.000,9,7,7,7,0,12,00,01*5763f675
#BESTXYZA,COM1_1,0,71.5,FINESTEERING,2020,376377.000,00000000,bde7,12778;SOL_COMPUTED,SINGLE,-3073912.9835,4088896.4692,3796973.9265,0.7979,0.9284,0.8033,SOL_COMPUTED,SINGLE,0.0000,8.8767e-10,0.0000,0.0011,0.0011,0.0011,"",0.150,0.000,0.000,9,7,7,7,0,12,00,01*c90a7ea6
#RANGEA,COM1_1,0,71.5,FINESTEERING,2020,376378.000,00000000,5103,12778;9,29,0,24695244.460,0.137,-129774244.759923,0.070,-2845.534,38.4,545.310,08009c04,20,0,23659823.550,0.077,-124333211.628065,0.036,3105.047,43.4,621.780,18009c24,15,0,20308002.055,0.031,-106719260.280872,0.030,253.061,51.3,628.050,08009c64,5,0,22247732.374,0.037,-116912605.854148,0.030,-2216.305,49.8,642.240,18009c84,21,0,22587498.894,0.045,-118698089.342113,0.030,1715.890,48.1,622.900,08009ca4,2,0,24813758.878,0.078,-130397041.860963,0.033,-3699.969,43.3,544.510,18009cc4,24,0,21713146.764,0.051,-114103208.710891,0.030,3054.699,47.0,546.340,08009ce4,30,0,25171119.437,0.113,-132275064.564413,0.051,-3172.782,40.1,546.210,08009d44,13,0,21184420.249,0.037,-111324868.379089,0.030,-2036.651,49.9,541.780,18009d64*a727c092
#SATXYZ2A,COM1_1,0,71.5,FINESTEERING,2020,376378.000,00000000,7513,12778;9,GPS,29,3718137.8391,25345497.6853,-7035673.5114,110448.080,10.353,15.381,0.0,0.0,GPS,20,12849457.6346,14044639.6387,18441650.4837,154827.837,8.145,7.817,0.0,0.0,GPS,15,-6468853.6403,17552348.3425,18474766.3696,-103352.904,3.547,2.627,0.0,0.0,GPS,5,-24631981.6608,3975776.0771,9290401.8045,-460.414,4.895,4.038,0.0,0.0,GPS,21,4362031.0774,18425847.4710,19445853.8300,-99076.533,4.964,3.717,0.0,0.0,GPS,2,-19347578.3535,11370075.4203,-13456182.8666,-4065.580,9.682,25.203,0.0,0.0,GPS,24,-14894745.4244,21787068.4196,-419074.4873,-16775.082,4.841,3.705,0.0,0.0,GPS,30,-9241249.4503,-12964246.2303,21261655.0247,5498.853,8.114,22.270,0.0,0.0,GPS,13,-14154583.5581,5015094.1262,21797513.1810,-26475.632,4.015,3.130,0.0,0.0*14b053cb
#BESTPOSA,COM1_1,0,71.5,FINESTEERING,2020,376378.000,00000000,7145,12778;SOL_COMPUTED,SINGLE,36.76913580109,126.93477657992,98.7066,23.3000,WGS84,0.6346,0.6218,1.1599,"",0.000,0.000,9,9,9,9,0,12,00,01*a9f746b2
#BESTXYZA,COM1_1,0,71.5,FINESTEERING,2020,376378.000,00000000,bde7,12778;SOL_COMPUTED,SINGLE,-3073912.9845,4088896.4720,3796973.9309,0.7963,0.9264,0.8015,SOL_COMPUTED,SINGLE,0.0000,0.0000,0.0000,0.0011,0.0011,0.0011,"",0.150,0.000,0.000,9,9,9,9,0,12,00,01*c6281025
#RANGEA,COM1_1,0,72.5,FINESTEERING,2020,376379.000,00000000,5103,12778;9,29,0,24695786.321,0.134,-129777092.150922,0.116,-2847.612,38.6,546.310,08009c04,20,0,23659233.045,0.074,-124330108.501659,0.033,3102.919,43.7,622.780,18009c24,15,0,20307954.320,0.031,-106719009.443349,0.029,250.523,51.3,629.050,08009c64,5,0,22248154.548,0.037,-116914824.354247,0.029,-2218.809,49.8,643.240,18009c84,21,0,22587172.812,0.044,-118696375.779016,0.029,1713.143,48.2,623.900,08009ca4,2,0,24814463.367,0.077,-130400744.012613,0.032,-3702.583,43.4,545.510,18009cc4,24,0,21712565.908,0.051,-114100156.271417,0.030,3051.981,47.0,547.340,08009ce4,30,0,25171723.643,0.113,-132278239.629945,0.088,-3175.075,40.0,547.210,08009d44,13,0,21184808.249,0.037,-111326907.322652,0.029,-2039.261,49.9,542.780,18009d64*64771d39
#SATXYZ2A,COM1_1,0,72.5,FINESTEERING,2020,376379.000,00000000,7513,12778;9,GPS,29,3717667.0893,25344719.9032,-7038734.2194,110448.078,10.354,15.389,0.0,0.0,GPS,20,12847079.8238,14044777.6646,18443180.8818,154827.837,8.143,7.814,0.0,0.0,GPS,15,-6470154.7751,17550297.9142,18476279.6516,-103352.905,3.547,2.627,0.0,0.0,GPS,5,-24633135.4948,3975370.6080,9287572.5698,-460.413,4.895,4.039,0.0,0.0,GPS,21,4360612.0300,18427670.4254,19444388.5700,-99076.529,4.964,3.717,0.0,0.0,GPS,2,-19346783.6456,11368419.6996,-13458643.3485,-4065.584,9.683,25.231,0.0,0.0,GPS,24,-14895073.6231,21786886.3695,-415925.9986,-16775.082,4.841,3.704,0.0,0.0,GPS,30,-9239453.3924,-12966268.3523,21261184.9533,5498.852,8.114,22.288,0.0,0.0,GPS,13,-14155340.7942,5012407.1628,21797640.6525,-26475.632,4.015,3.130,0.0,0.0*d88a4653
#BESTPOSA,COM1_1,0,72.5,FINESTEERING,2020,376379.000,00000000,7145,12778;SOL_COMPUTED,SINGLE,36.76913580109,126.93477657992,98.7066,23.3000,WGS84,0.6346,0.6218,1.1599,"",0.000,0.000,9,7,7,7,0,12,00,01*af8b7b28
#BESTXYZA,COM1_1,0,72.5,FINESTEERING,2020,376379.000,00000000,bde7,12778;SOL_COMPUTED,SINGLE,-3073912.9845,4088896.4720,3796973.9309,0.7963,0.9264,0.8015,SOL_COMPUTED,SINGLE,0.0000,0.0000,0.0000,0.0011,0.0011,0.0011,"",0.150,0.000,0.000,9,7,7,7,0,12,00,01*a9213915
#RANGEA,COM1_1,0,71.0,FINESTEERING,2020,376380.000,00000000,5103,12778;9,29,0,24696327.908,0.134,-129779937.984632,0.077,-2842.618,38.6,547.310,08009c04,20,0,23658642.230,0.073,-124327003.804506,0.034,3108.873,43.8,623.780,18009c24,15,0,20307906.363,0.031,-106718757.416004,0.031,256.018,51.4,630.050,08009c64,5,0,22248576.479,0.037,-116917041.528549,0.031,-2213.060,49.8,644.240,18009c84,21,0,22586846.516,0.044,-118694661.089492,0.031,1718.405,48.3,624.900,08009ca4,2,0,24815167.569,0.078,-130404444.585010,0.033,-3696.452,43.3,546.510,18009cc4,24,0,21711984.821,0.051,-114097102.654306,0.032,3057.443,47.0,548.340,08009ce4,30,0,25172327.585,0.118,-132281413.376510,0.060,-3169.678,39.7,548.210,08009d44,13,0,21185196.002,0.036,-111328944.953084,0.031,-2033.674,49.9,543.780,18009d64*51ba1b93
#SATXYZ2A,COM1_1,0,71.0,FINESTEERING,2020,376380.000,00000000,7513,12778;9,GPS,29,3717196.1667,25343941.7856,-7041794.7777,110448.076,10.355,15.397,0.0,0.0,GPS,20,12844701.8265,14044915.8113,18444710.8850,154827.837,8.142,7.812,0.0,0.0,GPS,15,-6471456.1014,17548247.3842,18477792.5284,-103352.906,3.547,2.627,0.0,0.0,GPS,5,-24634288.9986,3974965.2444,9284743.1389,-460.413,4.895,4.039,0.0,0.0,GPS,21,4359193.1848,18429493.3174,19442922.9224,-99076.525,4.963,3.717,0.0,0.0,GPS,2,-19345988.8517,11366763.6706,-13461103.5309,-4065.589,9.684,25.259,0.0,0.0,GPS,24,-14895401.6046,21786704.0109,-412777.5008,-16775.083,4.840,3.704,0.0,0.0,GPS,30,-9237657.4820,-12968290.5295,21260714.4296,5498.850,8.114,22.307,0.0,0.0,GPS,13,-14156098.1933,5009720.2289,21797767.6554,-26475.632,4.015,3.131,0.0,0.0*bace7584
#BESTPOSA,COM1_1,0,71.0,FINESTEERING,2020,376380.000,00000000,7145,12778;SOL_COMPUTED,SINGLE,36.76913580109,126.93477657992,98.7066,23.3000,WGS84,0.6346,0.6218,1.1599,"",0.000,0.000,9,7,7,7,0,12,00,01*447477b0
#BESTXYZA,COM1_1,0,71.0,FINESTEERING,2020,376380.000,00000000,bde7,12778;SOL_COMPUTED,SINGLE,-3073912.9845,4088896.4720,3796973.9309,0.7963,0.9264,0.8015,SOL_COMPUTED,SINGLE,6.7606e-10,4.5251e-10,0.0000,0.0011,0.0011,0.0011,"",0.150,0.000,0.000,9,7,7,7,0,12,00,01*bf2b1108
#RANGEA,COM1_1,0,69.0,FINESTEERING,2020,376381.000,00000000,5103,12778;9,29,0,24696869.647,0.138,-129782784.769020,0.088,-2847.190,38.3,548.310,08009c04,20,0,23658051.633,0.075,-124323900.182722,0.038,3102.902,43.7,624.780,18009c24,15,0,20307858.675,0.031,-106718506.826038,0.036,249.840,51.4,631.050,08009c64,5,0,22248998.649,0.037,-116919260.009830,0.036,-2219.228,49.8,645.240,18009c84,21,0,22586520.498,0.044,-118692947.858444,0.036,1712.462,48.3,625.900,08009ca4,2,0,24815871.984,0.078,-130408146.227678,0.037,-3702.587,43.2,547.510,18009cc4,24,0,21711403.998,0.051,-114094050.454576,0.036,3051.241,47.0,549.340,08009ce4,30,0,25172931.755,0.115,-132284588.358379,0.085,-3175.754,39.9,549.210,08009d44,13,0,21185584.002,0.036,-111330983.864414,0.036,-2039.715,49.9,544.780,18009d64*bfe9af59
#SATXYZ2A,COM1_1,0,69.0,FINESTEERING,2020,376381.000,00000000,7513,12778;9,GPS,29,3716725.0714,25343163.3326,-7044855.1862,110448.074,10.356,15.405,0.0,0.0,GPS,20,12842323.6427,14045054.0788,18446240.4933,154827.837,8.140,7.809,0.0,0.0,GPS,15,-6472757.6193,17546196.7524,18479305.0000,-103352.907,3.547,2.627,0.0,0.0,GPS,5,-24635442.1723,3974559.9861,9281913.5119,-460.413,4.896,4.040,0.0,0.0,GPS,21,4357774.5417,18431316.1470,19441456.8871,-99076.521,4.963,3.716,0.0,0.0,GPS,2,-19345193.9718,11365107.3332,-13463563.4137,-4065.594,9.685,25.287,0.0,0.0,GPS,24,-14895729.3690,21786521.3437,-409628.9942,-16775.084,4.839,3.703,0.0,0.0,GPS,30,-9235861.7193,-12970312.7618,21260243.4537,5498.848,8.113,22.325,0.0,0.0,GPS,13,-14156855.7553,5007033.3244,21797894.1899,-26475.632,4.015,3.131,0.0,0.0*a59a152e
#BESTPOSA,COM1_1,0,69.0,FINESTEERING,2020,376381.000,00000000,7145,12778;SOL_COMPUTED,SINGLE,36.76913581790,126.93477657025,98.7115,23.3000,WGS84,0.6332,0.6204,1.1575,"",0.000,0.000,9,7,7,7,0,12,00,01*7a28f622
#BESTXYZA,COM1_1,0,69.0,FINESTEERING,2020,376381.000,00000000,bde7,12778;SOL_COMPUTED,SINGLE,-3073912.9855,4088896.4747,3796973.9353,0.7946,0.9244,0.7997,SOL_COMPUTED,SINGLE,0.0000,0.0000,0.0000,0.0011,0.0011,0.0011,"",0.150,0.000,0.000,9,7,7,7,0,12,00,01*a6a54aaf
#RANGEA,COM1_1,0,69.0,FINESTEERING,2020,376382.000,00000000,5103,12778;9,29,0,24697411.364,0.139,-129785631.430749,0.104,-2843.224,38.3,549.310,08009c04,20,0,23657461.013,0.075,-124320796.419917,0.033,3107.518,43.7,625.780,18009c24,15,0,20307811.036,0.031,-106718256.467986,0.031,253.863,51.3,632.050,08009c64,5,0,22249420.839,0.037,-116921478.601644,0.032,-2215.083,49.8,646.240,18009c84,21,0,22586194.540,0.044,-118691234.942005,0.031,1716.277,48.2,626.900,08009ca4,2,0,24816576.356,0.078,-130411847.734367,0.033,-3698.137,43.3,548.510,18009cc4,24,0,21710823.218,0.051,-114090998.494256,0.032,3055.279,47.0,550.340,08009ce4,30,0,25173535.955,0.116,-132287763.475242,0.080,-3171.889,39.8,550.210,08009d44,13,0,21185972.020,0.036,-111333022.918355,0.031,-2035.727,49.9,545.780,18009d64*2d624728
#SATXYZ2A,COM1_1,0,69.0,FINESTEERING,2020,376382.000,00000000,7513,12778;9,GPS,29,3716253.8033,25342384.5442,-7047915.4448,110448.071,10.357,15.413,0.0,0.0,GPS,20,12839945.2724,14045192.4673,18447769.7066,154827.837,8.139,7.807,0.0,0.0,GPS,15,-6474059.3287,17544146.0191,18480817.0661,-103352.907,3.547,2.627,0.0,0.0,GPS,5,-24636595.0157,3974154.8332,9279083.6888,-460.412,4.896,4.040,0.0,0.0,GPS,21,4356356.1007,18433138.9140,19439990.4643,-99076.517,4.962,3.716,0.0,0.0,GPS,2,-19344399.0059,11363450.6874,-13466022.9970,-4065.599,9.685,25.315,0.0,0.0,GPS,24,-14896056.9164,21786338.3678,-406480.4786,-16775.085,4.838,3.702,0.0,0.0,GPS,30,-9234066.1042,-12972335.0491,21259772.0256,5498.847,8.113,22.343,0.0,0.0,GPS,13,-14157613.4802,5004346.4494,21798020.2558,-26475.632,4.016,3.131,0.0,0.0*57b9b4b4
#BESTPOSA,COM1_1,0,69.0,FINESTEERING,2020,376382.000,00000000,7145,12778;SOL_COMPUTED,SINGLE,36.76913581790,126.93477657025,98.7115,23.3000,WGS84,0.6332,0.6204,1.1575,"",0.000,0.000,9,7,7,7,0,12,00,01*64421e32
#BESTXYZA,COM1_1,0,69.0,FINESTEERING,2020,376382.000,00000000,bde7,12778;SOL_COMPUTED,SINGLE,-3073912.9855,4088896.4747,3796973.9353,0.7946,0.9244,0.7997,SOL_COMPUTED,SINGLE,0.0000,8.8765e-10,0.0000,0.0011,0.0011,0.0011,"",0.150,0.000,0.000,9,7,7,7,0,12,00,01*7bff8f0c
#RANGEA,COM1_1,0,71.0,FINESTEERING,2020,376383.000,00000000,5103,12778;9,29,0,24697952.732,0.142,-129788476.463165,0.095,-2845.566,38.1,550.310,08009c04,20,0,23656870.067,0.073,-124317690.981985,0.036,3105.146,43.8,626.780,18009c24,15,0,20307763.150,0.031,-106718004.818178,0.034,251.055,51.4,633.050,08009c64,5,0,22249842.763,0.037,-116923695.764778,0.034,-2217.631,49.9,647.240,18009c84,21,0,22585868.351,0.044,-118689520.774806,0.086,1713.541,48.3,627.900,08009ca4,2,0,24817280.421,0.078,-130415547.578180,0.036,-3700.304,43.3,549.510,18009cc4,24,0,21710242.203,0.051,-114087945.228940,0.035,3052.665,47.0,551.340,08009ce4,30,0,25174139.895,0.118,-132290937.063123,0.089,-3174.298,39.7,551.210,08009d44,13,0,21186359.765,0.036,-111335060.511329,0.034,-2038.111,50.0,546.780,18009d64*18c0c796
#SATXYZ2A,COM1_1,0,71.0,FINESTEERING,2020,376383.000,00000000,7513,12778;9,GPS,29,3715782.3622,25341605.4204,-7050975.5536,110448.069,10.358,15.421,0.0,0.0,GPS,20,12837566.7157,14045330.9766,18449298.5249,154827.837,8.137,7.805,0.0,0.0,GPS,15,-6475361.2297,17542095.1841,18482328.7270,-103352.908,3.546,2.627,0.0,0.0,GPS,5,-24637747.5288,3973749.7855,9276253.6697,-460.412,4.896,4.041,0.0,0.0,GPS,21,4354937.8620,18434961.6186,19438523.6539,-99076.513,4.962,3.716,0.0,0.0,GPS,2,-19343603.9542,11361793.7333,-13468482.2806,-4065.604,9.686,25.343,0.0,0.0,GPS,24,-14896384.2469,21786155.0833,-403331.9542,-16775.086,4.837,3.702,0.0,0.0,GPS,30,-9232270.6367,-12974357.3914,21259300.1454,5498.845,8.113,22.362,0.0,0.0,GPS,13,-14158371.3681,5001659.6040,21798145.8533,-26475.632,4.016,3.132,0.0,0.0*cfd4ef37
#BESTPOSA,COM1_1,0,71.0,FINESTEERING,2020,376383.000,00000000,7145,12778;SOL_COMPUTED,SINGLE,36.76913583419,126.93477656005,98.7164,23.3000,WGS84,0.6317,0.6191,1.1550,"",0.000,0.000,9,9,9,9,0,12,00,01*65f1e199
#BESTXYZA,COM1_1,0,71.0,FINESTEERING,2020,376383.000,00000000,bde7,12778;SOL_COMPUTED,SINGLE,-3073912.9865,4088896.4775,3796973.9397,0.7930,0.9224,0.7979,SOL_COMPUTED,SINGLE,0.0000,0.0000,0.0000,0.0011,0.0011,0.0011,"",0.150,0.000,0.000,9,9,9,9,0,12,00,01*a7f68dbc
#RANGEA,COM1_1,0,71.0,FINESTEERING,2020,376384.000,00000000,5103,12778;9,29,0,24698494.921,0.148,-129791325.725667,0.091,-2847.198,37.8,551.310,08009c04,20,0,23656279.940,0.074,-124314589.832443,0.036,3103.881,43.8,627.780,18009c24,15,0,20307716.151,0.031,-106717757.832809,0.035,249.635,51.3,634.050,08009c64,5,0,22250265.556,0.037,-116925917.472751,0.036,-2219.162,49.8,648.240,18009c84,21,0,22585543.056,0.044,-118687811.331439,0.059,1711.919,48.2,628.900,08009ca4,2,0,24817985.305,0.079,-130419251.726913,0.036,-3701.695,43.2,550.510,18009cc4,24,0,21709662.076,0.051,-114084896.654083,0.036,3050.883,47.0,552.340,08009ce4,30,0,25174744.664,0.118,-132294115.166986,0.062,-3175.536,39.7,552.210,08009d44,13,0,21186748.376,0.036,-111337102.660837,0.035,-2039.806,49.9,547.780,18009d64*8d64e36f
#SATXYZ2A,COM1_1,0,71.0,FINESTEERING,2020,376384.000,00000000,7513,12778;9,GPS,29,3715310.7483,25340825.9614,-7054035.5125,110448.067,10.359,15.429,0.0,0.0,GPS,20,12835187.9727,14045469.6069,18450826.9482,154827.837,8.136,7.802,0.0,0.0,GPS,15,-6476663.3222,17540044.2477,18483839.9825,-103352.909,3.546,2.627,0.0,0.0,GPS,5,-24638899.7117,3973344.8432,9273423.4546,-460.412,4.896,4.041,0.0,0.0,GPS,21,4353519.8254,18436784.2605,19437056.4560,-99076.509,4.961,3.715,0.0,0.0,GPS,2,-19342808.8166,11360136.4709,-13470941.2644,-4065.608,9.687,25.371,0.0,0.0,GPS,24,-14896711.3603,21785971.4901,-400183.4211,-16775.086,4.836,3.701,0.0,0.0,GPS,30,-9230475.3170,-12976379.7887,21258827.8130,5498.844,8.113,22.380,0.0,0.0,GPS,13,-14159129.4189,4998972.7883,21798270.9823,-26475.632,4.016,3.132,0.0,0.0*bdd84803
#BESTPOSA,COM1_1,0,71.0,FINESTEERING,2020,376384.000,00000000,7145,12778;SOL_COMPUTED,SINGLE,36.76913583419,126.93477656005,98.7164,23.3000,WGS84,0.6317,0.6191,1.1550,"",0.000,0.000,9,7,7,7,0,12,00,01*e7fae443
#BESTXYZA,COM1_1,0,71.0,FINESTEERING,2020,376384.000,00000000,bde7,12778;SOL_COMPUTED,SINGLE,-3073912.9865,4088896.4775,3796973.9397,0.7930,0.9224,0.7979,SOL_COMPUTED,SINGLE,0.0000,0.0000,0.0000,0.0011,0.0011,0.0011,"",0.150,0.000,0.000,9,7,7,7,0,12,00,01*667ce925
#RANGEA,COM1_1,0,71.0,FINESTEERING,2020,376385.000,00000000,5103,12778;9,29,0,24699036.744,0.157,-129794173.202251,0.099,-2848.117,37.2,552.310,08009c04,20,0,23655689.481,0.077,-124311486.968059,0.099,3102.519,43.4,628.780,18009c24,15,0,20307668.894,0.031,-106717509.489763,0.088,247.487,51.3,635.050,08009c64,5,0,22250688.058,0.037,-116928137.682050,0.036,-2221.144,49.8,649.240,18009c84,21,0,22585217.508,0.044,-118686100.586215,0.087,1709.838,48.3,629.900,08009ca4,2,0,24818689.862,0.078,-130422954.135112,0.038,-3703.163,43.3,551.510,18009cc4,24,0,21709081.694,0.051,-114081846.722169,0.037,3049.126,47.0,553.340,08009ce4,30,0,25175349.154,0.120,-132297291.800147,0.109,-3177.635,39.6,553.210,08009d44,13,0,21187136.699,0.037,-111339143.307523,0.086,-2041.458,49.9,548.780,18009d64*f9608596
#SATXYZ2A,COM1_1,0,71.0,FINESTEERING,2020,376385.000,00000000,7513,12778;9,GPS,29,3714838.9615,25340046.1671,-7057095.3213,110448.065,10.360,15.438,0.0,0.0,GPS,20,12832809.0434,14045608.3582,18452354.9765,154827.837,8.134,7.800,0.0,0.0,GPS,15,-6477965.6063,17537993.2098,18485350.8325,-103352.909,3.546,2.627,0.0,0.0,GPS,5,-24640051.5642,3972940.0060,9270593.0436,-460.411,4.896,4.042,0.0,0.0,GPS,21,4352101.9910,18438606.8397,19435588.8705,-99076.505,4.961,3.715,0.0,0.0,GPS,2,-19342013.5932,11358478.9002,-13473399.9485,-4065.613,9.688,25.400,0.0,0.0,GPS,24,-14897038.2569,21785787.5881,-397034.8793,-16775.087,4.835,3.701,0.0,0.0,GPS,30,-9228680.1450,-12978402.2408,21258355.0283,5498.842,8.113,22.399,0.0,0.0,GPS,13,-14159887.6326,4996286.0023,21798395.6427,-26475.632,4.016,3.132,0.0,0.0*430cf3b7
#BESTPOSA,COM1_1,0,71.0,FINESTEERING,2020,376385.000,00000000,7145,12778;SOL_COMPUTED,SINGLE,36.76913583419,126.93477656005,98.7164,23.3000,WGS84,0.6317,0.6191,1.1551,"",0.000,0.000,9,7,7,7,0,12,00,01*94925644
#BESTXYZA,COM1_1,0,71.0,FINESTEERING,2020,376385.000,00000000,bde7,12778;SOL_COMPUTED,SINGLE,-3073912.9865,4088896.4775,3796973.9397,0.7930,0.9224,0.7979,SOL_COMPUTED,SINGLE,6.6525e-10,5.2991e-10,0.0000,0.0011,0.0011,0.0011,"",0.150,0.000,0.000,9,7,7,7,0,12,00,01*d9dd3c0b
#RANGEA,COM1_1,0,71.0,FINESTEERING,2020,376386.000,00000000,5103,12778;9,29,0,24699578.892,0.164,-129797022.379733,0.081,-2849.507,36.8,553.310,08009c04,20,0,23655099.363,0.074,-124308385.792659,0.065,3100.693,43.7,629.780,18009c24,15,0,20307622.030,0.031,-106717263.193103,0.060,245.629,51.3,636.050,08009c64,5,0,22251110.922,0.037,-116930359.800470,0.035,-2222.658,49.7,650.240,18009c84,21,0,22584892.365,0.044,-118684391.932701,0.060,1708.090,48.2,630.900,08009ca4,2,0,24819394.724,0.077,-130426658.205953,0.036,-3704.148,43.4,552.510,18009cc4,24,0,21708501.696,0.051,-114078798.831973,0.035,3047.417,46.9,554.340,08009ce4,30,0,25175953.984,0.123,-132300470.288755,0.072,-3179.043,39.3,554.210,08009d44,13,0,21187525.388,0.037,-111341185.865558,0.059,-2043.054,49.9,549.780,18009d64*63bbcba0
