#GPSEPHEMA,USB3_1,11,85.5,SATTIME,2020,376320.000,00000000,1214,14392;2,376320.0,0,62,62,2020,2020,381600.0,2.655915997e+07,5.167000941e-09,1.5254487571e-01,1.8175241887e-02,-1.827621599e+00,2.982094884e-06,6.863847375e-06,2.46562500e+02,5.49062500e+01,-2.067536116e-07,8.754432201e-08,9.5141348198e-01,3.375140588e-10,1.340078618e+00,-8.76679374e-09,62,381600.0,-2.048909664e-08,-1.36630e-05,-1.09139e-11,0.00000,TRUE,1.458689314e-04,4.00000000e+00*69dd3829
#GPSEPHEMA,USB3_1,10,85.5,SATTIME,1995,195150.000,00000000,1214,14392;4,195150.0,63,30,30,1995,1995,201600.0,2.656049998e+07,5.472727961e-09,2.208703057e+00,9.7907717573e-03,9.0866185453e-01,-3.360211849e-06,3.749504685e-06,3.18843750e+02,-6.33437500e+01,-3.911554813e-08,-1.378357410e-07,9.7950622555e-01,-2.260808457e-10,2.466258656e+00,-8.14319634e-09,30,201600.0,-1.955777407e-08,4.98481e-05,2.95586e-12,0.00000,TRUE,1.458581987e-04,4.00000000e+00*52d2648c
#GPSEPHEMA,USB3_1,9,85.5,SATTIME,2020,376320.000,00000000,1214,14392;5,376320.0,0,72,72,2020,2020,381600.0,2.656149727e+07,5.091283501e-09,2.757835477e+00,5.6454004953e-03,6.9127086305e-01,-3.088265657e-06,5.664303899e-06,2.64718750e+02,-5.73125000e+01,1.862645149e-08,-4.842877388e-08,9.4851444649e-01,-4.757341019e-10,2.423494629e+00,-8.40142138e-09,72,381600.0,-1.117587090e-08,-1.53342e-06,3.41061e-13,0.00000,TRUE,1.458496030e-04,4.00000000e+00*2585608d
#GPSEPHEMA,USB3_1,8,85.5,SATTIME,2020,368910.000,00000000,1214,14392;6,368910.0,0,8,8,2020,2020,374384.0,2.656064688e+07,4.581262257e-09,-9.3278781235e-01,9.6928596031e-04,-1.132094344e+00,2.678483725e-06,6.252899766e-06,2.65625000e+02,5.05937500e+01,1.490116119e-08,-2.235174179e-08,9.7199376378e-01,3.593006806e-10,1.395526275e+00,-8.18998400e-09,8,374384.0,4.656612873e-09,3.57946e-04,-5.34328e-12,0.00000,TRUE,1.458560973e-04,4.00000000e+00*6389ea9d
#GPSEPHEMA,USB3_1,7,85.5,SATTIME,2020,367200.000,00000000,1214,14392;7,367200.0,0,48,48,2020,2020,374400.0,2.656000025e+07,4.874488756e-09,-1.851037737e+00,1.2097911327e-02,-2.489227554e+00,4.086643457e-06,4.470348358e-06,2.87781250e+02,8.36875000e+01,1.396983862e-07,-1.266598701e-07,9.5718983304e-01,6.246688771e-10,-1.726062780e+00,-8.33749015e-09,48,374400.0,-1.117587090e-08,1.16926e-04,-6.70752e-12,0.00000,TRUE,1.458617169e-04,4.00000000e+00*48681dbf
#GPSEPHEMA,USB3_1,6,85.5,SATTIME,2020,376320.000,00000000,1214,14392;13,376320.0,0,106,106,2020,2020,381600.0,2.656041713e+07,3.944092859e-09,8.3457881110e-01,3.4268902382e-03,1.457767654e+00,1.750886440e-06,1.290813088e-05,1.33531250e+02,3.38750000e+01,-2.048909664e-08,-5.774199963e-08,9.6868601384e-01,3.357282701e-11,-2.669875238e+00,-7.83354058e-09,106,381600.0,-1.117587090e-08,-8.83196e-05,7.95808e-13,0.00000,TRUE,1.458573525e-04,4.00000000e+00*ec3c88cf
#GPSEPHEMA,USB3_1,5,85.5,SATTIME,2020,376320.000,00000000,1214,14392;15,376320.0,0,52,52,2020,2020,381600.0,2.655936395e+07,4.888417908e-09,1.117089404e+00,1.0766466963e-02,7.0759225093e-01,3.557652235e-07,1.274049282e-05,1.19562500e+02,2.53125000e+00,-1.825392246e-07,1.862645149e-08,9.2865216342e-01,-2.875119760e-10,-2.877172192e+00,-8.28534512e-09,52,381600.0,-1.071020961e-08,-3.44745e-04,1.02318e-12,0.00000,TRUE,1.458669724e-04,4.00000000e+00*b655e32b
#GPSEPHEMA,USB3_1,4,85.5,SATTIME,2020,375150.000,00000000,1214,14392;20,375150.0,0,39,39,2020,2020,381600.0,2.656028875e+07,5.501300580e-09,-2.9190818365e-01,4.3110455154e-03,2.113545753e+00,-2.590939403e-06,5.003064871e-06,2.69968750e+02,-5.09062500e+01,-9.685754776e-08,-1.154839993e-07,9.2902864392e-01,-3.950164540e-10,2.333401875e+00,-8.69321925e-09,39,381600.0,-8.381903172e-09,5.16436e-04,5.68434e-13,0.00000,TRUE,1.458599672e-04,4.00000000e+00*e3106dd2
#GPSEPHEMA,USB3_1,3,85.5,SATTIME,2020,376320.000,00000000,1214,14392;21,376320.0,0,53,53,2020,2020,381600.0,2.655980430e+07,4.939848622e-09,-1.918741495e+00,2.4352147710e-02,-1.524276042e+00,3.505498171e-06,5.891546607e-06,2.54750000e+02,6.20625000e+01,2.980232239e-07,4.116445780e-07,9.4503455059e-01,3.428714248e-10,1.346137299e+00,-8.13069582e-09,53,381600.0,-1.024454832e-08,-3.30487e-04,6.02540e-12,0.00000,TRUE,1.458633963e-04,4.00000000e+00*e68106b5
#GPSEPHEMA,USB3_1,2,85.5,SATTIME,2020,376320.000,00000000,1214,14392;24,376320.0,0,166,166,2020,2020,381600.0,2.655986059e+07,5.261647740e-09,2.1405922335e-01,7.2913578479e-03,5.3564054975e-01,4.308298230e-06,5.222856998e-06,2.69500000e+02,8.15312500e+01,4.470348358e-08,7.450580597e-08,9.4032856841e-01,4.253748614e-10,-1.788000359e+00,-8.69000483e-09,166,381600.0,2.793967724e-09,-5.59646e-05,-5.68434e-13,0.00000,TRUE,1.458632545e-04,4.00000000e+00*39a965b2
#GPSEPHEMA,USB3_1,1,85.5,SATTIME,2020,374400.000,00000000,1214,14392;29,374400.0,0,45,45,2020,2020,381600.0,2.655990209e+07,3.851946163e-09,2.597050148e+00,7.7061564662e-04,1.628213562e+00,-1.035630703e-06,1.202896237e-05,1.57656250e+02,-2.10625000e+01,1.862645149e-08,-9.126961231e-08,9.8492011671e-01,6.321691895e-11,4.1339754972e-01,-7.64103257e-09,45,381600.0,-1.024454832e-08,3.68367e-04,-7.50333e-12,0.00000,TRUE,1.458615029e-04,4.00000000e+00*48f1f602
#GPSEPHEMA,USB3_1,0,85.5,SATTIME,2020,376320.000,00000000,1214,14392;30,376320.0,0,63,63,2020,2020,381584.0,2.656044045e+07,5.202002399e-09,-8.2525208075e-01,3.6281789653e-03,-2.973688750e+00,4.420056939e-06,4.116445780e-06,2.86656250e+02,8.59062500e+01,1.005828381e-07,-4.842877388e-08,9.4273520909e-01,4.768055752e-10,-1.694333604e+00,-8.66643242e-09,63,381584.0,3.725290298e-09,1.83098e-05,-5.34328e-12,0.00000,TRUE,1.458584184e-04,4.00000000e+00*978c7c36
#RANGEA,USB3_1,0,84.5,FINESTEERING,2020,376360.000,00000000,5103,14392;14,5,0,22240108.222,0.040,-116872550.440861,0.005,-2211.318,49.1,133.840,18109c04,5,0,22240105.343,0.269,-91069508.325372,0.006,-1723.105,40.1,117.280,11303c0b,30,0,25160249.516,0.188,-132218001.792326,0.022,-3168.459,37.6,85.190,08109c84,30,0,25160251.108,0.614,-103027012.691892,0.032,-2468.930,34.6,78.260,01303c8b,24,0,21723614.482,0.057,-114158363.267309,0.007,3061.925,46.9,109.900,18109ce4,24,0,21723614.265,0.201,-88954569.315691,0.008,2385.916,43.1,102.280,11303ceb,2,0,24801028.280,0.112,-130330278.860220,0.017,-3699.597,40.6,119.950,18109d24,2,0,24801027.051,0.720,-101556061.867786,0.024,-2882.810,32.0,105.260,11303d2b,13,0,21177464.289,0.044,-111288329.231886,0.007,-2031.851,48.2,137.920,08109d84,13,0,21177461.176,0.228,-86718164.207434,0.008,-1583.261,41.5,115.760,01303d8b,15,0,20308931.813,0.034,-106724153.114090,0.004,260.346,50.6,138.510,18109dc4,15,0,20308928.275,0.150,-83161666.807026,0.005,202.867,45.1,117.240,11303dcb,21,0,22593464.418,0.052,-118729459.602417,0.008,1724.130,46.8,133.700,18109de4,21,0,22593460.881,0.276,-92516448.515112,0.008,1343.479,39.9,117.220,11303deb*b7c17e4e
#BESTPOSA,USB3_1,0,84.5,FINESTEERING,2020,376360.000,00000000,b1f6,14392;SOL_COMPUTED,SINGLE,36.76877741416,126.93553216985,77.3175,23.3000,WGS84,2.6268,2.1579,5.5843,"",0.000,0.000,7,6,6,6,00,06,00,03*5f485dbb
#BESTXYZA,USB3_1,0,84.5,FINESTEERING,2020,376360.000,00000000,fac1,14392;SOL_COMPUTED,SINGLE,-3073970.9168,4088861.2683,3796929.2680,4.0087,4.5616,2.4212,SOL_COMPUTED,DOPPLER_VELOCITY,-0.0155,0.0138,0.0376,0.4791,0.5452,0.2894,"",0.000,0.000,0.000,7,6,6,6,0,06,00,03*2067052d
#SATXYZ2A,USB3_1,0,84.5,FINESTEERING,2020,376360.000,00000000,7513,14392;6,GPS,5,-24611156.2271,3983092.5955,9341294.4096,-460.420,-0.927,4.042,0.0,0.0,GPS,24,-14888800.6781,21790292.5867,-475745.6647,-16775.067,-1.968,3.727,0.0,0.0,GPS,2,-19361868.3141,11399825.6416,-13411843.0438,-4065.494,4.559,24.786,0.0,0.0,GPS,13,-14140981.1943,5063464.4163,21795138.5879,-26475.630,-1.662,3.135,0.0,0.0,GPS,15,-6445465.9786,17589238.5784,18447458.0314,-103352.892,-2.506,2.636,0.0,0.0,GPS,21,4387608.4820,18393023.6917,19472162.1911,-99076.604,-1.612,3.734,0.0,0.0*9b20072a
#RANGEA,USB3_1,0,84.5,FINESTEERING,2020,376361.000,00000000,5103,14392;14,5,0,22240529.094,0.040,-116874762.199379,0.005,-2211.712,49.1,134.840,18109c04,5,0,22240526.229,0.257,-91071231.772528,0.006,-1723.412,40.4,118.280,11303c0b,30,0,25160852.509,0.199,-132221170.682993,0.024,-3168.898,37.1,86.190,08109c84,30,0,25160854.005,0.652,-103029481.950578,0.033,-2469.273,34.0,79.260,01303c8b,24,0,21723031.877,0.056,-114155301.722826,0.007,3061.466,47.0,110.900,18109ce4,24,0,21723031.687,0.203,-88952183.698523,0.008,2385.559,43.0,103.280,11303ceb,2,0,24801732.319,0.111,-130333978.546547,0.020,-3699.479,40.7,120.950,18109d24,2,0,24801731.014,0.640,-101558944.751200,0.027,-2882.713,32.9,106.260,11303d2b,13,0,21177851.003,0.044,-111290361.447569,0.007,-2032.259,48.1,138.920,08109d84,13,0,21177847.908,0.232,-86719747.751739,0.007,-1583.579,41.3,116.760,01303d8b,15,0,20308882.359,0.034,-106723893.233881,0.004,259.833,50.6,139.510,18109dc4,15,0,20308878.827,0.148,-83161464.303427,0.005,202.467,45.2,118.240,11303dcb,21,0,22593136.431,0.052,-118727736.018902,0.007,1723.547,46.8,134.700,18109de4,21,0,22593132.869,0.274,-92515105.463903,0.008,1343.024,39.9,118.220,11303deb*1e0b9265
#BESTPOSA,USB3_1,0,84.5,FINESTEERING,2020,376361.000,00000000,b1f6,14392;SOL_COMPUTED,SINGLE,36.76877735038,126.93553228002,77.3378,23.3000,WGS84,2.6267,2.1579,5.5834,"",0.000,0.000,7,6,6,6,00,06,00,03*5e60f85e
#BESTXYZA,USB3_1,0,84.5,FINESTEERING,2020,376361.000,00000000,fac1,14392;SOL_COMPUTED,SINGLE,-3073970.9369,4088861.2788,3796929.2744,4.0086,4.5608,2.4209,SOL_COMPUTED,DOPPLER_VELOCITY,0.0068,-0.0069,-0.0015,0.4791,0.5451,0.2894,"",0.000,0.000,0.000,7,6,6,6,0,06,00,03*6f254879
#SATXYZ2A,USB3_1,0,84.5,FINESTEERING,2020,376361.000,00000000,7513,14392;6,GPS,5,-24612315.9986,3982685.2217,9338468.7168,-460.419,-0.927,4.043,0.0,0.0,GPS,24,-14889132.7914,21790116.0861,-472597.3499,-16775.068,-1.967,3.727,0.0,0.0,GPS,2,-19361075.1650,11398175.4743,-13414308.9069,-4065.499,4.562,24.813,0.0,0.0,GPS,13,-14141735.4941,5060776.9353,21795274.4916,-26475.630,-1.661,3.135,0.0,0.0,GPS,15,-6446763.6642,17587189.9926,18448978.6025,-103352.892,-2.506,2.636,0.0,0.0,GPS,21,4386185.7983,18394847.7589,19470703.9134,-99076.600,-1.613,3.734,0.0,0.0*f0ea09dd
#RANGEA,USB3_1,0,84.0,FINESTEERING,2020,376362.000,00000000,5103,14392;14,5,0,22240949.979,0.040,-116876974.016304,0.005,-2211.974,49.1,135.840,18109c04,5,0,22240947.144,0.243,-91072955.266820,0.006,-1723.617,40.9,119.280,11303c0b,30,0,25161455.500,0.205,-132224339.582407,0.025,-3168.885,36.8,87.190,08109c84,30,0,25161456.950,0.581,-103031951.227268,0.032,-2469.261,34.9,80.260,01303c8b,24,0,21722449.312,0.055,-114152240.340919,0.007,3061.196,47.1,111.900,18109ce4,24,0,21722449.132,0.208,-88949798.208574,0.008,2385.349,42.8,104.280,11303ceb,2,0,24802436.351,0.112,-130337678.069159,0.019,-3699.586,40.6,121.950,18109d24,2,0,24802435.066,0.636,-101561827.493426,0.026,-2882.797,33.0,107.260,11303d2b,13,0,21178237.727,0.044,-111292393.706934,0.007,-2032.402,48.2,139.920,08109d84,13,0,21178234.645,0.233,-86721331.332072,0.008,-1583.690,41.2,117.760,01303d8b,15,0,20308832.932,0.034,-106723633.522133,0.005,259.493,50.5,140.510,18109dc4,15,0,20308829.413,0.150,-83161261.931884,0.005,202.202,45.1,119.240,11303dcb,21,0,22592808.492,0.052,-118726012.659691,0.007,1723.299,46.8,135.700,18109de4,21,0,22592804.911,0.287,-92513762.586400,0.008,1342.831,39.4,119.220,11303deb*8269232e
#BESTPOSA,USB3_1,0,84.0,FINESTEERING,2020,376362.000,00000000,b1f6,14392;SOL_COMPUTED,SINGLE,36.76877730471,126.93553241427,77.4041,23.3000,WGS84,2.6267,2.1580,5.5827,"",0.000,0.000,7,6,6,6,00,06,00,03*b26c04a0
#BESTXYZA,USB3_1,0,84.0,FINESTEERING,2020,376362.000,00000000,fac1,14392;SOL_COMPUTED,SINGLE,-3073970.9803,4088861.3165,3796929.3101,4.0086,4.5601,2.4207,SOL_COMPUTED,DOPPLER_VELOCITY,0.0149,0.0124,0.0158,0.4791,0.5450,0.2893,"",0.000,0.000,0.000,7,6,6,6,0,06,00,03*bc3f9e51
#SATXYZ2A,USB3_1,0,84.0,FINESTEERING,2020,376362.000,00000000,7513,14392;6,GPS,5,-24613475.4405,3982277.9540,9335642.8268,-460.419,-0.927,4.043,0.0,0.0,GPS,24,-14889464.6870,21789939.2774,-469449.0250,-16775.069,-1.968,3.726,0.0,0.0,GPS,2,-19360281.9288,11396524.9983,-13416774.4716,-4065.503,4.558,24.840,0.0,0.0,GPS,13,-14142489.9573,5058089.4825,21795409.9268,-26475.630,-1.661,3.135,0.0,0.0,GPS,15,-6448061.5414,17585141.3039,18450498.7688,-103352.893,-2.506,2.636,0.0,0.0,GPS,21,4384763.3164,18396671.7648,19469245.2476,-99076.596,-1.613,3.734,0.0,0.0*db8b190a
#RANGEA,USB3_1,0,84.0,FINESTEERING,2020,376363.000,00000000,5103,14392;14,5,0,22241370.902,0.041,-116879186.060583,0.005,-2212.291,49.0,136.840,18109c04,5,0,22241368.086,0.247,-91074678.932948,0.006,-1723.865,40.7,120.280,11303c0b,30,0,25162058.553,0.199,-132227508.696569,0.024,-3169.161,37.0,88.190,08109c84,30,0,25162060.220,0.787,-103034420.675213,0.033,-2469.473,32.2,81.260,01303c8b,24,0,21721866.807,0.055,-114149179.333124,0.007,3060.762,47.1,112.900,18109ce4,24,0,21721866.622,0.218,-88947413.008813,0.008,2385.010,42.3,105.280,11303ceb,2,0,24803140.330,0.111,-130341377.575447,0.016,-3699.460,40.6,122.950,18109d24,2,0,24803139.074,0.679,-101564710.226014,0.026,-2882.701,32.4,108.260,11303d2b,13,0,21178624.495,0.044,-111294426.203136,0.008,-2032.668,48.2,140.920,08109d84,13,0,21178621.409,0.234,-86722915.095730,0.009,-1583.898,41.1,118.760,01303d8b,15,0,20308783.577,0.034,-106723374.167032,0.005,259.109,50.5,141.510,18109dc4,15,0,20308780.060,0.150,-83161059.836809,0.005,201.903,45.0,120.240,11303dcb,21,0,22592480.624,0.053,-118724289.723259,0.007,1722.605,46.7,136.700,18109de4,21,0,22592477.036,0.276,-92512420.039660,0.008,1342.290,39.8,120.220,11303deb*96d0a74a
#BESTPOSA,USB3_1,0,84.0,FINESTEERING,2020,376363.000,00000000,b1f6,14392;SOL_COMPUTED,SINGLE,36.76879713849,126.93553576172,72.7894,23.3000,WGS84,1.5569,2.1396,3.4166,"",0.000,0.000,7,7,7,7,00,06,00,03*5b911dd2
#BESTXYZA,USB3_1,0,84.0,FINESTEERING,2020,376363.000,00000000,fac1,14392;SOL_COMPUTED,SINGLE,-3073968.2060,4088857.1290,3796928.3109,2.9977,2.1744,2.2273,SOL_COMPUTED,DOPPLER_VELOCITY,0.0010,-0.0042,-0.0012,0.3583,0.2599,0.2662,"",0.000,0.000,0.000,7,7,7,7,0,06,00,03*44e2b112
#SATXYZ2A,USB3_1,0,84.0,FINESTEERING,2020,376363.000,00000000,7513,14392;7,GPS,5,-24614634.5528,3981870.7924,9332816.7395,-460.419,-0.927,4.044,0.0,0.0,GPS,30,-9268208.0027,-12933921.0545,21268651.8246,5498.877,1.808,22.067,0.0,0.0,GPS,24,-14889796.3647,21789762.1606,-466300.6898,-16775.070,-1.969,3.725,0.0,0.0,GPS,2,-19359488.6056,11394874.2138,-13419239.7377,-4065.508,4.559,24.867,0.0,0.0,GPS,13,-14143244.5837,5055402.0580,21795544.8936,-26475.630,-1.661,3.136,0.0,0.0,GPS,15,-6449359.6103,17583092.5124,18452018.5305,-103352.894,-2.506,2.636,0.0,0.0,GPS,21,4383341.0365,18398495.7093,19467786.1937,-99076.592,-1.613,3.733,0.0,0.0*946a4e63
#RANGEA,USB3_1,0,83.5,FINESTEERING,2020,376364.000,00000000,5103,14392;14,5,0,22241791.871,0.041,-116881398.334730,0.005,-2212.404,48.9,137.840,18109c04,5,0,22241789.065,0.248,-91076402.779348,0.006,-1723.953,40.7,121.280,11303c0b,30,0,25162661.657,0.198,-132230678.002035,0.029,-3169.585,37.0,89.190,08109c84,30,0,25162663.238,1.482,-103036890.270125,0.034,-2469.807,31.7,82.260,01303c8b,24,0,21721284.381,0.054,-114146118.715059,0.007,3060.438,47.2,113.900,18109ce4,24,0,21721284.198,0.209,-88945028.110520,0.007,2384.757,42.7,106.280,11303ceb,2,0,24803844.309,0.109,-130345077.086620,0.017,-3699.495,40.7,123.950,18109d24,2,0,24803843.187,0.546,-101567592.940865,0.026,-2882.731,34.2,109.260,11303d2b,13,0,21179011.311,0.044,-111296458.944946,0.006,-2032.823,48.2,141.920,08109d84,13,0,21179008.217,0.210,-86724499.046505,0.007,-1584.019,42.1,119.760,01303d8b,15,0,20308734.291,0.034,-106723115.171211,0.004,258.863,50.6,142.510,18109dc4,15,0,20308730.771,0.150,-83160858.022082,0.005,201.712,45.0,121.240,11303dcb,21,0,22592152.842,0.052,-118722567.192799,0.007,1722.407,46.9,137.700,18109de4,21,0,22592149.235,0.277,-92511077.807489,0.008,1342.136,39.7,121.220,11303deb*aa18ca03
#BESTPOSA,USB3_1,0,83.5,FINESTEERING,2020,376364.000,00000000,b1f6,14392;SOL_COMPUTED,SINGLE,36.76879704106,126.93553586640,72.7965,23.3000,WGS84,1.5569,2.1397,3.4162,"",0.000,0.000,7,7,7,7,00,06,00,03*39158b84
#BESTXYZA,USB3_1,0,83.5,FINESTEERING,2020,376364.000,00000000,fac1,14392;SOL_COMPUTED,SINGLE,-3073968.2208,4088857.1331,3796928.3065,2.9976,2.1740,2.2271,SOL_COMPUTED,DOPPLER_VELOCITY,-0.0181,0.0438,0.0260,0.3583,0.2598,0.2662,"",0.000,0.000,0.000,7,7,7,7,0,06,00,03*1133e03f
#SATXYZ2A,USB3_1,0,83.5,FINESTEERING,2020,376364.000,00000000,7513,14392;7,GPS,5,-24615793.3354,3981463.7370,9329990.4550,-460.418,-0.925,4.044,0.0,0.0,GPS,30,-9266409.7356,-12935942.3428,21268188.5375,5498.876,1.805,22.085,0.0,0.0,GPS,24,-14890127.8247,21789584.7357,-463152.3445,-16775.070,-1.969,3.725,0.0,0.0,GPS,2,-19358695.1954,11393223.1206,-13421704.7052,-4065.513,4.559,24.894,0.0,0.0,GPS,13,-14143999.3733,5052714.6618,21795679.3919,-26475.630,-1.661,3.136,0.0,0.0,GPS,15,-6450657.8708,17581043.6181,18453537.8874,-103352.895,-2.506,2.636,0.0,0.0,GPS,21,4381918.9585,18400319.5924,19466326.7517,-99076.589,-1.614,3.733,0.0,0.0*8fb21efc
#RANGEA,USB3_1,0,83.5,FINESTEERING,2020,376365.000,00000000,5103,14392;14,5,0,22242212.849,0.041,-116883610.668495,0.005,-2212.446,48.8,138.840,18109c04,5,0,22242210.037,0.239,-91078126.676049,0.007,-1723.985,40.9,122.280,11303c0b,30,0,25163264.804,0.195,-132233847.392841,0.070,-3169.830,37.1,90.190,08109c84,30,0,25163266.341,0.732,-103039359.899319,0.080,-2470.002,32.8,83.260,01303c8b,24,0,21720701.996,0.053,-114143058.304831,0.007,3060.185,47.2,114.900,18109ce4,24,0,21720701.830,0.202,-88942643.376496,0.007,2384.561,42.9,107.280,11303ceb,2,0,24804548.287,0.110,-130348776.423586,0.017,-3699.419,40.6,124.950,18109d24,2,0,24804547.183,0.509,-101570475.538642,0.026,-2882.670,34.8,110.260,11303d2b,13,0,21179398.142,0.045,-111298491.750702,0.006,-2033.071,48.1,142.920,08109d84,13,0,21179395.023,0.225,-86726083.050024,0.007,-1584.212,41.4,120.760,01303d8b,15,0,20308685.043,0.034,-106722856.381605,0.005,258.556,50.6,143.510,18109dc4,15,0,20308681.522,0.146,-83160656.368313,0.006,201.472,45.2,122.240,11303dcb,21,0,22591825.103,0.051,-118720844.914991,0.008,1721.999,46.9,138.700,18109de4,21,0,22591821.495,0.265,-92509735.773930,0.009,1341.818,40.0,122.220,11303deb*9a635a70
#BESTPOSA,USB3_1,0,83.5,FINESTEERING,2020,376365.000,00000000,b1f6,14392;SOL_COMPUTED,SINGLE,36.76879689550,126.93553594415,72.8258,23.3000,WGS84,1.5568,2.1398,3.4157,"",0.000,0.000,7,7,7,7,00,06,00,03*568a3078
#BESTXYZA,USB3_1,0,83.5,FINESTEERING,2020,376365.000,00000000,fac1,14392;SOL_COMPUTED,SINGLE,-3073968.2463,4088857.1554,3796928.3111,2.9975,2.1736,2.2270,SOL_COMPUTED,DOPPLER_VELOCITY,-0.0467,0.0593,0.0257,0.3583,0.2598,0.2662,"",0.000,0.000,0.000,7,7,7,7,0,06,00,03*0b3dc28a
#SATXYZ2A,USB3_1,0,83.5,FINESTEERING,2020,376365.000,00000000,7513,14392;7,GPS,5,-24616951.7883,3981056.7876,9327163.9735,-460.418,-0.924,4.047,0.0,0.0,GPS,30,-9264611.6156,-12937963.6870,21267724.7980,5498.874,1.803,22.117,0.0,0.0,GPS,24,-14890459.0671,21789407.0027,-460003.9892,-16775.071,-1.969,3.727,0.0,0.0,GPS,2,-19357901.6984,11391571.7188,-13424169.3741,-4065.518,4.567,24.937,0.0,0.0,GPS,13,-14144754.3262,5050027.2940,21795813.4218,-26475.630,-1.660,3.138,0.0,0.0,GPS,15,-6451956.3231,17578994.6211,18455056.8396,-103352.895,-2.506,2.638,0.0,0.0,GPS,21,4380497.0825,18402143.4140,19464866.9217,-99076.585,-1.613,3.735,0.0,0.0*ec2ca432
#RANGEA,USB3_1,0,84.5,FINESTEERING,2020,376366.000,00000000,5103,14392;14,5,0,22242633.908,0.041,-116885823.459194,0.005,-2212.955,48.8,139.840,18109c04,5,0,22242631.115,0.230,-91079850.929627,0.007,-1724.381,41.2,123.280,11303c0b,30,0,25163867.996,0.200,-132237017.152428,0.047,-3169.791,36.8,91.190,08109c84,30,0,25163869.493,0.560,-103041829.841756,0.055,-2469.969,35.1,84.260,01303c8b,24,0,21720119.727,0.053,-114139998.473618,0.007,3059.543,47.3,115.900,18109ce4,24,0,21720119.570,0.211,-88940259.093993,0.008,2384.061,42.5,108.280,11303ceb,2,0,24805252.288,0.108,-130352475.951078,0.016,-3699.467,40.7,125.950,18109d24,2,0,24805251.210,0.560,-101573358.271885,0.025,-2882.709,33.9,111.260,11303d2b,13,0,21179785.060,0.044,-111300525.001234,0.007,-2033.397,48.3,143.920,08109d84,13,0,21179781.921,0.214,-86727667.399449,0.008,-1584.466,41.8,121.760,01303d8b,15,0,20308635.902,0.033,-106722598.153629,0.005,257.983,50.7,144.510,18109dc4,15,0,20308632.385,0.147,-83160455.152700,0.006,201.026,45.0,123.240,11303dcb,21,0,22591497.488,0.051,-118719123.264864,0.008,1721.451,46.9,139.700,18109de4,21,0,22591493.879,0.270,-92508394.229051,0.009,1341.392,39.9,123.220,11303deb*7d7b0823
#BESTPOSA,USB3_1,0,84.5,FINESTEERING,2020,376366.000,00000000,b1f6,14392;SOL_COMPUTED,SINGLE,36.76879689043,126.93553608364,72.8313,23.3000,WGS84,1.5570,2.1399,3.4155,"",0.000,0.000,7,7,7,7,00,06,00,03*5712d373
#BESTXYZA,USB3_1,0,84.5,FINESTEERING,2020,376366.000,00000000,fac1,14392;SOL_COMPUTED,SINGLE,-3073968.2591,4088857.1517,3796928.3140,2.9975,2.1736,2.2269,SOL_COMPUTED,DOPPLER_VELOCITY,0.0140,-0.0103,0.0006,0.3583,0.2598,0.2662,"",0.000,0.000,0.000,7,7,7,7,0,06,00,03*784a503b
#SATXYZ2A,USB3_1,0,84.5,FINESTEERING,2020,376366.000,00000000,7513,14392;7,GPS,5,-24618109.9116,3980649.9442,9324337.2949,-460.418,-0.924,4.048,0.0,0.0,GPS,30,-9262813.6426,-12939985.0872,21267260.6062,5498.872,1.813,22.135,0.0,0.0,GPS,24,-14890790.0917,21789228.9615,-456855.6239,-16775.072,-1.969,3.726,0.0,0.0,GPS,2,-19357108.1144,11389920.0085,-13426633.7443,-4065.522,4.568,24.965,0.0,0.0,GPS,13,-14145509.4422,5047339.9546,21795946.9833,-26475.630,-1.660,3.138,0.0,0.0,GPS,15,-6453254.9669,17576945.5215,18456575.3869,-103352.896,-2.506,2.638,0.0,0.0,GPS,21,4379075.4084,18403967.1739,19463406.7036,-99076.581,-1.614,3.735,0.0,0.0*c77fc0c4
#RANGEA,USB3_1,0,84.5,FINESTEERING,2020,376367.000,00000000,5103,14392;14,5,0,22243055.026,0.042,-116888036.546885,0.006,-2213.300,48.8,140.840,18109c04,5,0,22243052.240,0.254,-91081575.412238,0.007,-1724.650,40.3,124.280,11303c0b,30,0,25164471.253,0.194,-132240187.190533,0.037,-3170.168,37.0,92.190,08109c84,30,0,25164472.557,0.572,-103044300.013700,0.044,-2470.258,34.8,85.260,01303c8b,24,0,21719537.540,0.053,-114136939.077450,0.007,3059.148,47.3,116.900,18109ce4,24,0,21719537.395,0.214,-88937875.149354,0.008,2383.752,42.3,109.280,11303ceb,2,0,24805956.285,0.106,-130356175.570753,0.017,-3699.899,40.8,126.950,18109d24,2,0,24805955.240,0.740,-101576241.086899,0.025,-2883.046,31.5,112.260,11303d2b,13,0,21180172.038,0.044,-111302558.560205,0.006,-2033.765,48.2,144.920,08109d84,13,0,21180168.884,0.249,-86729251.990253,0.007,-1584.753,40.5,122.760,01303d8b,15,0,20308586.848,0.033,-106722340.367868,0.004,257.502,50.7,145.510,18109dc4,15,0,20308583.329,0.157,-83160254.280272,0.005,200.651,44.5,124.240,11303dcb,21,0,22591169.965,0.052,-118717402.103323,0.007,1720.902,46.9,140.700,18109de4,21,0,22591166.345,0.301,-92507053.069534,0.008,1340.964,38.8,124.220,11303deb*c1f59945
#BESTPOSA,USB3_1,0,84.5,FINESTEERING,2020,376367.000,00000000,b1f6,14392;SOL_COMPUTED,SINGLE,36.76879674154,126.93553618056,72.8367,23.3000,WGS84,1.5569,2.1399,3.4149,"",0.000,0.000,7,7,7,7,00,06,00,03*d86070b8
#BESTXYZA,USB3_1,0,84.5,FINESTEERING,2020,376367.000,00000000,fac1,14392;SOL_COMPUTED,SINGLE,-3073968.2746,4088857.1579,3796928.3040,2.9974,2.1730,2.2267,SOL_COMPUTED,DOPPLER_VELOCITY,-0.0114,0.0155,0.0370,0.3583,0.2597,0.2661,"",0.000,0.000,0.000,7,7,7,7,0,06,00,03*d82fdece
#SATXYZ2A,USB3_1,0,84.5,FINESTEERING,2020,376367.000,00000000,7513,14392;7,GPS,5,-24619267.7051,3980243.2067,9321510.4193,-460.417,-0.925,4.048,0.0,0.0,GPS,30,-9261015.8167,-12942006.5432,21266795.9620,5498.871,1.813,22.153,0.0,0.0,GPS,24,-14891120.8988,21789050.6121,-453707.2488,-16775.073,-1.970,3.725,0.0,0.0,GPS,2,-19356314.4437,11388267.9895,-13429097.8157,-4065.527,4.574,24.992,0.0,0.0,GPS,13,-14146264.7214,5044652.6438,21796080.0763,-26475.631,-1.659,3.139,0.0,0.0,GPS,15,-6454553.8025,17574896.3193,18458093.5295,-103352.897,-2.507,2.638,0.0,0.0,GPS,21,4377653.9364,18405790.8723,19461946.0975,-99076.577,-1.614,3.735,0.0,0.0*74afdcf2
#RANGEA,USB3_1,0,84.5,FINESTEERING,2020,376368.000,00000000,5103,14392;14,5,0,22243476.249,0.042,-116890250.209515,0.006,-2213.742,48.7,141.840,18109c04,5,0,22243473.475,0.239,-91083300.343143,0.007,-1724.995,40.8,125.280,11303c0b,30,0,25165074.584,0.195,-132243357.800015,0.090,-3170.802,36.9,93.190,08109c84,30,0,25165075.684,0.755,-103046770.648446,0.101,-2470.747,32.3,86.260,01303c8b,24,0,21718955.491,0.052,-114133880.389723,0.007,3058.615,47.3,117.900,18109ce4,24,0,21718955.348,0.187,-88935491.758821,0.008,2383.338,43.4,110.280,11303ceb,2,0,24806660.357,0.104,-130359875.507858,0.020,-3699.804,41.0,127.950,18109d24,2,0,24806659.287,0.515,-101579124.145761,0.027,-2882.971,34.6,113.260,11303d2b,13,0,21180559.115,0.044,-111304592.695538,0.006,-2034.260,48.3,145.920,08109d84,13,0,21180555.936,0.230,-86730837.029055,0.007,-1585.138,41.1,123.760,01303d8b,15,0,20308537.927,0.033,-106722083.289789,0.004,256.824,50.7,146.510,18109dc4,15,0,20308534.414,0.145,-83160053.959501,0.005,200.123,45.1,125.240,11303dcb,21,0,22590842.584,0.052,-118715681.707762,0.007,1720.193,46.8,141.700,18109de4,21,0,22590838.972,0.253,-92505712.501210,0.008,1340.411,40.3,125.220,11303deb*42e374ed
#BESTPOSA,USB3_1,0,84.5,FINESTEERING,2020,376368.000,00000000,b1f6,14392;SOL_COMPUTED,SINGLE,36.76879674041,126.93553636046,72.8405,23.3000,WGS84,1.5569,2.1400,3.4145,"",0.000,0.000,7,7,7,7,00,06,00,03*bb2beadd
#BESTXYZA,USB3_1,0,84.5,FINESTEERING,2020,376368.000,00000000,fac1,14392;SOL_COMPUTED,SINGLE,-3073968.2893,4088857.1507,3796928.3061,2.9973,2.1728,2.2266,SOL_COMPUTED,DOPPLER_VELOCITY,-0.0209,0.0263,-0.0036,0.3582,0.2597,0.2661,"",0.000,0.000,0.000,7,7,7,7,0,06,00,03*85cd8d72
#SATXYZ2A,USB3_1,0,84.5,FINESTEERING,2020,376368.000,00000000,7513,14392;7,GPS,5,-24620425.1688,3979836.5752,9318683.3468,-460.417,-0.924,4.049,0.0,0.0,GPS,30,-9259218.1379,-12944028.0550,21266330.8655,5498.869,1.808,22.171,0.0,0.0,GPS,24,-14891451.4882,21788871.9545,-450558.8637,-16775.074,-1.970,3.725,0.0,0.0,GPS,2,-19355520.6863,11386615.6621,-13431561.5883,-4065.532,4.576,25.019,0.0,0.0,GPS,13,-14147020.1638,5041965.3615,21796212.7008,-26475.631,-1.659,3.139,0.0,0.0,GPS,15,-6455852.8296,17572847.0146,18459611.2672,-103352.897,-2.507,2.638,0.0,0.0,GPS,21,4376232.6663,18407614.5090,19460485.1034,-99076.573,-1.616,3.734,0.0,0.0*de8d703c
#RANGEA,USB3_1,0,84.5,FINESTEERING,2020,376369.000,00000000,5103,14392;14,5,0,22243897.513,0.043,-116892464.055527,0.006,-2213.723,48.6,142.840,18109c04,5,0,22243894.747,0.205,-91085025.414519,0.007,-1724.980,42.1,126.280,11303c0b,30,0,25165677.982,0.190,-132246528.549648,0.059,-3170.981,37.1,94.190,08109c84,30,0,25165678.922,0.453,-103049241.369139,0.067,-2470.887,36.8,87.260,01303c8b,24,0,21718373.492,0.052,-114130822.005638,0.007,3058.443,47.3,118.900,18109ce4,24,0,21718373.357,0.177,-88933108.604047,0.008,2383.203,43.9,111.280,11303ceb,2,0,24807364.413,0.105,-130363575.416866,0.018,-3699.750,40.8,128.950,18109d24,2,0,24807363.367,0.553,-101582007.167678,0.026,-2882.934,33.9,114.260,11303d2b,13,0,21180946.230,0.044,-111306627.003044,0.006,-2034.157,48.3,146.920,08109d84,13,0,21180943.050,0.202,-86732422.204310,0.007,-1585.058,42.3,124.760,01303d8b,15,0,20308489.063,0.033,-106721826.525970,0.004,256.831,50.6,147.510,18109dc4,15,0,20308485.558,0.133,-83159853.886366,0.005,200.129,45.9,126.240,11303dcb,21,0,22590515.266,0.053,-118713961.664768,0.006,1720.042,46.7,142.700,18109de4,21,0,22590511.653,0.243,-92504372.206046,0.008,1340.293,40.6,126.220,11303deb*48532bc2
#BESTPOSA,USB3_1,0,84.5,FINESTEERING,2020,376369.000,00000000,b1f6,14392;SOL_COMPUTED,SINGLE,36.76879656017,126.93553638486,72.8686,23.3000,WGS84,1.5569,2.1401,3.4140,"",0.000,0.000,7,7,7,7,00,06,00,03*0eea8428
#BESTXYZA,USB3_1,0,84.5,FINESTEERING,2020,376369.000,00000000,fac1,14392;SOL_COMPUTED,SINGLE,-3073968.3118,4088857.1770,3796928.3069,2.9972,2.1723,2.2265,SOL_COMPUTED,DOPPLER_VELOCITY,-0.0587,0.0719,0.0446,0.3582,0.2596,0.2661,"",0.000,0.000,0.000,7,7,7,7,0,06,00,03*360dd398
#SATXYZ2A,USB3_1,0,84.5,FINESTEERING,2020,376369.000,00000000,7513,14392;7,GPS,5,-24621582.3027,3979430.0496,9315856.0774,-460.417,-0.924,4.049,0.0,0.0,GPS,30,-9257420.6063,-12946049.6226,21265865.3167,5498.868,1.797,22.189,0.0,0.0,GPS,24,-14891781.8601,21788692.9887,-447410.4689,-16775.074,-1.971,3.724,0.0,0.0,GPS,2,-19354726.8421,11384963.0260,-13434025.0620,-4065.537,4.579,25.047,0.0,0.0,GPS,13,-14147775.7694,5039278.1079,21796344.8570,-26475.631,-1.658,3.139,0.0,0.0,GPS,15,-6457152.0484,17570797.6074,18461128.5999,-103352.898,-2.507,2.638,0.0,0.0,GPS,21,4374811.5983,18409438.0839,19459023.7214,-99076.569,-1.616,3.734,0.0,0.0*2df2c9a1
#RANGEA,USB3_1,0,84.0,FINESTEERING,2020,376370.000,00000000,5103,14392;14,5,0,22244318.837,0.042,-116894678.239861,0.006,-2214.417,48.7,143.840,18109c04,5,0,22244316.081,0.210,-91086750.750663,0.007,-1725.522,41.9,127.280,11303c0b,30,0,25166281.411,0.194,-132249699.595490,0.041,-3171.331,36.8,95.190,08109c84,30,0,25166282.346,0.545,-103051712.312660,0.049,-2471.162,35.1,88.260,01303c8b,24,0,21717791.580,0.051,-114127764.087830,0.007,3057.528,47.4,119.900,18109ce4,24,0,21717791.454,0.171,-88930725.812759,0.008,2382.491,44.2,112.280,11303ceb,2,0,24808068.500,0.104,-130367275.401379,0.018,-3700.026,40.9,129.950,18109d24,2,0,24808067.463,0.706,-101584890.268275,0.027,-2883.148,31.8,115.260,11303d2b,13,0,21181333.398,0.043,-111308661.657768,0.006,-2034.943,48.6,147.920,08109d84,13,0,21181330.230,0.207,-86734007.649278,0.007,-1585.671,42.0,125.760,01303d8b,15,0,20308440.284,0.033,-106721570.223841,0.004,255.995,50.7,148.510,18109dc4,15,0,20308436.790,0.132,-83159654.172727,0.005,199.478,45.9,127.240,11303dcb,21,0,22590188.051,0.052,-118712242.145298,0.007,1719.218,46.8,143.700,18109de4,21,0,22590184.414,0.231,-92503032.320616,0.008,1339.651,41.0,127.220,11303deb*e8c78119
#BESTPOSA,USB3_1,0,84.0,FINESTEERING,2020,376370.000,00000000,b1f6,14392;SOL_COMPUTED,SINGLE,36.76879651289,126.93553652496,72.8851,23.3000,WGS84,1.5570,2.1402,3.4138,"",0.000,0.000,7,7,7,7,00,06,00,03*4185d950
#BESTXYZA,USB3_1,0,84.0,FINESTEERING,2020,376370.000,00000000,fac1,14392;SOL_COMPUTED,SINGLE,-3073968.3316,4088857.1825,3796928.3126,2.9972,2.1723,2.2264,SOL_COMPUTED,DOPPLER_VELOCITY,-0.0024,0.0146,0.0058,0.3582,0.2596,0.2661,"",0.000,0.000,0.000,7,7,7,7,0,06,00,03*b4362e58
#SATXYZ2A,USB3_1,0,84.0,FINESTEERING,2020,376370.000,00000000,7513,14392;7,GPS,5,-24622739.1067,3979023.6298,9313028.6113,-460.416,-0.922,4.050,0.0,0.0,GPS,30,-9255623.2219,-12948071.2458,21265399.3156,5498.866,1.794,22.207,0.0,0.0,GPS,24,-14892112.0146,21788513.7145,-444262.0645,-16775.075,-1.971,3.724,0.0,0.0,GPS,2,-19353932.9114,11383310.0815,-13436488.2368,-4065.542,4.588,25.074,0.0,0.0,GPS,13,-14148531.5380,5036590.8831,21796476.5446,-26475.631,-1.658,3.140,0.0,0.0,GPS,15,-6458451.4588,17568748.0979,18462645.5278,-103352.899,-2.507,2.638,0.0,0.0,GPS,21,4373390.7322,18411261.5971,19457561.9515,-99076.565,-1.615,3.734,0.0,0.0*68277d98
#RANGEA,USB3_1,0,84.0,FINESTEERING,2020,376371.000,00000000,5103,14392;14,5,0,22244740.239,0.042,-116896892.837879,0.006,-2214.951,48.7,144.840,18109c04,5,0,22244737.489,0.196,-91088476.409657,0.007,-1725.938,42.4,128.280,11303c0b,30,0,25166884.946,0.198,-132252871.033382,0.032,-3171.344,36.7,96.190,08109c84,30,0,25166885.983,0.526,-103054183.552464,0.040,-2471.176,35.3,89.260,01303c8b,24,0,21717209.769,0.051,-114124706.695234,0.007,3057.034,47.4,120.900,18109ce4,24,0,21717209.659,0.179,-88928343.432069,0.008,2382.106,43.7,113.280,11303ceb,2,0,24808772.620,0.100,-130370975.583099,0.016,-3700.593,41.2,130.950,18109d24,2,0,24808771.596,0.614,-101587773.509741,0.024,-2883.590,32.9,116.260,11303d2b,13,0,21181720.656,0.043,-111310696.713324,0.007,-2035.336,48.6,148.920,08109d84,13,0,21181717.479,0.211,-86735593.405670,0.007,-1585.977,41.8,126.760,01303d8b,15,0,20308391.613,0.033,-106721314.473816,0.004,255.377,50.7,149.510,18109dc4,15,0,20308388.122,0.132,-83159454.888385,0.005,198.996,45.9,128.240,11303dcb,21,0,22589860.945,0.053,-118710523.214540,0.007,1718.547,46.6,144.700,18109de4,21,0,22589857.333,0.234,-92501692.891358,0.008,1339.128,40.9,128.220,11303deb*0dc03643
#BESTPOSA,USB3_1,0,84.0,FINESTEERING,2020,376371.000,00000000,b1f6,14392;SOL_COMPUTED,SINGLE,36.76879636309,126.93553658189,72.9194,23.3000,WGS84,1.5571,2.1403,3.4135,"",0.000,0.000,7,7,7,7,00,06,00,03*236541f2
#BESTXYZA,USB3_1,0,84.0,FINESTEERING,2020,376371.000,00000000,fac1,14392;SOL_COMPUTED,SINGLE,-3073968.3581,4088857.2094,3796928.3198,2.9972,2.1721,2.2262,SOL_COMPUTED,DOPPLER_VELOCITY,0.0159,-0.0234,0.0321,0.3582,0.2596,0.2661,"",0.000,0.000,0.000,7,7,7,7,0,06,00,03*acc878b1
#SATXYZ2A,USB3_1,0,84.0,FINESTEERING,2020,376371.000,00000000,7513,14392;7,GPS,5,-24623895.5809,3978617.3158,9310200.9483,-460.416,-0.922,4.050,0.0,0.0,GPS,30,-9253825.9848,-12950092.9247,21264932.8622,5498.864,1.795,22.225,0.0,0.0,GPS,24,-14892441.9515,21788334.1320,-441113.6503,-16775.076,-1.972,3.723,0.0,0.0,GPS,2,-19353138.8940,11381656.8284,-13438951.1126,-4065.546,4.590,25.102,0.0,0.0,GPS,13,-14149287.4698,5033903.6870,21796607.7638,-26475.631,-1.658,3.140,0.0,0.0,GPS,15,-6459751.0608,17566698.4860,18464162.0507,-103352.899,-2.508,2.638,0.0,0.0,GPS,21,4371970.0682,18413085.0484,19456099.7937,-99076.561,-1.615,3.733,0.0,0.0*94110465
#RANGEA,USB3_1,0,84.0,FINESTEERING,2020,376372.000,00000000,5103,14392;14,5,0,22245161.703,0.042,-116899107.766161,0.006,-2215.305,48.8,145.840,18109c04,5,0,22245158.961,0.215,-91090202.326366,0.007,-1726.213,41.6,129.280,11303c0b,30,0,25167488.483,0.197,-132256042.776918,0.029,-3171.677,36.6,97.190,08109c84,30,0,25167489.469,0.491,-103056655.033671,0.036,-2471.438,35.9,90.260,01303c8b,24,0,21716628.056,0.051,-114121649.785671,0.007,3056.502,47.4,121.900,18109ce4,24,0,21716627.965,0.173,-88925961.425301,0.008,2381.692,44.0,114.280,11303ceb,2,0,24809476.760,0.106,-130374675.827271,0.016,-3700.286,40.7,131.950,18109d24,2,0,24809475.664,0.562,-101590656.816881,0.026,-2883.346,33.7,117.260,11303d2b,13,0,21182107.978,0.043,-111312732.104708,0.006,-2035.728,48.6,149.920,08109d84,13,0,21182104.784,0.204,-86737179.426923,0.007,-1586.281,42.0,127.760,01303d8b,15,0,20308343.032,0.033,-106721059.179983,0.005,254.928,50.7,150.510,18109dc4,15,0,20308339.538,0.135,-83159255.959356,0.005,198.647,45.7,129.240,11303dcb,21,0,22589533.936,0.054,-118708804.806368,0.008,1718.171,46.4,145.700,18109de4,21,0,22589530.308,0.230,-92500353.871020,0.009,1338.835,41.0,129.220,11303deb*aaa764e0
#BESTPOSA,USB3_1,0,84.0,FINESTEERING,2020,376372.000,00000000,b1f6,14392;SOL_COMPUTED,SINGLE,36.76879643891,126.93553667121,72.9022,23.3000,WGS84,1.5571,2.1404,3.4132,"",0.000,0.000,7,7,7,7,00,06,00,03*509548a5
#BESTXYZA,USB3_1,0,84.0,FINESTEERING,2020,376372.000,00000000,fac1,14392;SOL_COMPUTED,SINGLE,-3073968.3532,4088857.1895,3796928.3162,2.9971,2.1719,2.2262,SOL_COMPUTED,DOPPLER_VELOCITY,0.0635,-0.0381,-0.0203,0.3582,0.2596,0.2661,"",0.000,0.000,0.000,7,7,7,7,0,06,00,03*64ec7311
#SATXYZ2A,USB3_1,0,84.0,FINESTEERING,2020,376372.000,00000000,7513,14392;7,GPS,5,-24625051.7252,3978211.1076,9307373.0888,-460.416,-0.921,4.050,0.0,0.0,GPS,30,-9252028.8949,-12952114.6592,21264465.9565,5498.863,1.799,22.244,0.0,0.0,GPS,24,-14892771.6710,21788154.2412,-437965.2267,-16775.077,-1.973,3.722,0.0,0.0,GPS,2,-19352344.7902,11380003.2669,-13441413.6893,-4065.551,4.596,25.129,0.0,0.0,GPS,13,-14150043.5647,5031216.5197,21796738.5145,-26475.631,-1.658,3.140,0.0,0.0,GPS,15,-6461050.8545,17564648.7718,18465678.1686,-103352.900,-2.509,2.638,0.0,0.0,GPS,21,4370549.6063,18414908.4378,19454637.2480,-99076.557,-1.614,3.733,0.0,0.0*69404171
#RANGEA,USB3_1,0,84.0,FINESTEERING,2020,376373.000,00000000,5103,14392;14,5,0,22245583.238,0.041,-116901323.057411,0.006,-2215.509,48.8,146.840,18109c04,5,0,22245580.511,0.219,-91091928.531542,0.007,-1726.370,41.4,130.280,11303c0b,30,0,25168092.117,0.199,-132259214.876490,0.029,-3172.163,36.5,98.190,08109c84,30,0,25168092.896,0.642,-103059126.788019,0.037,-2471.818,33.6,91.260,01303c8b,24,0,21716046.435,0.050,-114118593.400675,0.007,3056.062,47.4,122.900,18109ce4,24,0,21716046.351,0.178,-88923579.832203,0.008,2381.350,43.7,115.280,11303ceb,2,0,24810180.925,0.104,-130378376.216173,0.016,-3700.349,40.8,132.950,18109d24,2,0,24810179.923,0.494,-101593540.247921,0.026,-2883.394,34.8,118.260,11303d2b,13,0,21182495.376,0.043,-111314767.855743,0.006,-2035.827,48.5,150.920,08109d84,13,0,21182492.155,0.199,-86738765.730712,0.007,-1586.358,42.3,128.760,01303d8b,15,0,20308294.548,0.033,-106720804.390558,0.004,254.505,50.8,151.510,18109dc4,15,0,20308291.050,0.135,-83159057.424360,0.005,198.317,45.6,130.240,11303dcb,21,0,22589207.037,0.054,-118707086.953581,0.007,1717.663,46.4,146.700,18109de4,21,0,22589203.398,0.228,-92499015.294222,0.009,1338.441,41.0,130.220,11303deb*71fc43d6
#BESTPOSA,USB3_1,0,84.0,FINESTEERING,2020,376373.000,00000000,b1f6,14392;SOL_COMPUTED,SINGLE,36.76879638579,126.93553676234,72.9136,23.3000,WGS84,1.5572,2.1405,3.4128,"",0.000,0.000,7,7,7,7,00,06,00,03*e855ddad
#BESTXYZA,USB3_1,0,84.0,FINESTEERING,2020,376373.000,00000000,fac1,14392;SOL_COMPUTED,SINGLE,-3073968.3673,4088857.1948,3796928.3183,2.9971,2.1717,2.2261,SOL_COMPUTED,DOPPLER_VELOCITY,0.0096,-0.0049,0.0094,0.3582,0.2596,0.2661,"",0.000,0.000,0.000,7,7,7,7,0,06,00,03*21cdf65f
#SATXYZ2A,USB3_1,0,84.0,FINESTEERING,2020,376373.000,00000000,7513,14392;7,GPS,5,-24626207.5395,3977805.0051,9304545.0325,-460.415,-0.920,4.051,0.0,0.0,GPS,30,-9250231.9523,-12954136.4492,21263998.5985,5498.861,1.802,22.262,0.0,0.0,GPS,24,-14893101.1732,21787974.0421,-434816.7935,-16775.078,-1.973,3.722,0.0,0.0,GPS,2,-19351550.5999,11378349.3968,-13443875.9670,-4065.556,4.596,25.157,0.0,0.0,GPS,13,-14150799.8226,5028529.3814,21796868.7968,-26475.631,-1.659,3.140,0.0,0.0,GPS,15,-6462350.8398,17562598.9555,18467193.8815,-103352.901,-2.509,2.637,0.0,0.0,GPS,21,4369129.3463,18416731.7652,19453174.3144,-99076.553,-1.614,3.733,0.0,0.0*b216ce33
#RANGEA,USB3_1,0,84.5,FINESTEERING,2020,376374.000,00000000,5103,14392;14,5,0,22246004.823,0.041,-116903538.615072,0.006,-2215.646,48.8,147.840,18109c04,5,0,22246002.109,0.214,-91093654.943669,0.007,-1726.476,41.6,131.280,11303c0b,30,0,25168695.810,0.188,-132262387.197239,0.026,-3172.101,36.9,99.190,08109c84,30,0,25168696.547,0.489,-103061598.729969,0.036,-2471.771,35.8,92.260,01303c8b,24,0,21715464.885,0.050,-114115537.407373,0.007,3055.830,47.5,123.900,18109ce4,24,0,21715464.822,0.179,-88921198.545172,0.008,2381.170,43.6,116.280,11303ceb,2,0,24810885.082,0.101,-130382076.636160,0.016,-3700.348,41.0,133.950,18109d24,2,0,24810884.070,0.403,-101596423.692528,0.024,-2883.391,36.5,119.260,11303d2b,13,0,21182882.816,0.043,-111316803.882599,0.006,-2036.114,48.4,151.920,08109d84,13,0,21182879.595,0.208,-86740352.244003,0.008,-1586.582,41.8,129.760,01303d8b,15,0,20308246.133,0.033,-106720549.988285,0.004,254.191,50.8,152.510,18109dc4,15,0,20308242.636,0.133,-83158859.190045,0.005,198.072,45.7,131.240,11303dcb,21,0,22588880.231,0.054,-118705369.547813,0.008,1717.285,46.4,147.700,18109de4,21,0,22588876.572,0.234,-92497677.061106,0.009,1338.147,40.8,131.220,11303deb*072250ce
#BESTPOSA,USB3_1,0,84.5,FINESTEERING,2020,376374.000,00000000,b1f6,14392;SOL_COMPUTED,SINGLE,36.76879625875,126.93553691118,72.9383,23.3000,WGS84,1.5570,2.1405,3.4121,"",0.000,0.000,7,7,7,7,00,06,00,03*701616df
#BESTXYZA,USB3_1,0,84.5,FINESTEERING,2020,376374.000,00000000,fac1,14392;SOL_COMPUTED,SINGLE,-3073968.3949,4088857.2094,3796928.3218,2.9968,2.1709,2.2259,SOL_COMPUTED,DOPPLER_VELOCITY,0.0252,-0.0279,-0.0005,0.3582,0.2595,0.2660,"",0.000,0.000,0.000,7,7,7,7,0,06,00,03*4b566093
#SATXYZ2A,USB3_1,0,84.5,FINESTEERING,2020,376374.000,00000000,7513,14392;7,GPS,5,-24627363.0239,3977399.0082,9301716.7798,-460.415,-0.922,4.051,0.0,0.0,GPS,30,-9248435.1571,-12956158.2946,21263530.7883,5498.860,1.806,22.280,0.0,0.0,GPS,24,-14893430.4580,21787793.5345,-431668.3509,-16775.078,-1.976,3.721,0.0,0.0,GPS,2,-19350756.3232,11376695.2183,-13446337.9455,-4065.561,4.592,25.185,0.0,0.0,GPS,13,-14151556.2437,5025842.2721,21796998.6106,-26475.631,-1.660,3.141,0.0,0.0,GPS,15,-6463651.0166,17560549.0370,18468709.1893,-103352.902,-2.510,2.637,0.0,0.0,GPS,21,4367709.2885,18418555.0306,19451710.9931,-99076.549,-1.618,3.733,0.0,0.0*90cab0ed
#RANGEA,USB3_1,0,84.5,FINESTEERING,2020,376375.000,00000000,5103,14392;14,5,0,22246426.468,0.042,-116905754.476398,0.005,-2215.727,48.8,148.840,18109c04,5,0,22246423.764,0.201,-91095381.589595,0.007,-1726.540,42.1,132.280,11303c0b,30,0,25169299.520,0.175,-132265559.761684,0.026,-3172.046,37.6,100.190,08109c84,30,0,25169300.145,0.442,-103064070.859023,0.036,-2471.722,36.7,93.260,01303c8b,24,0,21714883.419,0.049,-114112481.853247,0.007,3055.578,47.6,124.900,18109ce4,24,0,21714883.372,0.182,-88918817.599396,0.008,2380.974,43.4,117.280,11303ceb,2,0,24811589.265,0.102,-130385777.111454,0.015,-3700.185,40.9,134.950,18109d24,2,0,24811588.393,0.500,-101599307.172844,0.024,-2883.264,34.6,120.260,11303d2b,13,0,21183270.318,0.043,-111318840.188629,0.007,-2036.130,48.5,152.920,08109d84,13,0,21183267.083,0.191,-86741938.971712,0.008,-1586.596,42.6,130.760,01303d8b,15,0,20308197.803,0.033,-106720296.014034,0.005,254.073,50.8,153.510,18109dc4,15,0,20308194.317,0.134,-83158661.289234,0.005,197.980,45.6,132.240,11303dcb,21,0,22588553.509,0.055,-118703652.627707,0.008,1717.103,46.3,148.700,18109de4,21,0,22588549.844,0.226,-92496339.201950,0.010,1338.004,41.0,132.220,11303deb*af05e4d9
#BESTPOSA,USB3_1,0,84.5,FINESTEERING,2020,376375.000,00000000,b1f6,14392;SOL_COMPUTED,SINGLE,36.76879627451,126.93553699517,72.9391,23.3000,WGS84,1.5568,2.1406,3.4113,"",0.000,0.000,7,7,7,7,00,06,00,03*87c0180d
#BESTXYZA,USB3_1,0,84.5,FINESTEERING,2020,376375.000,00000000,fac1,14392;SOL_COMPUTED,SINGLE,-3073968.4006,4088857.2045,3796928.3237,2.9966,2.1701,2.2257,SOL_COMPUTED,DOPPLER_VELOCITY,0.0399,-0.0359,0.0069,0.3582,0.2594,0.2660,"",0.000,0.000,0.000,7,7,7,7,0,06,00,03*e974cf27
#SATXYZ2A,USB3_1,0,84.5,FINESTEERING,2020,376375.000,00000000,7513,14392;7,GPS,5,-24628518.1782,3976993.1170,9298888.3305,-460.415,-0.923,4.052,0.0,0.0,GPS,30,-9246638.5093,-12958180.1955,21263062.5258,5498.858,1.804,22.298,0.0,0.0,GPS,24,-14893759.5254,21787612.7185,-428519.8989,-16775.079,-1.978,3.721,0.0,0.0,GPS,2,-19349961.9602,11375040.7313,-13448799.6248,-4065.565,4.592,25.212,0.0,0.0,GPS,13,-14152312.8277,5023155.1918,21797127.9559,-26475.631,-1.660,3.141,0.0,0.0,GPS,15,-6464951.3851,17558499.0164,18470224.0920,-103352.902,-2.511,2.637,0.0,0.0,GPS,21,4366289.4327,18420378.2338,19450247.2840,-99076.545,-1.619,3.732,0.0,0.0*408daf34
#RANGEA,USB3_1,0,84.5,FINESTEERING,2020,376376.000,00000000,5103,14392;14,5,0,22246848.090,0.042,-116907970.186157,0.006,-2215.669,48.7,149.840,18109c04,5,0,22246845.383,0.203,-91097108.117028,0.007,-1726.495,41.9,133.280,11303c0b,30,0,25169903.215,0.184,-132268732.200603,0.028,-3172.468,37.0,101.190,08109c84,30,0,25169903.887,0.646,-103066542.886659,0.039,-2472.055,33.3,94.260,01303c8b,24,0,21714301.960,0.049,-114109426.292755,0.007,3055.579,47.6,125.900,18109ce4,24,0,21714301.909,0.194,-88916436.645021,0.008,2380.974,42.8,118.280,11303ceb,2,0,24812293.370,0.102,-130389477.205835,0.016,-3700.109,40.9,135.950,18109d24,2,0,24812292.524,0.446,-101602190.360481,0.024,-2883.206,35.6,121.260,11303d2b,13,0,21183657.787,0.042,-111320876.357788,0.007,-2036.079,48.7,153.920,08109d84,13,0,21183654.559,0.195,-86743525.594316,0.008,-1586.556,42.3,131.760,01303d8b,15,0,20308149.465,0.033,-106720042.019857,0.005,253.982,50.8,154.510,18109dc4,15,0,20308145.986,0.130,-83158463.372969,0.005,197.910,45.8,133.240,11303dcb,21,0,22588226.795,0.054,-118701935.765965,0.008,1716.737,46.4,149.700,18109de4,21,0,22588223.140,0.227,-92495001.386311,0.010,1337.719,41.0,133.220,11303deb*0b5b53cc
#BESTPOSA,USB3_1,0,84.5,FINESTEERING,2020,376376.000,00000000,b1f6,14392;SOL_COMPUTED,SINGLE,36.76879623972,126.93553705865,72.9520,23.3000,WGS84,1.5570,2.1407,3.4112,"",0.000,0.000,7,7,7,7,00,06,00,03*611ae1c2
#BESTXYZA,USB3_1,0,84.5,FINESTEERING,2020,376376.000,00000000,fac1,14392;SOL_COMPUTED,SINGLE,-3073968.4128,4088857.2113,3796928.3284,2.9966,2.1702,2.2257,SOL_COMPUTED,DOPPLER_VELOCITY,-0.0517,0.0423,0.0487,0.3582,0.2594,0.2660,"",0.000,0.000,0.000,7,7,7,7,0,06,00,03*c709d1fb
#SATXYZ2A,USB3_1,0,84.5,FINESTEERING,2020,376376.000,00000000,7513,14392;7,GPS,5,-24629673.0026,3976587.3314,9296059.6848,-460.414,-0.924,4.052,0.0,0.0,GPS,30,-9244842.0089,-12960202.1518,21262593.8110,5498.856,1.804,22.317,0.0,0.0,GPS,24,-14894088.3757,21787431.5940,-425371.4377,-16775.080,-1.980,3.720,0.0,0.0,GPS,2,-19349167.5108,11373385.9359,-13451261.0048,-4065.570,4.595,25.240,0.0,0.0,GPS,13,-14153069.5749,5020468.1407,21797256.8328,-26475.632,-1.658,3.141,0.0,0.0,GPS,15,-6466251.9451,17556448.8938,18471738.5897,-103352.903,-2.511,2.637,0.0,0.0,GPS,21,4364869.7790,18422201.3750,19448783.1871,-99076.541,-1.620,3.732,0.0,0.0*8df4479c
#RANGEA,USB3_1,0,84.5,FINESTEERING,2020,376377.000,00000000,5103,14392;14,5,0,22247269.732,0.042,-116910186.029192,0.005,-2216.000,48.7,150.840,18109c04,5,0,22247267.046,0.200,-91098834.745768,0.007,-1726.754,42.0,134.280,11303c0b,30,0,25170506.911,0.184,-132271904.732058,0.026,-3172.961,37.0,102.190,08109c84,30,0,25170507.533,0.688,-103069014.988909,0.036,-2472.438,32.7,95.260,01303c8b,24,0,21713720.554,0.049,-114106371.011911,0.008,3055.040,47.5,126.900,18109ce4,24,0,21713720.511,0.178,-88914055.907397,0.009,2380.553,43.6,119.280,11303ceb,2,0,24812997.479,0.104,-130393177.203783,0.016,-3700.151,40.8,136.950,18109d24,2,0,24812996.521,0.473,-101605073.459934,0.025,-2883.242,35.0,122.260,11303d2b,13,0,21184045.295,0.042,-111322912.658909,0.006,-2036.469,48.7,154.920,08109d84,13,0,21184042.038,0.204,-86745112.320349,0.007,-1586.860,41.9,132.760,01303d8b,15,0,20308101.185,0.033,-106719788.295496,0.004,253.466,50.8,155.510,18109dc4,15,0,20308097.712,0.128,-83158265.664755,0.005,197.507,46.0,134.240,11303dcb,21,0,22587900.140,0.056,-118700219.200439,0.008,1716.301,46.2,150.700,18109de4,21,0,22587896.461,0.220,-92493663.799038,0.011,1337.377,41.2,134.220,11303deb*b7530f69
#BESTPOSA,USB3_1,0,84.5,FINESTEERING,2020,376377.000,00000000,b1f6,14392;SOL_COMPUTED,SINGLE,36.76879633006,126.93553714064,72.9553,23.3000,WGS84,1.5571,2.1408,3.4109,"",0.000,0.000,7,7,7,7,00,06,00,03*9dfcda81
#BESTXYZA,USB3_1,0,84.5,FINESTEERING,2020,376377.000,00000000,fac1,14392;SOL_COMPUTED,SINGLE,-3073968.4166,4088857.2041,3796928.3383,2.9966,2.1700,2.2256,SOL_COMPUTED,DOPPLER_VELOCITY,-0.0465,0.0576,0.0411,0.3582,0.2594,0.2660,"",0.000,0.000,0.000,7,7,7,7,0,06,00,03*eab0762d
#SATXYZ2A,USB3_1,0,84.5,FINESTEERING,2020,376377.000,00000000,7513,14392;7,GPS,5,-24630827.4968,3976181.6514,9293230.8427,-460.414,-0.924,4.053,0.0,0.0,GPS,30,-9243045.6559,-12962224.1634,21262124.6440,5498.855,1.805,22.335,0.0,0.0,GPS,24,-14894417.0086,21787250.1610,-422222.9672,-16775.081,-1.981,3.719,0.0,0.0,GPS,2,-19348372.9753,11371730.8321,-13453722.0855,-4065.575,4.596,25.268,0.0,0.0,GPS,13,-14153826.4850,5017781.1188,21797385.2411,-26475.632,-1.657,3.142,0.0,0.0,GPS,15,-6467552.6967,17554398.6692,18473252.6821,-103352.904,-2.512,2.637,0.0,0.0,GPS,21,4363450.3274,18424024.4540,19447318.7025,-99076.537,-1.619,3.732,0.0,0.0*fd04e923
#RANGEA,USB3_1,0,84.5,FINESTEERING,2020,376378.000,00000000,5103,14392;14,5,0,22247691.458,0.041,-116912402.328403,0.006,-2216.414,48.9,151.840,18109c04,5,0,22247688.796,0.195,-91100561.727858,0.007,-1727.077,42.3,135.280,11303c0b,30,0,25171110.688,0.173,-132275077.692095,0.025,-3173.647,37.5,103.190,08109c84,30,0,25171111.363,1.384,-103071487.416340,0.036,-2472.973,33.2,96.260,01303c8b,24,0,21713139.252,0.049,-114103316.313810,0.008,3054.470,47.4,127.900,18109ce4,24,0,21713139.236,0.173,-88911675.625323,0.009,2380.110,43.7,120.280,11303ceb,2,0,24813701.604,0.103,-130396877.399189,0.017,-3700.649,40.9,137.950,18109d24,2,0,24813700.717,0.439,-101607956.708391,0.026,-2883.631,35.6,123.260,11303d2b,13,0,21184432.879,0.042,-111324949.404860,0.006,-2036.875,48.8,155.920,08109d84,13,0,21184429.619,0.197,-86746699.396966,0.007,-1587.176,42.1,133.760,01303d8b,15,0,20308053.008,0.033,-106719535.148235,0.004,252.906,50.8,156.510,18109dc4,15,0,20308049.548,0.126,-83158068.407201,0.005,197.071,46.0,135.240,11303dcb,21,0,22587573.607,0.055,-118698503.279043,0.008,1715.584,46.3,151.700,18109de4,21,0,22587569.928,0.220,-92492326.715070,0.010,1336.819,41.2,135.220,11303deb*2ff2ea89
#BESTPOSA,USB3_1,0,84.5,FINESTEERING,2020,376378.000,00000000,b1f6,14392;SOL_COMPUTED,SINGLE,36.76879632679,126.93553721839,72.9512,23.3000,WGS84,1.5570,2.1409,3.4103,"",0.000,0.000,7,7,7,7,00,06,00,03*43a72286
#BESTXYZA,USB3_1,0,84.5,FINESTEERING,2020,376378.000,00000000,fac1,14392;SOL_COMPUTED,SINGLE,-3073968.4203,4088857.1975,3796928.3356,2.9964,2.1693,2.2256,SOL_COMPUTED,DOPPLER_VELOCITY,-0.1065,0.1074,0.0913,0.3581,0.2593,0.2660,"",0.000,0.000,0.000,7,7,7,7,0,06,00,03*d1bc5951
#SATXYZ2A,USB3_1,0,84.5,FINESTEERING,2020,376378.000,00000000,7513,14392;7,GPS,5,-24631981.6610,3975776.0768,9290401.8042,-460.414,-0.923,4.053,0.0,0.0,GPS,30,-9241249.4504,-12964246.2302,21261655.0248,5498.853,1.805,22.353,0.0,0.0,GPS,24,-14894745.4244,21787068.4195,-419074.4876,-16775.082,-1.981,3.719,0.0,0.0,GPS,2,-19347578.3535,11370075.4198,-13456182.8669,-4065.580,4.602,25.296,0.0,0.0,GPS,13,-14154583.5581,5015094.1261,21797513.1811,-26475.632,-1.656,3.142,0.0,0.0,GPS,15,-6468853.6399,17552348.3428,18474766.3694,-103352.904,-2.511,2.637,0.0,0.0,GPS,21,4362031.0779,18425847.4706,19445853.8302,-99076.533,-1.618,3.731,0.0,0.0*6cc89a80
#RANGEA,USB3_1,0,84.5,FINESTEERING,2020,376379.000,00000000,5103,14392;14,5,0,22248113.273,0.041,-116914619.090919,0.006,-2217.130,48.9,152.840,18109c04,5,0,22248110.622,0.213,-91102289.072998,0.007,-1727.635,41.4,136.280,11303c0b,30,0,25171714.588,0.177,-132278251.039032,0.024,-3174.011,37.3,104.190,08109c84,30,0,25171715.322,0.460,-103073960.157240,0.035,-2473.258,36.2,97.260,01303c8b,24,0,21712558.065,0.050,-114100262.208370,0.007,3053.543,47.3,128.900,18109ce4,24,0,21712558.058,0.188,-88909295.806438,0.008,2379.387,43.0,121.280,11303ceb,2,0,24814405.766,0.101,-130400577.811644,0.017,-3700.834,41.1,138.950,18109d24,2,0,24814404.847,0.394,-101610840.142878,0.025,-2883.774,36.6,124.260,11303d2b,13,0,21184820.557,0.042,-111326986.625172,0.007,-2037.654,48.8,156.920,08109d84,13,0,21184817.295,0.200,-86748286.845900,0.008,-1587.781,42.0,134.760,01303d8b,15,0,20308004.947,0.033,-106719282.595335,0.004,252.091,50.8,157.510,18109dc4,15,0,20308001.498,0.131,-83157871.612171,0.005,196.435,45.7,136.240,11303dcb,21,0,22587247.195,0.055,-118696787.999765,0.007,1714.821,46.3,152.700,18109de4,21,0,22587243.514,0.233,-92490990.137626,0.010,1336.224,40.7,136.220,11303deb*6e233ee0
#BESTPOSA,USB3_1,0,84.5,FINESTEERING,2020,376379.000,00000000,b1f6,14392;SOL_COMPUTED,SINGLE,36.76879611578,126.93553742163,72.8961,23.3000,WGS84,1.5568,2.1389,3.3883,"",0.000,0.000,7,7,7,7,00,06,00,03*7196e2d6
#BESTXYZA,USB3_1,0,84.5,FINESTEERING,2020,376379.000,00000000,fac1,14392;SOL_COMPUTED,SINGLE,-3073968.4167,4088857.1626,3796928.2839,2.9948,2.1499,2.2109,SOL_COMPUTED,DOPPLER_VELOCITY,-0.0360,0.0498,0.0424,0.3579,0.2570,0.2643,"",0.000,0.000,0.000,7,7,7,7,0,06,00,03*1209ca10
#SATXYZ2A,USB3_1,0,84.5,FINESTEERING,2020,376379.000,00000000,7513,14392;7,GPS,5,-24633135.4950,3975370.6077,9287572.5695,-460.413,-0.921,4.054,0.0,0.0,GPS,30,-9239453.3925,-12966268.3522,21261184.9533,5498.852,1.809,22.372,0.0,0.0,GPS,24,-14895073.6231,21786886.3695,-415925.9988,-16775.082,-1.982,3.718,0.0,0.0,GPS,2,-19346783.6457,11368419.6992,-13458643.3488,-4065.584,4.610,25.324,0.0,0.0,GPS,13,-14155340.7942,5012407.1627,21797640.6525,-26475.632,-1.657,3.142,0.0,0.0,GPS,15,-6470154.7747,17550297.9145,18476279.6514,-103352.905,-2.578,2.637,0.0,0.0,GPS,21,4360612.0306,18427670.4250,19444388.5702,-99076.529,-1.617,3.731,0.0,0.0*eeba3991
#RANGEA,USB3_1,0,84.5,FINESTEERING,2020,376380.000,00000000,5103,14392;14,5,0,22248535.184,0.041,-116916836.335176,0.005,-2217.406,48.8,153.840,18109c04,5,0,22248532.551,0.215,-91104016.796749,0.007,-1727.849,41.3,137.280,11303c0b,30,0,25172318.556,0.176,-132281424.869452,0.025,-3174.206,37.2,105.190,08109c84,30,0,25172319.275,1.534,-103076433.277155,0.034,-2473.407,30.0,98.260,01303c8b,24,0,21711976.991,0.050,-114097208.714718,0.007,3053.307,47.3,129.900,18109ce4,24,0,21711977.007,0.186,-88906916.463136,0.008,2379.203,43.1,122.280,11303ceb,2,0,24815109.993,0.102,-130404278.474583,0.018,-3700.604,40.9,139.950,18109d24,2,0,24815109.113,0.359,-101613723.764521,0.027,-2883.595,37.3,125.260,11303d2b,13,0,21185208.327,0.041,-111329024.318455,0.006,-2037.823,48.8,157.920,08109d84,13,0,21185205.055,0.186,-86749874.661951,0.008,-1587.912,42.6,135.760,01303d8b,15,0,20307957.003,0.033,-106719030.666103,0.004,251.715,50.8,158.510,18109dc4,15,0,20307953.565,0.130,-83157675.302708,0.004,196.142,45.7,137.240,11303dcb,21,0,22586920.906,0.056,-118695073.404394,0.009,1714.365,46.2,153.700,18109de4,21,0,22586917.224,0.221,-92489654.089066,0.010,1335.870,41.1,137.220,11303deb*61181738
#BESTPOSA,USB3_1,0,84.5,FINESTEERING,2020,376380.000,00000000,b1f6,14392;SOL_COMPUTED,SINGLE,36.76879605930,126.93553741839,72.9126,23.3000,WGS84,1.5570,2.1390,3.3881,"",0.000,0.000,7,7,7,7,00,06,00,03*b0274621
#BESTXYZA,USB3_1,0,84.5,FINESTEERING,2020,376380.000,00000000,fac1,14392;SOL_COMPUTED,SINGLE,-3073968.4267,4088857.1763,3796928.2887,2.9948,2.1496,2.2111,SOL_COMPUTED,DOPPLER_VELOCITY,-0.0318,0.0474,0.0147,0.3579,0.2569,0.2643,"",0.000,0.000,0.000,7,7,7,7,0,06,00,03*24fcb533
#SATXYZ2A,USB3_1,0,84.5,FINESTEERING,2020,376380.000,00000000,7513,14392;7,GPS,5,-24634288.9988,3974965.2441,9284743.1387,-460.413,-0.920,4.054,0.0,0.0,GPS,30,-9237657.4821,-12968290.5294,21260714.4296,5498.850,1.807,22.390,0.0,0.0,GPS,24,-14895401.6046,21786704.0109,-412777.5011,-16775.083,-1.983,3.718,0.0,0.0,GPS,2,-19345988.8518,11366763.6701,-13461103.5312,-4065.589,4.611,25.352,0.0,0.0,GPS,13,-14156098.1933,5009720.2288,21797767.6554,-26475.632,-1.659,3.143,0.0,0.0,GPS,15,-6471456.1010,17548247.3845,18477792.5282,-103352.906,-2.578,2.637,0.0,0.0,GPS,21,4359193.1853,18429493.3170,19442922.9226,-99076.525,-1.618,3.731,0.0,0.0*6a395854
#RANGEA,USB3_1,0,84.5,FINESTEERING,2020,376381.000,00000000,5103,14392;14,5,0,22248957.112,0.041,-116919053.678654,0.006,-2217.374,48.9,154.840,18109c04,5,0,22248954.472,0.200,-91105744.597662,0.007,-1727.824,41.9,138.280,11303c0b,30,0,25172922.553,0.177,-132284598.812971,0.023,-3174.464,37.2,106.190,08109c84,30,0,25172923.096,0.614,-103078906.481418,0.032,-2473.608,33.6,99.260,01303c8b,24,0,21711395.971,0.050,-114094155.460163,0.007,3053.167,47.2,130.900,18109ce4,24,0,21711395.998,0.169,-88904537.306662,0.008,2379.094,43.8,123.280,11303ceb,2,0,24815814.196,0.100,-130407979.000816,0.017,-3700.524,41.1,140.950,18109d24,2,0,24815813.258,0.516,-101616607.287990,0.026,-2883.533,34.1,126.260,11303d2b,13,0,21185596.116,0.041,-111331062.116011,0.006,-2037.902,48.8,158.920,08109d84,13,0,21185592.821,0.190,-86751462.558160,0.007,-1587.974,42.4,136.760,01303d8b,15,0,20307909.103,0.033,-106718778.969810,0.005,251.596,50.7,159.510,18109dc4,15,0,20307905.675,0.124,-83157479.175993,0.005,196.049,46.1,138.240,11303dcb,21,0,22586594.685,0.056,-118693359.093563,0.009,1714.180,46.2,154.700,18109de4,21,0,22586591.016,0.226,-92488318.264804,0.011,1335.726,40.9,138.220,11303deb*5d36f404
#BESTPOSA,USB3_1,0,84.5,FINESTEERING,2020,376381.000,00000000,b1f6,14392;SOL_COMPUTED,SINGLE,36.76879597121,126.93553632133,72.8098,23.3000,WGS84,1.5450,2.0341,3.3319,"",0.000,0.000,7,7,7,7,00,06,00,03*e7a2e85b
#BESTXYZA,USB3_1,0,84.5,FINESTEERING,2020,376381.000,00000000,fac1,14392;SOL_COMPUTED,SINGLE,-3073968.3024,4088857.1740,3796928.2194,2.8758,2.1480,2.1777,SOL_COMPUTED,DOPPLER_VELOCITY,-0.0632,0.0921,0.0382,0.3437,0.2567,0.2603,"",0.000,0.000,0.000,7,7,7,7,0,06,00,03*3e40df67
#SATXYZ2A,USB3_1,0,84.5,FINESTEERING,2020,376381.000,00000000,7513,14392;7,GPS,5,-24635442.1724,3974559.9858,9281913.5116,-460.413,-1.080,4.055,0.0,0.0,GPS,30,-9235861.7194,-12970312.7617,21260243.4538,5498.848,1.805,22.409,0.0,0.0,GPS,24,-14895729.3690,21786521.3437,-409628.9944,-16775.084,-1.984,3.717,0.0,0.0,GPS,2,-19345193.9719,11365107.3327,-13463563.4140,-4065.594,4.615,25.380,0.0,0.0,GPS,13,-14156855.7553,5007033.3243,21797894.1899,-26475.632,-1.770,3.143,0.0,0.0,GPS,15,-6472757.6189,17546196.7528,18479304.9998,-103352.907,-2.578,2.637,0.0,0.0,GPS,21,4357774.5422,18431316.1466,19441456.8874,-99076.521,-1.650,3.730,0.0,0.0*cd2e875e
#RANGEA,USB3_1,0,84.0,FINESTEERING,2020,376382.000,00000000,5103,14392;14,5,0,22249379.114,0.041,-116921271.406780,0.005,-2217.967,48.8,155.840,18109c04,5,0,22249376.489,0.207,-91107472.696470,0.007,-1728.286,41.6,139.280,11303c0b,30,0,25173526.547,0.179,-132287773.011148,0.084,-3174.169,37.1,107.190,08109c84,30,0,25173527.158,0.487,-103081379.882928,0.094,-2473.380,35.5,100.260,01303c8b,24,0,21710815.046,0.050,-114091102.711191,0.007,3052.482,47.2,131.900,18109ce4,24,0,21710815.070,0.183,-88902158.543664,0.008,2378.560,43.1,124.280,11303ceb,2,0,24816518.419,0.098,-130411679.681908,0.016,-3700.740,41.3,141.950,18109d24,2,0,24816517.533,0.662,-101619490.930784,0.024,-2883.701,31.9,127.260,11303d2b,13,0,21185983.984,0.042,-111333100.293768,0.006,-2038.357,48.8,159.920,08109d84,13,0,21185980.690,0.200,-86753050.746910,0.007,-1588.329,41.9,137.760,01303d8b,15,0,20307861.301,0.033,-106718527.766050,0.005,250.921,50.7,160.510,18109dc4,15,0,20307857.881,0.123,-83157283.430935,0.005,195.523,46.2,139.240,11303dcb,21,0,22586268.568,0.057,-118691645.331692,0.008,1713.505,46.1,155.700,18109de4,21,0,22586264.908,0.233,-92486982.863889,0.010,1335.198,40.6,139.220,11303deb*9cf7fb1b
#BESTPOSA,USB3_1,0,84.0,FINESTEERING,2020,376382.000,00000000,b1f6,14392;SOL_COMPUTED,SINGLE,36.76879608429,126.93553638491,72.7779,23.3000,WGS84,1.5452,2.0342,3.3319,"",0.000,0.000,7,7,7,7,00,06,00,03*9937be03
#BESTXYZA,USB3_1,0,84.0,FINESTEERING,2020,376382.000,00000000,fac1,14392;SOL_COMPUTED,SINGLE,-3073968.2871,4088857.1441,3796928.2103,2.8759,2.1479,2.1780,SOL_COMPUTED,DOPPLER_VELOCITY,0.0208,-0.0192,0.0067,0.3437,0.2567,0.2603,"",0.000,0.000,0.000,7,7,7,7,0,06,00,03*aabcf004
#SATXYZ2A,USB3_1,0,84.0,FINESTEERING,2020,376382.000,00000000,7513,14392;7,GPS,5,-24636595.0158,3974154.8329,9279083.6885,-460.412,-1.080,4.055,0.0,0.0,GPS,30,-9234066.1043,-12972335.0490,21259772.0257,5498.847,1.805,22.427,0.0,0.0,GPS,24,-14896056.9165,21786338.3678,-406480.4789,-16775.085,-1.985,3.716,0.0,0.0,GPS,2,-19344399.0060,11363450.6870,-13466022.9973,-4065.599,4.617,25.408,0.0,0.0,GPS,13,-14157613.4803,5004346.4493,21798020.2558,-26475.632,-1.771,3.143,0.0,0.0,GPS,15,-6474059.3284,17544146.0194,18480817.0660,-103352.907,-2.578,2.637,0.0,0.0,GPS,21,4356356.1013,18433138.9137,19439990.4645,-99076.517,-1.651,3.730,0.0,0.0*23d66f3a
#RANGEA,USB3_1,0,84.0,FINESTEERING,2020,376383.000,00000000,5103,14392;14,5,0,22249801.205,0.041,-116923489.563326,0.005,-2218.255,48.8,156.840,18109c04,5,0,22249798.587,0.209,-91109201.126913,0.007,-1728.511,41.5,140.280,11303c0b,30,0,25174130.712,0.164,-132290947.694298,0.053,-3174.886,37.7,108.190,08109c84,30,0,25174131.446,0.670,-103083853.627449,0.063,-2473.948,32.7,101.260,01303c8b,24,0,21710234.225,0.050,-114088050.520983,0.007,3051.996,47.1,132.900,18109ce4,24,0,21710234.268,0.174,-88899780.217030,0.008,2378.182,43.6,125.280,11303ceb,2,0,24817222.662,0.097,-130415380.538553,0.017,-3700.891,41.4,142.950,18109d24,2,0,24817221.817,0.442,-101622374.714513,0.025,-2883.816,35.4,128.260,11303d2b,13,0,21186371.930,0.041,-111335138.903557,0.006,-2038.720,48.8,160.920,08109d84,13,0,21186368.603,0.201,-86754639.272869,0.007,-1588.613,41.8,138.760,01303d8b,15,0,20307813.603,0.033,-106718277.132854,0.005,250.462,50.7,161.510,18109dc4,15,0,20307810.193,0.130,-83157088.133639,0.005,195.166,45.6,140.240,11303dcb,21,0,22585942.563,0.056,-118689932.190985,0.007,1712.965,46.2,156.700,18109de4,21,0,22585938.924,0.251,-92485647.947576,0.009,1334.778,39.9,140.220,11303deb*0055f196
#BESTPOSA,USB3_1,0,84.0,FINESTEERING,2020,376383.000,00000000,b1f6,14392;SOL_COMPUTED,SINGLE,36.76879584713,126.93553630923,72.8081,23.3000,WGS84,1.5452,2.0343,3.3315,"",0.000,0.000,7,7,7,7,00,06,00,03*8116e018
